[{"NomBarreau":"AIX EN PROVENCE","avNom":"ADER-REINAUD","avPrenom":"Geneviève","cbRaisonSociale":"ADER REINAUD GENEVIEVE","cbSiretSiren":"323691931","cbAdresse1":"4 rue du 4 septembre","cbAdresse2":"","cbCp":"13100","cbVille":"AIX-EN-PROVENCE","spLibelle1":"Droit commercial, des affaires et de la concurrence","spLibelle2":"Droit de la famille, des personnes et de leur patrimoine","acDateSerment":"","coordinates":[5.4500731,43.5257943]},{"NomBarreau":"AIX EN PROVENCE","avNom":"ANDJERAKIAN NOTARI","avPrenom":"Cécile","cbRaisonSociale":"ANDJERAKIAN  NOTARI CECILE","cbSiretSiren":"385368758","cbAdresse1":"8 Rue Irma Moreau","cbAdresse2":"","cbCp":"13100","cbVille":"AIX-EN-PROVENCE","spLibelle1":"","spLibelle2":"","acDateSerment":"","coordinates":[5.4389078,43.5278196]},{"NomBarreau":"AIX EN PROVENCE","avNom":"BELLEMANIERE","avPrenom":"Philippe","cbRaisonSociale":"LUCCIARDI BELLEMANIERE WATRIN ET GIRAUD SOCIETE D'AVOCATS","cbSiretSiren":"339027070","cbAdresse1":"14 Rue Manuel","cbAdresse2":"","cbCp":"13100","cbVille":"AIX-EN-PROVENCE","spLibelle1":"Droit fiscal et droit douanier","spLibelle2":"Droit des sociétés","acDateSerment":"","coordinates":[5.452281880575496,43.5284631]},{"NomBarreau":"AIX EN PROVENCE","avNom":"CASABIANCA","avPrenom":"Christine","cbRaisonSociale":"CASABIANCA CHRISTINE","cbSiretSiren":"335018917","cbAdresse1":"2 Rue Portalis","cbAdresse2":"","cbCp":"13100","cbVille":"AIX-EN-PROVENCE","spLibelle1":"Droit du travail","spLibelle2":"","acDateSerment":"","coordinates":[5.4515174,43.5291587]},{"NomBarreau":"AIX EN PROVENCE","avNom":"CASTELNAU","avPrenom":"Marie-Monique","cbRaisonSociale":"CASTELNAU MARIE - MONIQUE","cbSiretSiren":"332113935","cbAdresse1":"21 Cours Sextius","cbAdresse2":"","cbCp":"13100","cbVille":"AIX-EN-PROVENCE","spLibelle1":"Droit pénal","spLibelle2":"Droit de la famille, des personnes et de leur patrimoine","acDateSerment":"","coordinates":[5.4436339,43.5312641]},{"NomBarreau":"AIX EN PROVENCE","avNom":"COUDERC POUEY","avPrenom":"Marie José","cbRaisonSociale":"COUDERC POUEY MARIE JOSE","cbSiretSiren":"333091247","cbAdresse1":"150 Avenue Georges Pompidou","cbAdresse2":"Immeuble Hémélythe","cbCp":"13100","cbVille":"AIX-EN-PROVENCE","spLibelle1":"","spLibelle2":"","acDateSerment":"","coordinates":[5.4388316,43.527666]},{"NomBarreau":"AIX EN PROVENCE","avNom":"DAGHER-PINERI","avPrenom":"Véronique","cbRaisonSociale":"DAGHER-PINERI VERONIQUE","cbSiretSiren":"523924611","cbAdresse1":"","cbAdresse2":"","cbCp":"13100","cbVille":"AIX-EN-PROVENCE","spLibelle1":"","spLibelle2":"","acDateSerment":"","coordinates":[5.4474738,43.5298424]},{"NomBarreau":"AIX EN PROVENCE","avNom":"DE PORTALON DE ROSIS","avPrenom":"Mireille","cbRaisonSociale":"DE PORTALON DE ROSIS MIREILLE","cbSiretSiren":"323691907","cbAdresse1":"48 Boulevard Aristide Briand","cbAdresse2":"","cbCp":"13100","cbVille":"AIX-EN-PROVENCE","spLibelle1":"","spLibelle2":"","acDateSerment":"","coordinates":[5.4497768,43.5323679]},{"NomBarreau":"AIX EN PROVENCE","avNom":"DE ROMILLY","avPrenom":"Corinne","cbRaisonSociale":"DE ROMILLY CORINNE","cbSiretSiren":"344692934","cbAdresse1":"6 rue Chastel","cbAdresse2":"","cbCp":"13100","cbVille":"AIX-EN-PROVENCE","spLibelle1":"","spLibelle2":"","acDateSerment":"","coordinates":[5.451791,43.5288266]},{"NomBarreau":"AIX EN PROVENCE","avNom":"FEBBRARO","avPrenom":"Luc-Philippe","cbRaisonSociale":"FEBBRARO LUC PHILIPPE","cbSiretSiren":"350919320","cbAdresse1":"24 Rue Thiers","cbAdresse2":"","cbCp":"13100","cbVille":"AIX-EN-PROVENCE","spLibelle1":"","spLibelle2":"","acDateSerment":"","coordinates":[5.451897792706614,43.5272335]},{"NomBarreau":"AIX EN PROVENCE","avNom":"GIRAUD","avPrenom":"Thierry Laurent","cbRaisonSociale":"LUCCIARDI BELLEMANIERE WATRIN ET GIRAUD SOCIETE D'AVOCATS","cbSiretSiren":"339027070","cbAdresse1":"14 Rue Manuel","cbAdresse2":"","cbCp":"13100","cbVille":"AIX-EN-PROVENCE","spLibelle1":"Droit de la sécurité sociale et de la protection sociale","spLibelle2":"Droit du travail","acDateSerment":"","coordinates":[5.452281880575496,43.5284631]},{"NomBarreau":"AIX EN PROVENCE","avNom":"HUBERT","avPrenom":"Benoit","cbRaisonSociale":"HUBERT BENOIT","cbSiretSiren":"327287538","cbAdresse1":"23 Rue Thiers","cbAdresse2":"","cbCp":"13000","cbVille":"AIX-EN-PROVENCE","spLibelle1":"","spLibelle2":"","acDateSerment":"","coordinates":[5.452034213866305,43.5276665]},{"NomBarreau":"AIX EN PROVENCE","avNom":"HUBERT","avPrenom":"Claudie","cbRaisonSociale":"HUBERT CLAUDIE","cbSiretSiren":"315874677","cbAdresse1":"23 Rue Thiers","cbAdresse2":"","cbCp":"13000","cbVille":"AIX-EN-PROVENCE","spLibelle1":"Droit du travail","spLibelle2":"","acDateSerment":"","coordinates":[5.452034213866305,43.5276665]},{"NomBarreau":"AIX EN PROVENCE","avNom":"KEITA","avPrenom":"Samira","cbRaisonSociale":"KEITA J L KEITA S.","cbSiretSiren":"390702850","cbAdresse1":"12 Rue Emeric David","cbAdresse2":"","cbCp":"13000","cbVille":"AIX-EN-PROVENCE","spLibelle1":"","spLibelle2":"","acDateSerment":"","coordinates":[5.452442125560227,43.52800255]},{"NomBarreau":"AIX EN PROVENCE","avNom":"KLEIN","avPrenom":"Pascale","cbRaisonSociale":"KLEIN PASCALE","cbSiretSiren":"387625742","cbAdresse1":"10 Rue Thiers","cbAdresse2":"Hotel de Piolenc","cbCp":"13100","cbVille":"AIX-EN-PROVENCE","spLibelle1":"","spLibelle2":"","acDateSerment":"","coordinates":[5.451596906123847,43.52792785]},{"NomBarreau":"AIX EN PROVENCE","avNom":"KLEIN","avPrenom":"Philippe","cbRaisonSociale":"RIBON  KLEIN","cbSiretSiren":"338688930","cbAdresse1":"10 Rue Thiers","cbAdresse2":"Hotel de Piolenc","cbCp":"13100","cbVille":"AIX-EN-PROVENCE","spLibelle1":"Droit commercial, des affaires et de la concurrence","spLibelle2":"Droit des garanties, des saretés et des mesures d'exécution","acDateSerment":"","coordinates":[5.451596906123847,43.52792785]},{"NomBarreau":"AIX EN PROVENCE","avNom":"LA SADE","avPrenom":"Odile-Marie","cbRaisonSociale":"LA SADE   CLUSAN","cbSiretSiren":"338115843","cbAdresse1":"2 Rue Goyrand","cbAdresse2":"","cbCp":"13100","cbVille":"AIX-EN-PROVENCE","spLibelle1":"Droit du travail","spLibelle2":"","acDateSerment":"","coordinates":[5.450615672257026,43.52612275]},{"NomBarreau":"AIX EN PROVENCE","avNom":"LANDRISCINA","avPrenom":"Marie-Thérèse","cbRaisonSociale":"LANDRISCINA MARIE THERESE","cbSiretSiren":"344375183","cbAdresse1":"7 Rue Sallier","cbAdresse2":"","cbCp":"13000","cbVille":"AIX-EN-PROVENCE","spLibelle1":"","spLibelle2":"","acDateSerment":"","coordinates":[5.4503338,43.5244131]},{"NomBarreau":"AIX EN PROVENCE","avNom":"PETIT","avPrenom":"Daniel","cbRaisonSociale":"PETIT DANIEL","cbSiretSiren":"318312915","cbAdresse1":"13 Rue des Tanneurs","cbAdresse2":"","cbCp":"13100","cbVille":"AIX-EN-PROVENCE","spLibelle1":"","spLibelle2":"","acDateSerment":"","coordinates":[5.4462459,43.5277855]},{"NomBarreau":"AIX EN PROVENCE","avNom":"PLANTARD","avPrenom":"Maxime","cbRaisonSociale":"PLANTARD  ROCHAS  VIRY","cbSiretSiren":"782686380","cbAdresse1":"13 Place John Rewald","cbAdresse2":"Espace Forbin","cbCp":"13100","cbVille":"AIX-EN-PROVENCE","spLibelle1":"","spLibelle2":"","acDateSerment":"","coordinates":[5.455725787740084,43.5244952]},{"NomBarreau":"AIX EN PROVENCE","avNom":"RAMOGNINO","avPrenom":"Claude","cbRaisonSociale":"RAMOGNINO CLAUDE","cbSiretSiren":"349924159","cbAdresse1":"24 Rue Thiers","cbAdresse2":"","cbCp":"13100","cbVille":"AIX-EN-PROVENCE","spLibelle1":"","spLibelle2":"","acDateSerment":"","coordinates":[5.451897792706614,43.5272335]},{"NomBarreau":"AIX EN PROVENCE","avNom":"ROCHAS","avPrenom":"Jean-Michel","cbRaisonSociale":"PLANTARD  ROCHAS  VIRY","cbSiretSiren":"782686380","cbAdresse1":"13 Place John Rewald","cbAdresse2":"Espace Forbin","cbCp":"13100","cbVille":"AIX-EN-PROVENCE","spLibelle1":"Droit commercial, des affaires et de la concurrence","spLibelle2":"Droit du travail","acDateSerment":"","coordinates":[5.455725787740084,43.5244952]},{"NomBarreau":"AIX EN PROVENCE","avNom":"ROUILLIER","avPrenom":"Julie","cbRaisonSociale":"PLANTARD  ROCHAS  VIRY","cbSiretSiren":"782686380","cbAdresse1":"13 Place John Rewald","cbAdresse2":"Espace Forbin","cbCp":"13100","cbVille":"AIX-EN-PROVENCE","spLibelle1":"","spLibelle2":"","acDateSerment":"","coordinates":[5.455725787740084,43.5244952]},{"NomBarreau":"AIX EN PROVENCE","avNom":"SALORD","avPrenom":"Christian","cbRaisonSociale":"SALORD CHRISTIAN","cbSiretSiren":"327462206","cbAdresse1":"1 RUE FREDERIC MISTRAL","cbAdresse2":"Le Mirabeau II","cbCp":"13100","cbVille":"AIX-EN-PROVENCE","spLibelle1":"","spLibelle2":"","acDateSerment":"","coordinates":[5.292040519761906,43.5388817]},{"NomBarreau":"AIX EN PROVENCE","avNom":"SAMBUC","avPrenom":"Anne","cbRaisonSociale":"SAMBUC ANNE","cbSiretSiren":"381508894","cbAdresse1":"10 Rue Thiers","cbAdresse2":"Hotel de Piolenc","cbCp":"13100","cbVille":"AIX-EN-PROVENCE","spLibelle1":"","spLibelle2":"","acDateSerment":"","coordinates":[5.451596906123847,43.52792785]},{"NomBarreau":"AIX EN PROVENCE","avNom":"TERRANCLE","avPrenom":"Isabelle","cbRaisonSociale":"TERRANCLE ISABELLE","cbSiretSiren":"350925665","cbAdresse1":"7 Rue Fabrot","cbAdresse2":"","cbCp":"13100","cbVille":"AIX-EN-PROVENCE","spLibelle1":"","spLibelle2":"","acDateSerment":"","coordinates":[5.45031,43.5275563]},{"NomBarreau":"AIX EN PROVENCE","avNom":"WATRIN","avPrenom":"Didier","cbRaisonSociale":"LUCCIARDI BELLEMANIERE WATRIN ET GIRAUD SOCIETE D'AVOCATS","cbSiretSiren":"339027070","cbAdresse1":"14 Rue Manuel","cbAdresse2":"","cbCp":"13100","cbVille":"AIX-EN-PROVENCE","spLibelle1":"Droit fiscal et droit douanier","spLibelle2":"Droit des sociétés","acDateSerment":"","coordinates":[5.452281880575496,43.5284631]}]