[{"NomBarreau":"ALBERTVILLE","avNom":"CLARAZ-MURAT","avPrenom":"Marie Christine","cbRaisonSociale":"CLARAZ-MURAT M.CHRISTINE","cbSiretSiren":"390379543","cbAdresse1":"23 Avenue Victor Hugo","cbAdresse2":"Immeuble Le Victor Hugo","cbCp":"73200","cbVille":"ALBERTVILLE","spLibelle1":"","spLibelle2":"","acDateSerment":"","coordinates":[6.3862405,45.673961]},{"NomBarreau":"ALBERTVILLE","avNom":"COUTIN","avPrenom":"Bernard","cbRaisonSociale":"SCP COUTIN","cbSiretSiren":"331734814","cbAdresse1":"2 Rue Bugeaud","cbAdresse2":"BP 62","cbCp":"73201","cbVille":"ALBERTVILLE","spLibelle1":"Droit commercial, des affaires et de la concurrence","spLibelle2":"Droit du travail","acDateSerment":"","coordinates":[6.3938043,45.678131]},{"NomBarreau":"ALBERTVILLE","avNom":"JASTRZEB-SENELAS","avPrenom":"Zelda","cbRaisonSociale":"JASTRZEB-SENELAS ZELDA","cbSiretSiren":"880156922","cbAdresse1":"2 Rue Gambetta","cbAdresse2":"","cbCp":"73200","cbVille":"ALBERTVILLE","spLibelle1":"","spLibelle2":"","acDateSerment":"","coordinates":[6.3931557,45.6766357]},{"NomBarreau":"ALBERTVILLE","avNom":"LAZZARIMA","avPrenom":"Anne-Marie","cbRaisonSociale":"LAZZARIMA A.MARIE","cbSiretSiren":"328682943","cbAdresse1":"95 Place de l'Europe","cbAdresse2":"","cbCp":"73200","cbVille":"ALBERTVILLE","spLibelle1":"Droit de la famille, des personnes et de leur patrimoine","spLibelle2":"Droit immobilier","acDateSerment":"","coordinates":[6.392409219392222,45.6761787]},{"NomBarreau":"ALBERTVILLE","avNom":"MANTELLO","avPrenom":"Virginie","cbRaisonSociale":"MLB AVOCATS","cbSiretSiren":"","cbAdresse1":"95 place de l'Europe","cbAdresse2":"","cbCp":"73200","cbVille":"ALBERTVILLE","spLibelle1":"","spLibelle2":"","acDateSerment":"","coordinates":[6.392409219392222,45.6761787]},{"NomBarreau":"ALBERTVILLE","avNom":"MASOERO","avPrenom":"Pascale","cbRaisonSociale":"MASOERO PASCALE","cbSiretSiren":"429649544","cbAdresse1":"95 Place de l'Europe","cbAdresse2":"","cbCp":"73200","cbVille":"ALBERTVILLE","spLibelle1":"","spLibelle2":"","acDateSerment":"","coordinates":[6.392409219392222,45.6761787]},{"NomBarreau":"ALBERTVILLE","avNom":"MORARDET-VALLET","avPrenom":"Sylvie","cbRaisonSociale":"SELARL PADZUNASS SALVISBERG & ASSOCIES","cbSiretSiren":"502462187","cbAdresse1":"95 Place de l'Europe","cbAdresse2":"","cbCp":"73200","cbVille":"ALBERTVILLE","spLibelle1":"","spLibelle2":"","acDateSerment":"","coordinates":[6.392409219392222,45.6761787]},{"NomBarreau":"ALBERTVILLE","avNom":"MURAT","avPrenom":"Philippe","cbRaisonSociale":"MURAT PHILIPPE","cbSiretSiren":"349956706","cbAdresse1":"23 Avenue Victor Hugo","cbAdresse2":"Immeuble le Victor Hugo","cbCp":"73200","cbVille":"ALBERTVILLE","spLibelle1":"","spLibelle2":"","acDateSerment":"","coordinates":[6.3862405,45.673961]},{"NomBarreau":"ALBERTVILLE","avNom":"PADZUNASS","avPrenom":"Anne","cbRaisonSociale":"SELARL PADZUNASS SALVISBERG & ASSOCIES","cbSiretSiren":"502462187","cbAdresse1":"95 Place de l'Europe","cbAdresse2":"","cbCp":"73200","cbVille":"ALBERTVILLE","spLibelle1":"","spLibelle2":"","acDateSerment":"","coordinates":[6.392409219392222,45.6761787]},{"NomBarreau":"ALBERTVILLE","avNom":"PEREIRA","avPrenom":"Sarah","cbRaisonSociale":"PEREIRA","cbSiretSiren":"793633108","cbAdresse1":"3 Rue Claude Genoux","cbAdresse2":"","cbCp":"73200","cbVille":"ALBERTVILLE","spLibelle1":"","spLibelle2":"","acDateSerment":"","coordinates":[6.3888913,45.6769918]},{"NomBarreau":"ALBERTVILLE","avNom":"SALVISBERG","avPrenom":"Paul","cbRaisonSociale":"SELARL PADZUNASS SALVISBERG & ASSOCIES","cbSiretSiren":"502462187","cbAdresse1":"95 Place de l'Europe","cbAdresse2":"","cbCp":"73200","cbVille":"ALBERTVILLE","spLibelle1":"","spLibelle2":"","acDateSerment":"","coordinates":[6.392409219392222,45.6761787]}]