[{"NomBarreau":"ARRAS","avNom":"ABDELKRIM","avPrenom":"Mohamed","cbRaisonSociale":"ABDELKRIM MOHAMED","cbSiretSiren":"799980073","cbAdresse1":"28 Rue de Chateaudun","cbAdresse2":"","cbCp":"62000","cbVille":"ARRAS","spLibelle1":"","spLibelle2":"","acDateSerment":"","coordinates":[2.7680138,50.2916659]},{"NomBarreau":"ARRAS","avNom":"ACTHERGAL","avPrenom":"Ophélie","cbRaisonSociale":"ACTHERGAL OPHELIE","cbSiretSiren":"844129734","cbAdresse1":"13 Rue Emile Lenglet","cbAdresse2":"","cbCp":"62000","cbVille":"ARRAS","spLibelle1":"","spLibelle2":"","acDateSerment":"","coordinates":[2.77521,50.2868466]},{"NomBarreau":"ARRAS","avNom":"BAKIR","avPrenom":"Maeva","cbRaisonSociale":"BAKIR MAEVA","cbSiretSiren":"891881112","cbAdresse1":"21 Rue Camille Corot","cbAdresse2":"","cbCp":"62000","cbVille":"ARRAS","spLibelle1":"","spLibelle2":"","acDateSerment":"","coordinates":[2.7893717,50.2843718]},{"NomBarreau":"ARRAS","avNom":"BEBEN","avPrenom":"Alexandre","cbRaisonSociale":"CABINET BODEREAU AVOCATS","cbSiretSiren":"421321852","cbAdresse1":"6 Place de la Vacquerie","cbAdresse2":"","cbCp":"62000","cbVille":"ARRAS","spLibelle1":"","spLibelle2":"","acDateSerment":"","coordinates":[2.7763899,50.2914148]},{"NomBarreau":"ARRAS","avNom":"BERNARD","avPrenom":"Laurette","cbRaisonSociale":"BERNARD LAURETTE","cbSiretSiren":"492286042","cbAdresse1":"42 Grand'Place","cbAdresse2":"","cbCp":"62000","cbVille":"ARRAS","spLibelle1":"","spLibelle2":"","acDateSerment":"","coordinates":[2.780911,50.2916827]},{"NomBarreau":"ARRAS","avNom":"BIETTE","avPrenom":"Alexandre","cbRaisonSociale":"ACTIS CONSEILS","cbSiretSiren":"492743877","cbAdresse1":"2 rue Willy Brandt","cbAdresse2":"Synergie Park des Bonnettes","cbCp":"62000","cbVille":"ARRAS","spLibelle1":"","spLibelle2":"","acDateSerment":"","coordinates":[2.7275484,50.3035548]},{"NomBarreau":"ARRAS","avNom":"BODEREAU","avPrenom":"Alexandra","cbRaisonSociale":"CABINET BODEREAU AVOCATS","cbSiretSiren":"421321852","cbAdresse1":"6 Place de la Vacquerie","cbAdresse2":"","cbCp":"62000","cbVille":"ARRAS","spLibelle1":"","spLibelle2":"","acDateSerment":"","coordinates":[2.7763899,50.2914148]},{"NomBarreau":"ARRAS","avNom":"BODEREAU","avPrenom":"Philippe","cbRaisonSociale":"BODEREAU PHILIPPE","cbSiretSiren":"317672467","cbAdresse1":"6 Place de la Vacquerie","cbAdresse2":"","cbCp":"62000","cbVille":"ARRAS","spLibelle1":"","spLibelle2":"","acDateSerment":"","coordinates":[2.7763899,50.2914148]},{"NomBarreau":"ARRAS","avNom":"CAMPAGNE","avPrenom":"Thibault","cbRaisonSociale":"CAMPAGNE AVOCAT","cbSiretSiren":"904623535","cbAdresse1":"9 Rue Chanzy","cbAdresse2":"2ème étage","cbCp":"62000","cbVille":"ARRAS","spLibelle1":"","spLibelle2":"","acDateSerment":"","coordinates":[2.7810659,50.2879858]},{"NomBarreau":"ARRAS","avNom":"CHOPIN","avPrenom":"Agathe","cbRaisonSociale":"CABINET SIPP AVOCATS","cbSiretSiren":"521190777","cbAdresse1":"47 boulevard faidherbe","cbAdresse2":"","cbCp":"62000","cbVille":"ARRAS","spLibelle1":"","spLibelle2":"","acDateSerment":"","coordinates":[2.782611,50.2927768]},{"NomBarreau":"ARRAS","avNom":"CHROSCIK","avPrenom":"Jean","cbRaisonSociale":"JEAN CHROSCIK","cbSiretSiren":"482273380","cbAdresse1":"28 Boulevard de Strasbourg","cbAdresse2":"","cbCp":"62000","cbVille":"ARRAS","spLibelle1":"","spLibelle2":"","acDateSerment":"","coordinates":[2.7792153,50.2879853]},{"NomBarreau":"ARRAS","avNom":"DE CLERCQ-LEFEVRE","avPrenom":"Léa","cbRaisonSociale":"DE CLERCQ-LEFEVRE LEA","cbSiretSiren":"899519474","cbAdresse1":"47 boulevard faidherbe","cbAdresse2":"","cbCp":"62000","cbVille":"ARRAS","spLibelle1":"","spLibelle2":"","acDateSerment":"","coordinates":[2.782611,50.2927768]},{"NomBarreau":"ARRAS","avNom":"DEBLIQUIS","avPrenom":"Vincent","cbRaisonSociale":"DEBLIQUIS VINCENT","cbSiretSiren":"353854110","cbAdresse1":"16 Boulevard Faidherbe","cbAdresse2":"","cbCp":"62000","cbVille":"ARRAS","spLibelle1":"","spLibelle2":"","acDateSerment":"","coordinates":[2.782611,50.2927768]},{"NomBarreau":"ARRAS","avNom":"DECAT","avPrenom":"Pierre-Nicolas","cbRaisonSociale":"DECAT PIERRE-NICOLAS","cbSiretSiren":"807996822","cbAdresse1":"79 Bis Rue de Cambrai","cbAdresse2":"","cbCp":"62000","cbVille":"ARRAS","spLibelle1":"","spLibelle2":"","acDateSerment":"","coordinates":[2.8055085,50.2821865]},{"NomBarreau":"ARRAS","avNom":"DELACOUR-PENAZZO","avPrenom":"Valérie","cbRaisonSociale":"FIDAL","cbSiretSiren":"525031522","cbAdresse1":"31 Boulevard Carnot","cbAdresse2":"","cbCp":"62000","cbVille":"ARRAS","spLibelle1":"","spLibelle2":"","acDateSerment":"","coordinates":[2.7773027,50.2873836]},{"NomBarreau":"ARRAS","avNom":"DUPONT","avPrenom":"Bernard Marie","cbRaisonSociale":"DUPONT BERNARD MARIE","cbSiretSiren":"444654677","cbAdresse1":"4 rue Aristide Briand","cbAdresse2":"","cbCp":"62000","cbVille":"ARRAS","spLibelle1":"","spLibelle2":"","acDateSerment":"","coordinates":[2.7707797,50.2881129]},{"NomBarreau":"ARRAS","avNom":"DUPRIEZ","avPrenom":"Angélique","cbRaisonSociale":"DUPRIEZ ANGELIQUE","cbSiretSiren":"445386345","cbAdresse1":"8 rue des Agaches","cbAdresse2":"","cbCp":"62000","cbVille":"ARRAS","spLibelle1":"","spLibelle2":"","acDateSerment":"","coordinates":[2.7712241,50.2918298]},{"NomBarreau":"ARRAS","avNom":"DUSSART","avPrenom":"Maxime","cbRaisonSociale":"DPA CONSEIL ME DUSSART","cbSiretSiren":"811986660","cbAdresse1":"8 rue Roger Salengro","cbAdresse2":"","cbCp":"62000","cbVille":"ARRAS","spLibelle1":"","spLibelle2":"","acDateSerment":"","coordinates":[2.7689249,50.2939934]},{"NomBarreau":"ARRAS","avNom":"FICHELLE","avPrenom":"Marie","cbRaisonSociale":"FICHELLE MARIE","cbSiretSiren":"393912266","cbAdresse1":"13 Square St Jean","cbAdresse2":"","cbCp":"62000","cbVille":"ARRAS","spLibelle1":"","spLibelle2":"","acDateSerment":"","coordinates":[2.7703328,50.2918987]},{"NomBarreau":"ARRAS","avNom":"FOULON","avPrenom":"Alain","cbRaisonSociale":"CHAINTRIER AVOCATS","cbSiretSiren":"542063664","cbAdresse1":"41 Rue Roger Salengro","cbAdresse2":"","cbCp":"62000","cbVille":"ARRAS","spLibelle1":"Droit de la sécurité sociale et de la protection sociale","spLibelle2":"Droit du travail","acDateSerment":"","coordinates":[2.76887,50.2945234]},{"NomBarreau":"ARRAS","avNom":"GABRIEL","avPrenom":"Anne-Sophie","cbRaisonSociale":"LGP AVOCATS","cbSiretSiren":"879907582","cbAdresse1":"13 Rue de Beauffort","cbAdresse2":"","cbCp":"62000","cbVille":"ARRAS","spLibelle1":"","spLibelle2":"","acDateSerment":"","coordinates":[2.7687138,50.2874809]},{"NomBarreau":"ARRAS","avNom":"GABRY","avPrenom":"Marianne","cbRaisonSociale":"GABRY MARIANNE","cbSiretSiren":"922341334","cbAdresse1":"1 Place de la Madeleine","cbAdresse2":"","cbCp":"62000","cbVille":"ARRAS","spLibelle1":"","spLibelle2":"","acDateSerment":"","coordinates":[2.7729632,50.2915006]},{"NomBarreau":"ARRAS","avNom":"GARNIER","avPrenom":"Anne","cbRaisonSociale":"CHAINTRIER AVOCATS","cbSiretSiren":"542063664","cbAdresse1":"41 Rue Roger Salengro","cbAdresse2":"","cbCp":"62000","cbVille":"ARRAS","spLibelle1":"","spLibelle2":"","acDateSerment":"","coordinates":[2.76887,50.2945234]},{"NomBarreau":"ARRAS","avNom":"GORNY","avPrenom":"Julie","cbRaisonSociale":"GORNY JULIE","cbSiretSiren":"444847040","cbAdresse1":"25 rue de Douai","cbAdresse2":"","cbCp":"62000","cbVille":"ARRAS","spLibelle1":"","spLibelle2":"","acDateSerment":"","coordinates":[2.783675,50.2883547]},{"NomBarreau":"ARRAS","avNom":"HOULMANN","avPrenom":"Océane","cbRaisonSociale":"HOULMANN OCEANE","cbSiretSiren":"814858783","cbAdresse1":"5 Boulevard Faidherbe","cbAdresse2":"","cbCp":"62000","cbVille":"ARRAS","spLibelle1":"","spLibelle2":"","acDateSerment":"","coordinates":[2.781428,50.2881029]},{"NomBarreau":"ARRAS","avNom":"HUMEZ","avPrenom":"Géry","cbRaisonSociale":"CABINET D'AVOCATS GERY HUMEZ","cbSiretSiren":"393110234","cbAdresse1":"28 Rue de Chateaudun","cbAdresse2":"","cbCp":"62000","cbVille":"ARRAS","spLibelle1":"","spLibelle2":"","acDateSerment":"","coordinates":[2.7680138,50.2916659]},{"NomBarreau":"ARRAS","avNom":"JACOBUS","avPrenom":"Antoine","cbRaisonSociale":"SYNERGIS","cbSiretSiren":"851666891","cbAdresse1":"5 Boulevard Faidherbe","cbAdresse2":"","cbCp":"62000","cbVille":"ARRAS","spLibelle1":"","spLibelle2":"","acDateSerment":"","coordinates":[2.781428,50.2881029]},{"NomBarreau":"ARRAS","avNom":"JAGODZINSKI-BAHEUX","avPrenom":"Sabine","cbRaisonSociale":"FIDAL","cbSiretSiren":"525031522","cbAdresse1":"31 Boulevard Carnot","cbAdresse2":"","cbCp":"62000","cbVille":"ARRAS","spLibelle1":"","spLibelle2":"","acDateSerment":"","coordinates":[2.7773027,50.2873836]},{"NomBarreau":"ARRAS","avNom":"KOFFI","avPrenom":"Kouamé","cbRaisonSociale":"KOFFI KOUAME","cbSiretSiren":"397648221","cbAdresse1":"4 rue Aristide Briand","cbAdresse2":"","cbCp":"62000","cbVille":"ARRAS","spLibelle1":"","spLibelle2":"","acDateSerment":"","coordinates":[2.7707797,50.2881129]},{"NomBarreau":"ARRAS","avNom":"KOSKAS","avPrenom":"Yael","cbRaisonSociale":"KOSKAS YAEL","cbSiretSiren":"442210274","cbAdresse1":"42 Grand'Place","cbAdresse2":"","cbCp":"62000","cbVille":"ARRAS","spLibelle1":"","spLibelle2":"","acDateSerment":"","coordinates":[2.780911,50.2916827]},{"NomBarreau":"ARRAS","avNom":"LACHEVRE","avPrenom":"Anais","cbRaisonSociale":"LACHEVRE ANAAS","cbSiretSiren":"834000184","cbAdresse1":"9 Rue Chanzy","cbAdresse2":"2ème étage","cbCp":"62000","cbVille":"ARRAS","spLibelle1":"","spLibelle2":"","acDateSerment":"","coordinates":[2.7810659,50.2879858]},{"NomBarreau":"ARRAS","avNom":"LAMBERT","avPrenom":"Anny","cbRaisonSociale":"LAMBERT ANNY","cbSiretSiren":"394038061","cbAdresse1":"39 rue Gambetta","cbAdresse2":"Résidence Gambetta","cbCp":"62000","cbVille":"ARRAS","spLibelle1":"","spLibelle2":"","acDateSerment":"","coordinates":[2.7752332,50.2892655]},{"NomBarreau":"ARRAS","avNom":"LAMORIL","avPrenom":"Matthieu","cbRaisonSociale":"VINCHANT LAMORIL","cbSiretSiren":"421633363","cbAdresse1":"27 Rue Paul Doumer","cbAdresse2":"","cbCp":"62000","cbVille":"ARRAS","spLibelle1":"Droit de la sécurité sociale et de la protection sociale","spLibelle2":"Droit du travail","acDateSerment":"","coordinates":[2.774233,50.291087]},{"NomBarreau":"ARRAS","avNom":"LANGENFELD","avPrenom":"Christian","cbRaisonSociale":"CHAINTRIER AVOCATS","cbSiretSiren":"542063664","cbAdresse1":"41 Rue Roger Salengro","cbAdresse2":"","cbCp":"62000","cbVille":"ARRAS","spLibelle1":"","spLibelle2":"","acDateSerment":"","coordinates":[2.76887,50.2945234]},{"NomBarreau":"ARRAS","avNom":"LASRI","avPrenom":"Nadir","cbRaisonSociale":"LASRI NADIR","cbSiretSiren":"824506323","cbAdresse1":"22 Grand'Place","cbAdresse2":"","cbCp":"62000","cbVille":"ARRAS","spLibelle1":"","spLibelle2":"","acDateSerment":"","coordinates":[2.7804971,50.2911713]},{"NomBarreau":"ARRAS","avNom":"LE GENTIL","avPrenom":"Antoine","cbRaisonSociale":"LE GENTIL","cbSiretSiren":"420070179","cbAdresse1":"3 BIS Place du Wetz d'Amain","cbAdresse2":"","cbCp":"62000","cbVille":"ARRAS","spLibelle1":"","spLibelle2":"","acDateSerment":"","coordinates":[2.770036,50.2914559]},{"NomBarreau":"ARRAS","avNom":"LE RIOUX","avPrenom":"Benjamin","cbRaisonSociale":"SYNERGIS","cbSiretSiren":"851666891","cbAdresse1":"5 Boulevard Faidherbe","cbAdresse2":"","cbCp":"62000","cbVille":"ARRAS","spLibelle1":"","spLibelle2":"","acDateSerment":"","coordinates":[2.781428,50.2881029]},{"NomBarreau":"ARRAS","avNom":"LEFRANC","avPrenom":"David","cbRaisonSociale":"LEFRANC ET ASSOCIES","cbSiretSiren":"818254914","cbAdresse1":"14 Rue des Capucins","cbAdresse2":"","cbCp":"62000","cbVille":"ARRAS","spLibelle1":"Droit de la propriété intellectuelle","spLibelle2":"Droit du numérique et des communications","acDateSerment":"","coordinates":[2.7717915,50.2892241]},{"NomBarreau":"ARRAS","avNom":"LEFRANC","avPrenom":"Jean Louis","cbRaisonSociale":"LEFRANC JEAN LOUIS","cbSiretSiren":"","cbAdresse1":"28 Rue de Chateaudun","cbAdresse2":"","cbCp":"62000","cbVille":"ARRAS","spLibelle1":"","spLibelle2":"","acDateSerment":"","coordinates":[2.7680138,50.2916659]},{"NomBarreau":"ARRAS","avNom":"LELIGOIS-BIETTE","avPrenom":"Christine","cbRaisonSociale":"ACTIS CONSEILS","cbSiretSiren":"492743877","cbAdresse1":"2 rue Willy Brandt","cbAdresse2":"Synergie Park des Bonnettes","cbCp":"62000","cbVille":"ARRAS","spLibelle1":"","spLibelle2":"","acDateSerment":"","coordinates":[2.7275484,50.3035548]},{"NomBarreau":"ARRAS","avNom":"LESTRELIN","avPrenom":"Céline","cbRaisonSociale":"FIDAL","cbSiretSiren":"525031522","cbAdresse1":"31 Boulevard Carnot","cbAdresse2":"","cbCp":"62000","cbVille":"ARRAS","spLibelle1":"","spLibelle2":"","acDateSerment":"","coordinates":[2.7773027,50.2873836]},{"NomBarreau":"ARRAS","avNom":"LEVESQUE","avPrenom":"Bertille","cbRaisonSociale":"FIDAL","cbSiretSiren":"525031522","cbAdresse1":"31 Boulevard Carnot","cbAdresse2":"","cbCp":"62000","cbVille":"ARRAS","spLibelle1":"","spLibelle2":"","acDateSerment":"","coordinates":[2.7773027,50.2873836]},{"NomBarreau":"ARRAS","avNom":"MAMMONE","avPrenom":"François","cbRaisonSociale":"MAMMONE FRANCOIS","cbSiretSiren":"833821804","cbAdresse1":"6 Place de la Vacquerie","cbAdresse2":"","cbCp":"62000","cbVille":"ARRAS","spLibelle1":"","spLibelle2":"","acDateSerment":"","coordinates":[2.7763899,50.2914148]},{"NomBarreau":"ARRAS","avNom":"MBARGA","avPrenom":"Armand","cbRaisonSociale":"MBARGA ARMAND","cbSiretSiren":"387702319","cbAdresse1":"4 rue Aristide Briand","cbAdresse2":"","cbCp":"62000","cbVille":"ARRAS","spLibelle1":"","spLibelle2":"","acDateSerment":"","coordinates":[2.7707797,50.2881129]},{"NomBarreau":"ARRAS","avNom":"MEILLIER","avPrenom":"Philippe","cbRaisonSociale":"SOCIETE D'AVOCATS MEILLIER","cbSiretSiren":"783910110","cbAdresse1":"1 Place de la Madeleine","cbAdresse2":"","cbCp":"62000","cbVille":"ARRAS","spLibelle1":"Droit public","spLibelle2":"Droit rural","acDateSerment":"","coordinates":[2.7729632,50.2915006]},{"NomBarreau":"ARRAS","avNom":"MULLIEZ-BIGOTTE","avPrenom":"Charlotte","cbRaisonSociale":"MULLIEZ-BIGOTTE CHARLOTTE","cbSiretSiren":"833439417","cbAdresse1":"47 Boulevard Faidherbe","cbAdresse2":"","cbCp":"62000","cbVille":"ARRAS","spLibelle1":"","spLibelle2":"","acDateSerment":"","coordinates":[2.782611,50.2927768]},{"NomBarreau":"ARRAS","avNom":"OSSEYRAN","avPrenom":"Yann","cbRaisonSociale":"OSSEYRAN YANN","cbSiretSiren":"394400147","cbAdresse1":"3 Place des Etats d'Artois","cbAdresse2":"","cbCp":"62000","cbVille":"ARRAS","spLibelle1":"","spLibelle2":"","acDateSerment":"","coordinates":[2.7764771,50.2903019]},{"NomBarreau":"ARRAS","avNom":"PAGIN","avPrenom":"Ginette","cbRaisonSociale":"PAGIN GINETTE","cbSiretSiren":"403573447","cbAdresse1":"8 Rue des 4 Crosses","cbAdresse2":"Résidence Royale   RDC","cbCp":"62000","cbVille":"ARRAS","spLibelle1":"","spLibelle2":"","acDateSerment":"","coordinates":[2.773543,50.2884533]},{"NomBarreau":"ARRAS","avNom":"POLLARD","avPrenom":"Céline","cbRaisonSociale":"CABINET DEBARBIEUX POLLARD","cbSiretSiren":"489119925","cbAdresse1":"13 Boulevard Carnot","cbAdresse2":"","cbCp":"62000","cbVille":"ARRAS","spLibelle1":"","spLibelle2":"","acDateSerment":"","coordinates":[2.7720612,50.2877918]},{"NomBarreau":"ARRAS","avNom":"POULAIN","avPrenom":"Nathalie","cbRaisonSociale":"LGP AVOCATS","cbSiretSiren":"879907582","cbAdresse1":"13 Rue de Beauffort","cbAdresse2":"","cbCp":"62000","cbVille":"ARRAS","spLibelle1":"","spLibelle2":"","acDateSerment":"","coordinates":[2.7687138,50.2874809]},{"NomBarreau":"ARRAS","avNom":"PREVOST- LINQUERCQ","avPrenom":"Blandine","cbRaisonSociale":"PREVOST - LINQUERCQ BLANDINE","cbSiretSiren":"351336847","cbAdresse1":"13 Square St Jean","cbAdresse2":"","cbCp":"62000","cbVille":"ARRAS","spLibelle1":"Droit de la famille, des personnes et de leur patrimoine","spLibelle2":"Droit du dommage corporel","acDateSerment":"","coordinates":[2.7703328,50.2918987]},{"NomBarreau":"ARRAS","avNom":"PRUD'HOMME","avPrenom":"Etienne","cbRaisonSociale":"EPA CONSEIL - ME PRUDHOMME","cbSiretSiren":"808496822","cbAdresse1":"8 rue Roger Salengro","cbAdresse2":"","cbCp":"62000","cbVille":"ARRAS","spLibelle1":"","spLibelle2":"","acDateSerment":"","coordinates":[2.7689249,50.2939934]},{"NomBarreau":"ARRAS","avNom":"ROBIQUET","avPrenom":"Camille","cbRaisonSociale":"ROBIQUET CAMILLE","cbSiretSiren":"879367027","cbAdresse1":"4 Impasse Bachelet","cbAdresse2":"","cbCp":"62000","cbVille":"ARRAS","spLibelle1":"","spLibelle2":"","acDateSerment":"","coordinates":[2.7830862,50.288644]},{"NomBarreau":"ARRAS","avNom":"ROPPA","avPrenom":"Shéhérazade","cbRaisonSociale":"ROPPA SHEHERAZADE","cbSiretSiren":"922149844","cbAdresse1":"8 Rue Roger Salengro","cbAdresse2":"","cbCp":"62000","cbVille":"ARRAS","spLibelle1":"","spLibelle2":"","acDateSerment":"","coordinates":[2.7689249,50.2939934]},{"NomBarreau":"ARRAS","avNom":"ROTELLINI","avPrenom":"Pierre","cbRaisonSociale":"ROTELLINI PIERRE","cbSiretSiren":"411506405","cbAdresse1":"25 rue de Douai","cbAdresse2":"","cbCp":"62000","cbVille":"ARRAS","spLibelle1":"","spLibelle2":"","acDateSerment":"","coordinates":[2.783675,50.2883547]},{"NomBarreau":"ARRAS","avNom":"RYCKEWAERT","avPrenom":"Arnaud","cbRaisonSociale":"FIDAL","cbSiretSiren":"525031522","cbAdresse1":"31 Boulevard Carnot","cbAdresse2":"","cbCp":"62000","cbVille":"ARRAS","spLibelle1":"","spLibelle2":"","acDateSerment":"","coordinates":[2.7773027,50.2873836]},{"NomBarreau":"ARRAS","avNom":"SCAILLIEREZ","avPrenom":"Danièle","cbRaisonSociale":"SCAILLIEREZ-MAMMONE","cbSiretSiren":"482653698","cbAdresse1":"14 rue Chanzy","cbAdresse2":"","cbCp":"62000","cbVille":"ARRAS","spLibelle1":"","spLibelle2":"","acDateSerment":"","coordinates":[2.7808172,50.2878859]},{"NomBarreau":"ARRAS","avNom":"SIPP","avPrenom":"Anne","cbRaisonSociale":"SIPP ANNE","cbSiretSiren":"415246438","cbAdresse1":"47 Boulevard Faidherbe","cbAdresse2":"","cbCp":"62000","cbVille":"ARRAS","spLibelle1":"Droit de la sécurité sociale et de la protection sociale","spLibelle2":"Droit du travail","acDateSerment":"","coordinates":[2.782611,50.2927768]},{"NomBarreau":"ARRAS","avNom":"STRUBBE","avPrenom":"Mathieu","cbRaisonSociale":"STRUBBE MATHIEU","cbSiretSiren":"878706209","cbAdresse1":"9 Rue Chanzy","cbAdresse2":"2ème étage","cbCp":"62000","cbVille":"ARRAS","spLibelle1":"","spLibelle2":"","acDateSerment":"","coordinates":[2.7810659,50.2879858]},{"NomBarreau":"ARRAS","avNom":"THUILLIEZ","avPrenom":"Marjorie","cbRaisonSociale":"THUILLIEZ MARJORIE","cbSiretSiren":"451704134","cbAdresse1":"6 Rue de la Caisse d'Epargne","cbAdresse2":"","cbCp":"62000","cbVille":"ARRAS","spLibelle1":"","spLibelle2":"","acDateSerment":"","coordinates":[2.7747436,50.2903102]},{"NomBarreau":"ARRAS","avNom":"TONKEVA","avPrenom":"Nina","cbRaisonSociale":"TONKEVA NINA","cbSiretSiren":"834000150","cbAdresse1":"4 Impasse Bachelet","cbAdresse2":"","cbCp":"62000","cbVille":"ARRAS","spLibelle1":"","spLibelle2":"","acDateSerment":"","coordinates":[2.7830862,50.288644]},{"NomBarreau":"ARRAS","avNom":"VANDERMERSCH","avPrenom":"Laurence","cbRaisonSociale":"LAURENCE VANDERMERSCH-MUSSAULT","cbSiretSiren":"539152439","cbAdresse1":"19 rue des 4 Crosses","cbAdresse2":"","cbCp":"62000","cbVille":"ARRAS","spLibelle1":"","spLibelle2":"","acDateSerment":"","coordinates":[2.7722449,50.2888463]},{"NomBarreau":"ARRAS","avNom":"VASSEUR","avPrenom":"Cécile","cbRaisonSociale":"SYNERGIS","cbSiretSiren":"851666891","cbAdresse1":"5 Boulevard Faidherbe","cbAdresse2":"","cbCp":"62000","cbVille":"ARRAS","spLibelle1":"","spLibelle2":"","acDateSerment":"","coordinates":[2.781428,50.2881029]},{"NomBarreau":"ARRAS","avNom":"VINCHANT","avPrenom":"Fabrice","cbRaisonSociale":"VINCHANT LAMORIL","cbSiretSiren":"421633363","cbAdresse1":"27 Rue Paul Doumer","cbAdresse2":"","cbCp":"62000","cbVille":"ARRAS","spLibelle1":"Droit de la sécurité sociale et de la protection sociale","spLibelle2":"Droit du travail","acDateSerment":"","coordinates":[2.774233,50.291087]},{"NomBarreau":"ARRAS","avNom":"WEPPE","avPrenom":"Daphne","cbRaisonSociale":"WEPPE DAPHNE","cbSiretSiren":"501756118","cbAdresse1":"13 Square Saint-Jean","cbAdresse2":"","cbCp":"62000","cbVille":"ARRAS","spLibelle1":"","spLibelle2":"","acDateSerment":"","coordinates":[2.7703328,50.2918987]},{"NomBarreau":"ARRAS","avNom":"WIBAULT","avPrenom":"François-Xavier","cbRaisonSociale":"WIBAULT AVOCAT","cbSiretSiren":"847756988","cbAdresse1":"22 Grand'Place","cbAdresse2":"","cbCp":"62000","cbVille":"ARRAS","spLibelle1":"","spLibelle2":"","acDateSerment":"","coordinates":[2.7804971,50.2911713]},{"NomBarreau":"ARRAS","avNom":"ZAKENOUNE","avPrenom":"Mohamed-Akli","cbRaisonSociale":"ZAKENOUNE MOHAMED AKLI","cbSiretSiren":"753937796","cbAdresse1":"8 Rue Roger Salengro","cbAdresse2":"","cbCp":"62000","cbVille":"ARRAS","spLibelle1":"","spLibelle2":"","acDateSerment":"","coordinates":[2.7689249,50.2939934]}]