[{"NomBarreau":"COUTANCES-AVRANCHES ","avNom":"DENOUAL","avPrenom":"Sylvie","cbRaisonSociale":"DENOUAL SYLVIE","cbSiretSiren":"382393924","cbAdresse1":"6 Place d'Estouteville","cbAdresse2":"","cbCp":"50300","cbVille":"AVRANCHES","spLibelle1":"","spLibelle2":"","acDateSerment":"","coordinates":[-1.3604082,48.6878865]},{"NomBarreau":"COUTANCES-AVRANCHES ","avNom":"FERES","avPrenom":"Anne-Laure","cbRaisonSociale":"TANNIER - LETAROUILLY - FERES","cbSiretSiren":"389237538","cbAdresse1":"34 Rue Saint Gervais","cbAdresse2":"B.P. 409","cbCp":"50304","cbVille":"AVRANCHES","spLibelle1":"","spLibelle2":"","acDateSerment":"","coordinates":[-1.3582342,48.6841854]},{"NomBarreau":"COUTANCES-AVRANCHES ","avNom":"GUILLOT","avPrenom":"Sophie","cbRaisonSociale":"GUILLOT SOPHIE","cbSiretSiren":"488207937","cbAdresse1":"5 Rue Louis Millet","cbAdresse2":"","cbCp":"50300","cbVille":"AVRANCHES","spLibelle1":"","spLibelle2":"","acDateSerment":"","coordinates":[-1.3650338,48.6865225]},{"NomBarreau":"COUTANCES-AVRANCHES ","avNom":"JAGOU","avPrenom":"Bernard","cbRaisonSociale":"JAGOU","cbSiretSiren":"394911309","cbAdresse1":"69 RUE DE LA CONSTITUTION","cbAdresse2":"","cbCp":"50300","cbVille":"AVRANCHES","spLibelle1":"","spLibelle2":"","acDateSerment":"","coordinates":[-1.3576557,48.6833502]},{"NomBarreau":"COUTANCES-AVRANCHES ","avNom":"LARVOL","avPrenom":"Maurice","cbRaisonSociale":"LARVOL","cbSiretSiren":"401160833","cbAdresse1":"17 rue de la Constitution","cbAdresse2":"","cbCp":"50300","cbVille":"AVRANCHES","spLibelle1":"","spLibelle2":"","acDateSerment":"","coordinates":[-1.3606508,48.6856683]},{"NomBarreau":"COUTANCES-AVRANCHES ","avNom":"LETAROUILLY-DOUCIN","avPrenom":"Muriel","cbRaisonSociale":"TANNIER - LETAROUILLY - FERES","cbSiretSiren":"389237538","cbAdresse1":"34 Rue Saint Gervais","cbAdresse2":"B.P. 409","cbCp":"50304","cbVille":"AVRANCHES","spLibelle1":"","spLibelle2":"","acDateSerment":"","coordinates":[-1.3582342,48.6841854]},{"NomBarreau":"COUTANCES-AVRANCHES ","avNom":"LETEURTOIS","avPrenom":"Laurent","cbRaisonSociale":"LETEURTOIS LAURENT","cbSiretSiren":"349265546","cbAdresse1":"6 Place d'Estouville","cbAdresse2":"BP 313","cbCp":"50303","cbVille":"AVRANCHES","spLibelle1":"","spLibelle2":"","acDateSerment":"","coordinates":[-1.3603099,48.6881373]},{"NomBarreau":"COUTANCES-AVRANCHES ","avNom":"TANNIER","avPrenom":"Nicolas","cbRaisonSociale":"TANNIER - LETAROUILLY - FERES","cbSiretSiren":"389237538","cbAdresse1":"34 Rue Saint Gervais","cbAdresse2":"B.P. 409","cbCp":"50304","cbVille":"AVRANCHES","spLibelle1":"","spLibelle2":"","acDateSerment":"","coordinates":[-1.3582342,48.6841854]}]