[{"NomBarreau":"GUADELOUPE, SAINT MARTIN, SAINT BARTHELEMY","avNom":"BAUDIN","avPrenom":"Bertrand","cbRaisonSociale":"BAUDIN BERTRAND","cbSiretSiren":"834992166","cbAdresse1":"40 Rue Henri Becquerel","cbAdresse2":"ZI de Jarry","cbCp":"97122","cbVille":"BAIE MAHAULT","spLibelle1":"","spLibelle2":"","acDateSerment":"","coordinates":[-61.5693668,16.2412742]},{"NomBarreau":"GUADELOUPE, SAINT MARTIN, SAINT BARTHELEMY","avNom":"BEAUBOIS","avPrenom":"Chantal","cbRaisonSociale":"BEAUBOIS CHANTAL","cbSiretSiren":"502234990","cbAdresse1":"36 Rue de la Chapelle","cbAdresse2":"ZI de Jarry","cbCp":"97122","cbVille":"BAIE MAHAULT","spLibelle1":"","spLibelle2":"","acDateSerment":"","coordinates":[-61.5605373,16.2363029]},{"NomBarreau":"GUADELOUPE, SAINT MARTIN, SAINT BARTHELEMY","avNom":"BILLE","avPrenom":"Serge","cbRaisonSociale":"BILLE SERGE","cbSiretSiren":"450537048","cbAdresse1":"608 rue Robert FULTON","cbAdresse2":"1et Etage - IMMEUBLE SCT","cbCp":"97122","cbVille":"BAIE MAHAULT","spLibelle1":"","spLibelle2":"","acDateSerment":"","coordinates":[-61.5669766,16.2413217]},{"NomBarreau":"GUADELOUPE, SAINT MARTIN, SAINT BARTHELEMY","avNom":"BOUANICHE","avPrenom":"Audrey","cbRaisonSociale":"BOUANICHE AUDREY","cbSiretSiren":"529430860","cbAdresse1":"1719 rue Henri Becquerel","cbAdresse2":"ZI de Jarry","cbCp":"97122","cbVille":"BAIE MAHAULT","spLibelle1":"","spLibelle2":"","acDateSerment":"","coordinates":[-61.5634614,16.2428926]},{"NomBarreau":"GUADELOUPE, SAINT MARTIN, SAINT BARTHELEMY","avNom":"BOUYSSOU","avPrenom":"Frédérique","cbRaisonSociale":"BOUYSSOU FREDERIQUE","cbSiretSiren":"442639126","cbAdresse1":"Rue Ferdinand Forest","cbAdresse2":"Immeuble Pluriel","cbCp":"97122","cbVille":"BAIE MAHAULT","spLibelle1":"","spLibelle2":"","acDateSerment":"","coordinates":[-61.5663598,16.2396468]},{"NomBarreau":"GUADELOUPE, SAINT MARTIN, SAINT BARTHELEMY","avNom":"CALONNE","avPrenom":"Elisabeth","cbRaisonSociale":"CALONNE ELISABETH","cbSiretSiren":"341654762","cbAdresse1":"39 rue Ferdinand Forest","cbAdresse2":"Immeuble Orlando","cbCp":"97122","cbVille":"BAIE MAHAULT","spLibelle1":"","spLibelle2":"","acDateSerment":"","coordinates":[-61.5663598,16.2396468]},{"NomBarreau":"GUADELOUPE, SAINT MARTIN, SAINT BARTHELEMY","avNom":"CHAPEL","avPrenom":"Magaly","cbRaisonSociale":"CHAPEL MAGALY","cbSiretSiren":"530888684","cbAdresse1":"Voie Verte Houelbourg - Jarry","cbAdresse2":"Immeuble Magic I","cbCp":"97122","cbVille":"BAIE MAHAULT","spLibelle1":"","spLibelle2":"","acDateSerment":"","coordinates":[-61.5718191,16.2438671]},{"NomBarreau":"GUADELOUPE, SAINT MARTIN, SAINT BARTHELEMY","avNom":"CILIRIE","avPrenom":"Christelle","cbRaisonSociale":"CILIRIE CHRISTELLE","cbSiretSiren":"481696847","cbAdresse1":"40 rue Henri Becquerel","cbAdresse2":"Z.I. Jarry","cbCp":"97122","cbVille":"BAIE MAHAULT","spLibelle1":"","spLibelle2":"","acDateSerment":"","coordinates":[-61.5693668,16.2412742]},{"NomBarreau":"GUADELOUPE, SAINT MARTIN, SAINT BARTHELEMY","avNom":"CORNELIE","avPrenom":"Laure-Anne","cbRaisonSociale":"CORNELIE LAURE-ANNE","cbSiretSiren":"501416895","cbAdresse1":"36 RUE DE LA CHAPELLE","cbAdresse2":"IMMEUBLE TI MANZELL","cbCp":"97122","cbVille":"BAIE MAHAULT","spLibelle1":"","spLibelle2":"","acDateSerment":"","coordinates":[-61.5605373,16.2363029]},{"NomBarreau":"GUADELOUPE, SAINT MARTIN, SAINT BARTHELEMY","avNom":"DIALLO","avPrenom":"Babacar","cbRaisonSociale":"DIALLO BABACAR","cbSiretSiren":"521704767","cbAdresse1":"Rue Jacques Portecop","cbAdresse2":"Moudong Nord","cbCp":"97122","cbVille":"BAIE MAHAULT","spLibelle1":"","spLibelle2":"","acDateSerment":"","coordinates":[-61.5822387,16.2451795]},{"NomBarreau":"GUADELOUPE, SAINT MARTIN, SAINT BARTHELEMY","avNom":"FLORO","avPrenom":"Nicolas","cbRaisonSociale":"FLORO NICOLAS","cbSiretSiren":"532524683","cbAdresse1":"127 Rue Nobel","cbAdresse2":"Z.I. Jarry","cbCp":"97122","cbVille":"BAIE MAHAULT","spLibelle1":"","spLibelle2":"","acDateSerment":"","coordinates":[-61.5697473,16.2385359]},{"NomBarreau":"GUADELOUPE, SAINT MARTIN, SAINT BARTHELEMY","avNom":"GIRDARY","avPrenom":"Séverine","cbRaisonSociale":"GIRDARY SEVERINE","cbSiretSiren":"801450818","cbAdresse1":"LES GALERIES DE HOUELBOURG","cbAdresse2":"2éme étage ZI JARRY","cbCp":"97122","cbVille":"BAIE MAHAULT","spLibelle1":"","spLibelle2":"","acDateSerment":"","coordinates":[-61.5675468229441,16.24005215]},{"NomBarreau":"GUADELOUPE, SAINT MARTIN, SAINT BARTHELEMY","avNom":"LAPIN","avPrenom":"Veronique","cbRaisonSociale":"LAPIN VERONIQUE","cbSiretSiren":"800688517","cbAdresse1":"1351 rue Henri Becquerel","cbAdresse2":"SCI Orchidées Batiment C","cbCp":"97122","cbVille":"BAIE MAHAULT","spLibelle1":"","spLibelle2":"","acDateSerment":"","coordinates":[-61.5634614,16.2428926]},{"NomBarreau":"GUADELOUPE, SAINT MARTIN, SAINT BARTHELEMY","avNom":"LE GUERN","avPrenom":"Jean-Luc","cbRaisonSociale":"LE GUERN JEAN-LUC","cbSiretSiren":"441378940","cbAdresse1":"Rue Jacques Portecop","cbAdresse2":"Moudong Nord","cbCp":"97122","cbVille":"BAIE MAHAULT","spLibelle1":"","spLibelle2":"","acDateSerment":"","coordinates":[-61.5822387,16.2451795]},{"NomBarreau":"GUADELOUPE, SAINT MARTIN, SAINT BARTHELEMY","avNom":"MARTIN-COLARDEAU","avPrenom":"Coralie","cbRaisonSociale":"MARTIN-COLARDEAU CORALIE","cbSiretSiren":"503155467","cbAdresse1":"1352 (16) rue Henri BECQUEREL","cbAdresse2":"ZI de JARRY","cbCp":"97122","cbVille":"BAIE MAHAULT","spLibelle1":"","spLibelle2":"","acDateSerment":"","coordinates":[-61.5634614,16.2428926]},{"NomBarreau":"GUADELOUPE, SAINT MARTIN, SAINT BARTHELEMY","avNom":"MINATCHY","avPrenom":"Cinthia","cbRaisonSociale":"MINATCHY CINTHIA","cbSiretSiren":"430179994","cbAdresse1":"Rue Jacques PORTECOP","cbAdresse2":"Moudong Nord","cbCp":"97122","cbVille":"BAIE MAHAULT","spLibelle1":"","spLibelle2":"","acDateSerment":"","coordinates":[-61.5822387,16.2451795]},{"NomBarreau":"GUADELOUPE, SAINT MARTIN, SAINT BARTHELEMY","avNom":"PANZANI","avPrenom":"Nadine","cbRaisonSociale":"CAMENEN - SAMPER - PANZANI","cbSiretSiren":"504872961","cbAdresse1":"Rue Jacques Portecop","cbAdresse2":"Moudong Nord","cbCp":"97122","cbVille":"BAIE MAHAULT","spLibelle1":"","spLibelle2":"","acDateSerment":"","coordinates":[-61.5822387,16.2451795]},{"NomBarreau":"GUADELOUPE, SAINT MARTIN, SAINT BARTHELEMY","avNom":"SAMPER","avPrenom":"Christophe","cbRaisonSociale":"CAMENEN - SAMPER - PANZANI","cbSiretSiren":"504872961","cbAdresse1":"Rue Jacques Portecop","cbAdresse2":"Moudong Nord","cbCp":"97122","cbVille":"BAIE MAHAULT","spLibelle1":"Droit pénal","spLibelle2":"","acDateSerment":"","coordinates":[-61.5822387,16.2451795]},{"NomBarreau":"GUADELOUPE, SAINT MARTIN, SAINT BARTHELEMY","avNom":"TROUPE","avPrenom":"Lucien","cbRaisonSociale":"TROUPE LUCIEN","cbSiretSiren":"451804975","cbAdresse1":"51 rue Henri BECQUEREL JARRY","cbAdresse2":"9  Immeuble TSAHAL","cbCp":"97122","cbVille":"BAIE MAHAULT","spLibelle1":"","spLibelle2":"","acDateSerment":"","coordinates":[-61.5687001,16.2420281]},{"NomBarreau":"GUADELOUPE, SAINT MARTIN, SAINT BARTHELEMY","avNom":"URBINO-CLAIRVILLE","avPrenom":"Hélène","cbRaisonSociale":"URBINO-CLAIRVILLE  HELENE  ","cbSiretSiren":"400532180","cbAdresse1":"127 RUE NOBEL - ZI DE JARRY","cbAdresse2":"","cbCp":"97122","cbVille":"BAIE MAHAULT","spLibelle1":"","spLibelle2":"","acDateSerment":"","coordinates":[-61.5697473,16.2385359]},{"NomBarreau":"GUADELOUPE, SAINT MARTIN, SAINT BARTHELEMY","avNom":"VINGLASSALOM-HIBADE","avPrenom":"Laurence","cbRaisonSociale":"CABINET VINGLASSALOM-HIBADE LAURENCE","cbSiretSiren":"530969161","cbAdresse1":"1476 rue Henri Becquerel","cbAdresse2":"Jarry","cbCp":"97122","cbVille":"BAIE MAHAULT","spLibelle1":"","spLibelle2":"","acDateSerment":"","coordinates":[-61.5634614,16.2428926]}]