[{"NomBarreau":"BASTIA","avNom":"ACQUAVIVA","avPrenom":"Françoise","cbRaisonSociale":"ACQUAVIVA FRANCOISE","cbSiretSiren":"414312744","cbAdresse1":"9 Boulevard Paoli","cbAdresse2":"","cbCp":"20200","cbVille":"BASTIA","spLibelle1":"","spLibelle2":"","acDateSerment":"","coordinates":[9.4501843,42.7008648]},{"NomBarreau":"BASTIA","avNom":"ACQUAVIVA","avPrenom":"Pierre-Marie","cbRaisonSociale":"ACQUAVIVA PIERRE-MARIE","cbSiretSiren":"879122653","cbAdresse1":"39 Boulevard PAOLI","cbAdresse2":"","cbCp":"20200","cbVille":"BASTIA","spLibelle1":"","spLibelle2":"","acDateSerment":"","coordinates":[9.4501843,42.7008648]},{"NomBarreau":"BASTIA","avNom":"AIROLA","avPrenom":"Nathalie","cbRaisonSociale":"AIROLA NATHALIE","cbSiretSiren":"531392181","cbAdresse1":"16 Boulevard Hyacinthe de Montera","cbAdresse2":"","cbCp":"20200","cbVille":"BASTIA","spLibelle1":"","spLibelle2":"","acDateSerment":"","coordinates":[9.446573028019209,42.6987543]},{"NomBarreau":"BASTIA","avNom":"ALBERTINI","avPrenom":"Jean Michel","cbRaisonSociale":"ALBERTINI JEAN MICHEL","cbSiretSiren":"348455387","cbAdresse1":"7 rue Notre Dame de Lourdes","cbAdresse2":"Résidence Notre Dame de Lourdes","cbCp":"20200","cbVille":"BASTIA","spLibelle1":"","spLibelle2":"","acDateSerment":"","coordinates":[9.4518265,42.7035415]},{"NomBarreau":"BASTIA","avNom":"ALFONSI","avPrenom":"Florence","cbRaisonSociale":"ALFONSI FLORENCE","cbSiretSiren":"413177338","cbAdresse1":"Chemin de Falconaja","cbAdresse2":"Macchjone","cbCp":"20600","cbVille":"BASTIA","spLibelle1":"","spLibelle2":"","acDateSerment":"","coordinates":[9.433332,42.6816451]},{"NomBarreau":"BASTIA","avNom":"ANGELINI","avPrenom":"Ambre","cbRaisonSociale":"ANGELINI AMBRE","cbSiretSiren":"894496132","cbAdresse1":"6 Boulevard Paoli","cbAdresse2":"","cbCp":"20200","cbVille":"BASTIA","spLibelle1":"","spLibelle2":"","acDateSerment":"","coordinates":[9.4501843,42.7008648]},{"NomBarreau":"BASTIA","avNom":"BALESI-ROMANACCE","avPrenom":"Alexandra","cbRaisonSociale":"CABINET RETALI & ASSOCIES","cbSiretSiren":"520955063","cbAdresse1":"39 bd Paoli","cbAdresse2":"","cbCp":"20200","cbVille":"BASTIA","spLibelle1":"","spLibelle2":"","acDateSerment":"","coordinates":[9.4501843,42.7008648]},{"NomBarreau":"BASTIA","avNom":"BARRATIER","avPrenom":"Anne Christine","cbRaisonSociale":"BARRATIER ANNE CHRISTINE","cbSiretSiren":"411764285","cbAdresse1":"18 Boulevard Paoli","cbAdresse2":"","cbCp":"20200","cbVille":"BASTIA","spLibelle1":"","spLibelle2":"","acDateSerment":"","coordinates":[9.4501843,42.7008648]},{"NomBarreau":"BASTIA","avNom":"BOUTTEN","avPrenom":"Danièle","cbRaisonSociale":"BOUTTEN DANIELE","cbSiretSiren":"331724179","cbAdresse1":"18 chemin du Fort Lacroix","cbAdresse2":"Le Guadello","cbCp":"20200","cbVille":"BASTIA","spLibelle1":"","spLibelle2":"","acDateSerment":"","coordinates":[9.4455787,42.6946433]},{"NomBarreau":"BASTIA","avNom":"BRONZINI DE CARAFFA","avPrenom":"Benoit","cbRaisonSociale":"TOMASI-VACCAREZZA-BRONZINI DE CARAFFA-TABOUREAU-GENUINI-LUISI-BENARD-BATTESTI","cbSiretSiren":"301075123","cbAdresse1":"6 Boulevard Paoli","cbAdresse2":"","cbCp":"20200","cbVille":"BASTIA","spLibelle1":"","spLibelle2":"","acDateSerment":"","coordinates":[9.4501843,42.7008648]},{"NomBarreau":"BASTIA","avNom":"CANAVA","avPrenom":"Stella","cbRaisonSociale":"CANAVA STELLA","cbSiretSiren":"827627522","cbAdresse1":"29 Boulevard PAOLI","cbAdresse2":"","cbCp":"20200","cbVille":"BASTIA","spLibelle1":"","spLibelle2":"","acDateSerment":"","coordinates":[9.4501843,42.7008648]},{"NomBarreau":"BASTIA","avNom":"CANAZZI","avPrenom":"Claire","cbRaisonSociale":"CANAZZI CLAIRE","cbSiretSiren":"453869299","cbAdresse1":"3 Boulevard Giraud","cbAdresse2":"","cbCp":"20200","cbVille":"BASTIA","spLibelle1":"","spLibelle2":"","acDateSerment":"","coordinates":[9.44654530407855,42.6961007]},{"NomBarreau":"BASTIA","avNom":"CAPOROSSI POLETTI","avPrenom":"Martine","cbRaisonSociale":"CAPOROSSI-POLETTI MARTINE","cbSiretSiren":"321010878","cbAdresse1":"35 Boulevard Paoli","cbAdresse2":"","cbCp":"20200","cbVille":"BASTIA","spLibelle1":"Droit de la sécurité sociale et de la protection sociale","spLibelle2":"Droit du travail","acDateSerment":"","coordinates":[9.4501843,42.7008648]},{"NomBarreau":"BASTIA","avNom":"CARREGA","avPrenom":"Claudine","cbRaisonSociale":"CARREGA CLAUDINE","cbSiretSiren":"408590834","cbAdresse1":"4 Boulevard PAOLI","cbAdresse2":"","cbCp":"20200","cbVille":"BASTIA","spLibelle1":"","spLibelle2":"","acDateSerment":"","coordinates":[9.4501843,42.7008648]},{"NomBarreau":"BASTIA","avNom":"CARTA","avPrenom":"Myriam","cbRaisonSociale":"CARTA MYRIAM","cbSiretSiren":"522557552","cbAdresse1":"41 bd Paoli","cbAdresse2":"","cbCp":"20200","cbVille":"BASTIA","spLibelle1":"","spLibelle2":"","acDateSerment":"","coordinates":[9.4501843,42.7008648]},{"NomBarreau":"BASTIA","avNom":"CASABIANCA CROCE","avPrenom":"Josette","cbRaisonSociale":"CASABIANCA CROCE JOSETTE","cbSiretSiren":"334000387","cbAdresse1":"4 RUE MIOT","cbAdresse2":"","cbCp":"20200","cbVille":"BASTIA","spLibelle1":"","spLibelle2":"","acDateSerment":"","coordinates":[9.4498056,42.6994229]},{"NomBarreau":"BASTIA","avNom":"CASALONGA","avPrenom":"Dorastella","cbRaisonSociale":"CASALONGA DORASTELLA","cbSiretSiren":"","cbAdresse1":"41 Boulevard Paoli","cbAdresse2":"","cbCp":"20200","cbVille":"BASTIA","spLibelle1":"","spLibelle2":"","acDateSerment":"","coordinates":[9.4501843,42.7008648]},{"NomBarreau":"BASTIA","avNom":"COSTA","avPrenom":"Jocelyne","cbRaisonSociale":"COSTA JOCELYNE","cbSiretSiren":"394129811","cbAdresse1":"22 Boulevard Paoli","cbAdresse2":"","cbCp":"20200","cbVille":"BASTIA","spLibelle1":"","spLibelle2":"","acDateSerment":"","coordinates":[9.4501843,42.7008648]},{"NomBarreau":"BASTIA","avNom":"COSTA-SIGRIST","avPrenom":"Cynthia","cbRaisonSociale":"COSTA SIGRIST CYNTHIA","cbSiretSiren":"488977273","cbAdresse1":"29 bd Paoli","cbAdresse2":"","cbCp":"20200","cbVille":"BASTIA","spLibelle1":"","spLibelle2":"","acDateSerment":"","coordinates":[9.4501843,42.7008648]},{"NomBarreau":"BASTIA","avNom":"DE CASALTA","avPrenom":"Jean Sébastien","cbRaisonSociale":"DE CASALTA JEAN SEBASTIEN","cbSiretSiren":"342732989","cbAdresse1":"22 Quai des Martyrs","cbAdresse2":"","cbCp":"20200","cbVille":"BASTIA","spLibelle1":"","spLibelle2":"","acDateSerment":"","coordinates":[9.4525755,42.6979229]},{"NomBarreau":"BASTIA","avNom":"DIONISI-NAUDIN","avPrenom":"Marie-Paule","cbRaisonSociale":"DIONISI NAUDIN MARIE-PAULE","cbSiretSiren":"431599075","cbAdresse1":"32 bd Paoli","cbAdresse2":"","cbCp":"20200","cbVille":"BASTIA","spLibelle1":"Droit fiscal et droit douanier","spLibelle2":"","acDateSerment":"","coordinates":[9.4501843,42.7008648]},{"NomBarreau":"BASTIA","avNom":"EON","avPrenom":"Jean-Paul","cbRaisonSociale":"EON JEAN PAUL","cbSiretSiren":"334000361","cbAdresse1":"1 Rue Neuve Saint Roch","cbAdresse2":"","cbCp":"20200","cbVille":"BASTIA","spLibelle1":"Droit pénal","spLibelle2":"","acDateSerment":"","coordinates":[9.4507704,42.6979618]},{"NomBarreau":"BASTIA","avNom":"FABREGAT","avPrenom":"Emmanuelle","cbRaisonSociale":"FABREGAT EMMANUELLE","cbSiretSiren":"449481407","cbAdresse1":"16 Boulevard Hyacinthe de Montera","cbAdresse2":"","cbCp":"20200","cbVille":"BASTIA","spLibelle1":"","spLibelle2":"","acDateSerment":"","coordinates":[9.446573028019209,42.6987543]},{"NomBarreau":"BASTIA","avNom":"FABRIZY","avPrenom":"Paula-Maria","cbRaisonSociale":"FABRIZY PAULA-MARIA","cbSiretSiren":"894371822","cbAdresse1":"22 Quai des Martyrs","cbAdresse2":"","cbCp":"20200","cbVille":"BASTIA","spLibelle1":"","spLibelle2":"","acDateSerment":"","coordinates":[9.4525755,42.6979229]},{"NomBarreau":"BASTIA","avNom":"FILIPPI TAFANELLI","avPrenom":"Gisèle","cbRaisonSociale":"FILIPPI-TAFANELLI GISELE","cbSiretSiren":"381364710","cbAdresse1":"43 Boulevard Paoli","cbAdresse2":"","cbCp":"20200","cbVille":"BASTIA","spLibelle1":"","spLibelle2":"","acDateSerment":"","coordinates":[9.4501843,42.7008648]},{"NomBarreau":"BASTIA","avNom":"FILIPPINI","avPrenom":"Jean Benoit","cbRaisonSociale":"FILIPPINI JEAN BENOIT","cbSiretSiren":"344738315","cbAdresse1":"4 Boulevard Hyacinthe de Montera","cbAdresse2":"","cbCp":"20200","cbVille":"BASTIA","spLibelle1":"","spLibelle2":"","acDateSerment":"","coordinates":[9.447179870715548,42.69761775]},{"NomBarreau":"BASTIA","avNom":"GAERTNER DE ROCCA SERRA","avPrenom":"Laurence","cbRaisonSociale":"GAERTNER DE ROCCA SERRA LAURENCE","cbSiretSiren":"441587227","cbAdresse1":"16 Boulevard Hyacinthe de Montera","cbAdresse2":"","cbCp":"20200","cbVille":"BASTIA","spLibelle1":"Droit du dommage corporel","spLibelle2":"","acDateSerment":"","coordinates":[9.446573028019209,42.6987543]},{"NomBarreau":"BASTIA","avNom":"GASQUET SEATELLI","avPrenom":"Valérie","cbRaisonSociale":"SEATELLI-GASQUET","cbSiretSiren":"418701959","cbAdresse1":"40 Boulevard Paoli","cbAdresse2":"","cbCp":"20200","cbVille":"BASTIA","spLibelle1":"","spLibelle2":"","acDateSerment":"","coordinates":[9.4501843,42.7008648]},{"NomBarreau":"BASTIA","avNom":"GENISSIEUX","avPrenom":"Frédérique","cbRaisonSociale":"CABINET RETALI & ASSOCIES","cbSiretSiren":"520955063","cbAdresse1":"39 bd Paoli","cbAdresse2":"","cbCp":"20200","cbVille":"BASTIA","spLibelle1":"Droit des garanties, des saretés et des mesures d'exécution","spLibelle2":"","acDateSerment":"","coordinates":[9.4501843,42.7008648]},{"NomBarreau":"BASTIA","avNom":"GENUINI","avPrenom":"Benjamin","cbRaisonSociale":"TOMASI-VACCAREZZA-BRONZINI DE CARAFFA-TABOUREAU-GENUINI-LUISI-BENARD-BATTESTI","cbSiretSiren":"301075123","cbAdresse1":"6 Boulevard Paoli","cbAdresse2":"","cbCp":"20200","cbVille":"BASTIA","spLibelle1":"","spLibelle2":"","acDateSerment":"","coordinates":[9.4501843,42.7008648]},{"NomBarreau":"BASTIA","avNom":"GIORGI","avPrenom":"Anne-Marie","cbRaisonSociale":"GIORGI ANNE-MARIE","cbSiretSiren":"405406315","cbAdresse1":"39 Boulevard Paoli","cbAdresse2":"","cbCp":"20200","cbVille":"BASTIA","spLibelle1":"","spLibelle2":"","acDateSerment":"","coordinates":[9.4501843,42.7008648]},{"NomBarreau":"BASTIA","avNom":"GOEURY-GIAMARCHI","avPrenom":"Caroline","cbRaisonSociale":"GOEURY GIAMARCHI CAROLINE","cbSiretSiren":"449172915","cbAdresse1":"41 Boulevard Paoli","cbAdresse2":"","cbCp":"20200","cbVille":"BASTIA","spLibelle1":"","spLibelle2":"","acDateSerment":"","coordinates":[9.4501843,42.7008648]},{"NomBarreau":"BASTIA","avNom":"GOMIS","avPrenom":"Alexandra","cbRaisonSociale":"GOMIS ALEXANDRA","cbSiretSiren":"435222336","cbAdresse1":"16 Boulevard Hyacinthe de Montera","cbAdresse2":"","cbCp":"20200","cbVille":"BASTIA","spLibelle1":"","spLibelle2":"","acDateSerment":"","coordinates":[9.446573028019209,42.6987543]},{"NomBarreau":"BASTIA","avNom":"GOUBET","avPrenom":"Thomas","cbRaisonSociale":"GOUBET THOMAS","cbSiretSiren":"881002687","cbAdresse1":"13 avenue marechal sebastiani","cbAdresse2":"","cbCp":"20200","cbVille":"BASTIA","spLibelle1":"","spLibelle2":"","acDateSerment":"","coordinates":[9.44883,42.7024478]},{"NomBarreau":"BASTIA","avNom":"IMPERIALI","avPrenom":"Ugo","cbRaisonSociale":"IMPERIALI UGO","cbSiretSiren":"447648676","cbAdresse1":"39 Boulevard Paoli","cbAdresse2":"","cbCp":"20200","cbVille":"BASTIA","spLibelle1":"","spLibelle2":"","acDateSerment":"","coordinates":[9.4501843,42.7008648]},{"NomBarreau":"BASTIA","avNom":"ISNARD DE CASALTA","avPrenom":"Chantal","cbRaisonSociale":"ISNARD DE CASALTA CHANTAL","cbSiretSiren":"344462023","cbAdresse1":"22 Quai des Martyrs","cbAdresse2":"","cbCp":"20200","cbVille":"BASTIA","spLibelle1":"","spLibelle2":"","acDateSerment":"","coordinates":[9.4525755,42.6979229]},{"NomBarreau":"BASTIA","avNom":"JOBIN","avPrenom":"Philippe","cbRaisonSociale":"SCP RENE JOBIN PHILIPPE JOBIN","cbSiretSiren":"411086192","cbAdresse1":"41 Boulevard Paoli","cbAdresse2":"","cbCp":"20200","cbVille":"BASTIA","spLibelle1":"","spLibelle2":"","acDateSerment":"","coordinates":[9.4501843,42.7008648]},{"NomBarreau":"BASTIA","avNom":"LECCIA","avPrenom":"Anne Christine","cbRaisonSociale":"LECCIA ANNE CHRISTINE","cbSiretSiren":"488366048","cbAdresse1":"33 Boulevard PAOLI","cbAdresse2":"","cbCp":"20200","cbVille":"BASTIA","spLibelle1":"","spLibelle2":"","acDateSerment":"","coordinates":[9.4501843,42.7008648]},{"NomBarreau":"BASTIA","avNom":"LEONETTI","avPrenom":"Stéphanie","cbRaisonSociale":"LEONETTI STEPHANIE","cbSiretSiren":"791952732","cbAdresse1":"4 Bd Paoli","cbAdresse2":"","cbCp":"20200","cbVille":"BASTIA","spLibelle1":"","spLibelle2":"","acDateSerment":"","coordinates":[9.4501843,42.7008648]},{"NomBarreau":"BASTIA","avNom":"LOMBARDO","avPrenom":"Stéphanie","cbRaisonSociale":"LOMBARDO STEPHANIE","cbSiretSiren":"410932701","cbAdresse1":"Rue Chanoine Bonerandi","cbAdresse2":"Residence Ornano","cbCp":"20200","cbVille":"BASTIA","spLibelle1":"","spLibelle2":"","acDateSerment":"","coordinates":[9.4452063,42.6953948]},{"NomBarreau":"BASTIA","avNom":"LORENZI","avPrenom":"Pierre","cbRaisonSociale":"LORENZI PIERRE","cbSiretSiren":"314512286","cbAdresse1":"22 Quai des Martyrs","cbAdresse2":"","cbCp":"20200","cbVille":"BASTIA","spLibelle1":"","spLibelle2":"","acDateSerment":"","coordinates":[9.4525755,42.6979229]},{"NomBarreau":"BASTIA","avNom":"LUISI","avPrenom":"Claudia","cbRaisonSociale":"TOMASI-VACCAREZZA-BRONZINI DE CARAFFA-TABOUREAU-GENUINI-LUISI-BENARD-BATTESTI","cbSiretSiren":"301075123","cbAdresse1":"6 Boulevard Paoli","cbAdresse2":"","cbCp":"20200","cbVille":"BASTIA","spLibelle1":"","spLibelle2":"","acDateSerment":"","coordinates":[9.4501843,42.7008648]},{"NomBarreau":"BASTIA","avNom":"MARIETTI","avPrenom":"Marie-Christine","cbRaisonSociale":"MARIETTI MARIE CHRISTINE","cbSiretSiren":"414298588","cbAdresse1":"48 Boulevard GRAZIANI","cbAdresse2":"","cbCp":"20200","cbVille":"BASTIA","spLibelle1":"","spLibelle2":"","acDateSerment":"","coordinates":[9.4514504,42.7040279]},{"NomBarreau":"BASTIA","avNom":"MARINACCE","avPrenom":"Charlotte","cbRaisonSociale":"MARINACCE CHARLOTTE","cbSiretSiren":"435146469","cbAdresse1":"9 Route de Ville","cbAdresse2":"","cbCp":"20200","cbVille":"BASTIA","spLibelle1":"","spLibelle2":"","acDateSerment":"","coordinates":[9.4505442,42.7043024]},{"NomBarreau":"BASTIA","avNom":"MASSIANI ANTONETTI","avPrenom":"Laurie","cbRaisonSociale":"MASSIANI ANTONETTI LAURIE","cbSiretSiren":"902047059","cbAdresse1":"8 Boulevard PAOLI","cbAdresse2":"","cbCp":"20200","cbVille":"BASTIA","spLibelle1":"","spLibelle2":"","acDateSerment":"","coordinates":[9.4501843,42.7008648]},{"NomBarreau":"BASTIA","avNom":"MATHIEU","avPrenom":"Claire","cbRaisonSociale":"MATHIEU CLAIRE","cbSiretSiren":"540001799","cbAdresse1":"41 Boulevard PAOLI","cbAdresse2":"","cbCp":"20200","cbVille":"BASTIA","spLibelle1":"","spLibelle2":"","acDateSerment":"","coordinates":[9.4501843,42.7008648]},{"NomBarreau":"BASTIA","avNom":"MELONI","avPrenom":"Pascale","cbRaisonSociale":"MELONI PASCALE","cbSiretSiren":"518779343","cbAdresse1":"29 bd Paoli","cbAdresse2":"","cbCp":"20200","cbVille":"BASTIA","spLibelle1":"Procédure d'appel","spLibelle2":"","acDateSerment":"","coordinates":[9.4501843,42.7008648]},{"NomBarreau":"BASTIA","avNom":"MOUSSET-CAMPANA","avPrenom":"Alexandra","cbRaisonSociale":"MOUSSET-CAMPANA ALEXANDRA","cbSiretSiren":"847577145","cbAdresse1":"4 Rue Miot","cbAdresse2":"","cbCp":"20200","cbVille":"BASTIA","spLibelle1":"","spLibelle2":"","acDateSerment":"","coordinates":[9.4498056,42.6994229]},{"NomBarreau":"BASTIA","avNom":"NARANJO-COLOMBANI","avPrenom":"Anais","cbRaisonSociale":"NARANJO-COLOMBANI","cbSiretSiren":"537971731","cbAdresse1":"Quai des martyrs","cbAdresse2":"","cbCp":"20200","cbVille":"BASTIA","spLibelle1":"","spLibelle2":"","acDateSerment":"","coordinates":[9.4525755,42.6979229]},{"NomBarreau":"BASTIA","avNom":"OLIVA","avPrenom":"Cécile","cbRaisonSociale":"OLIVA CECILE","cbSiretSiren":"794281642","cbAdresse1":"4 Rue Miot","cbAdresse2":"","cbCp":"20200","cbVille":"BASTIA","spLibelle1":"","spLibelle2":"","acDateSerment":"","coordinates":[9.4498056,42.6994229]},{"NomBarreau":"BASTIA","avNom":"ORABONA","avPrenom":"Claudine","cbRaisonSociale":"ORABONA CLAUDINE","cbSiretSiren":"395154594","cbAdresse1":"1 Rue Neuve Saint Roch","cbAdresse2":"","cbCp":"20200","cbVille":"BASTIA","spLibelle1":"","spLibelle2":"","acDateSerment":"","coordinates":[9.4507704,42.6979618]},{"NomBarreau":"BASTIA","avNom":"ORTAL-CIPRIANI","avPrenom":"Jean-Baptiste","cbRaisonSociale":"ORTAL-CIPRIANI JEAN-BAPTISTE","cbSiretSiren":"894371806","cbAdresse1":"6 Boulevard Paoli","cbAdresse2":"","cbCp":"20200","cbVille":"BASTIA","spLibelle1":"","spLibelle2":"","acDateSerment":"","coordinates":[9.4501843,42.7008648]},{"NomBarreau":"BASTIA","avNom":"OTTAVIANI","avPrenom":"Lyria","cbRaisonSociale":"OTTAVIANI LYRIA","cbSiretSiren":"341637536","cbAdresse1":"18 Boulevard Paoli","cbAdresse2":"","cbCp":"20200","cbVille":"BASTIA","spLibelle1":"","spLibelle2":"","acDateSerment":"","coordinates":[9.4501843,42.7008648]},{"NomBarreau":"BASTIA","avNom":"PALMIERI","avPrenom":"Florian","cbRaisonSociale":"PALMIERI AVOCAT","cbSiretSiren":"891643124","cbAdresse1":"19 Boulevard PAOLI","cbAdresse2":"","cbCp":"20200","cbVille":"BASTIA","spLibelle1":"","spLibelle2":"","acDateSerment":"","coordinates":[9.4501843,42.7008648]},{"NomBarreau":"BASTIA","avNom":"PIANELLI-COQUE","avPrenom":"Céline","cbRaisonSociale":"PIANELLI-COQUE CELINE","cbSiretSiren":"488468836","cbAdresse1":"18 Boulevard Paoli","cbAdresse2":"","cbCp":"20200","cbVille":"BASTIA","spLibelle1":"","spLibelle2":"","acDateSerment":"","coordinates":[9.4501843,42.7008648]},{"NomBarreau":"BASTIA","avNom":"PIERI","avPrenom":"Santa","cbRaisonSociale":"PIERI ROCCHESANI","cbSiretSiren":"538686221","cbAdresse1":"3 Rue Jean Casale","cbAdresse2":"","cbCp":"20200","cbVille":"BASTIA","spLibelle1":"","spLibelle2":"","acDateSerment":"","coordinates":[9.4504016,42.6985519]},{"NomBarreau":"BASTIA","avNom":"PIPERI","avPrenom":"Linda","cbRaisonSociale":"PIPERI LINDA","cbSiretSiren":"391317740","cbAdresse1":"4 Boulevard Paoli","cbAdresse2":"","cbCp":"20200","cbVille":"BASTIA","spLibelle1":"","spLibelle2":"","acDateSerment":"","coordinates":[9.4501843,42.7008648]},{"NomBarreau":"BASTIA","avNom":"RAFFINI","avPrenom":"Mélissa","cbRaisonSociale":"RAFFINI MELISSA","cbSiretSiren":"910324094","cbAdresse1":"4 Boulevard Hyacinthe de Montera","cbAdresse2":"","cbCp":"20200","cbVille":"BASTIA","spLibelle1":"","spLibelle2":"","acDateSerment":"","coordinates":[9.447179870715548,42.69761775]},{"NomBarreau":"BASTIA","avNom":"RUMIN-PASQUALINI","avPrenom":"Manon","cbRaisonSociale":"RUMIN-PASQUALINI MANON","cbSiretSiren":"510758089","cbAdresse1":"4 Boulevard PAOLI","cbAdresse2":"","cbCp":"20200","cbVille":"BASTIA","spLibelle1":"","spLibelle2":"","acDateSerment":"","coordinates":[9.4501843,42.7008648]},{"NomBarreau":"BASTIA","avNom":"SABIANI","avPrenom":"Nathalie","cbRaisonSociale":"SABIANI NATHALIE","cbSiretSiren":"383935426","cbAdresse1":"40 Boulevard PAOLI","cbAdresse2":"","cbCp":"20200","cbVille":"BASTIA","spLibelle1":"","spLibelle2":"","acDateSerment":"","coordinates":[9.4501843,42.7008648]},{"NomBarreau":"BASTIA","avNom":"SALVINI","avPrenom":"Simon","cbRaisonSociale":"SALVINI SIMON","cbSiretSiren":"834898751","cbAdresse1":"4 Boulevard PAOLI","cbAdresse2":"","cbCp":"20200","cbVille":"BASTIA","spLibelle1":"","spLibelle2":"","acDateSerment":"","coordinates":[9.4501843,42.7008648]},{"NomBarreau":"BASTIA","avNom":"SEATELLI","avPrenom":"Jean Louis","cbRaisonSociale":"SEATELLI-GASQUET","cbSiretSiren":"418701959","cbAdresse1":"40 Boulevard Paoli","cbAdresse2":"","cbCp":"20200","cbVille":"BASTIA","spLibelle1":"","spLibelle2":"","acDateSerment":"","coordinates":[9.4501843,42.7008648]},{"NomBarreau":"BASTIA","avNom":"SEBASTIANI","avPrenom":"Sébastien","cbRaisonSociale":"SEBASTIANI SEBASTIEN","cbSiretSiren":"488290099","cbAdresse1":"11 BIS Avenue Jean ZUCCARELLI","cbAdresse2":"3ème étage","cbCp":"20200","cbVille":"BASTIA","spLibelle1":"","spLibelle2":"","acDateSerment":"","coordinates":[9.4472699,42.7028589]},{"NomBarreau":"BASTIA","avNom":"SEMIDEI","avPrenom":"Pierre","cbRaisonSociale":"SEMIDEI PIERRE","cbSiretSiren":"399151943","cbAdresse1":"2 Rue Favalelli","cbAdresse2":"","cbCp":"20200","cbVille":"BASTIA","spLibelle1":"","spLibelle2":"","acDateSerment":"","coordinates":[9.447097445949154,42.6963847]},{"NomBarreau":"BASTIA","avNom":"SIMONI","avPrenom":"Lia","cbRaisonSociale":"SIMONI LIA","cbSiretSiren":"895127801","cbAdresse1":"22 Quai des Martyrs","cbAdresse2":"","cbCp":"20200","cbVille":"BASTIA","spLibelle1":"","spLibelle2":"","acDateSerment":"","coordinates":[9.4525755,42.6979229]},{"NomBarreau":"BASTIA","avNom":"SOMMELLA ACQUAVIVA","avPrenom":"Marie Odile","cbRaisonSociale":"SOMMELLA ACQUAVIVA MARIE ODILE","cbSiretSiren":"388471914","cbAdresse1":"37 BIS Boulevard Paoli","cbAdresse2":"","cbCp":"20200","cbVille":"BASTIA","spLibelle1":"","spLibelle2":"","acDateSerment":"","coordinates":[9.4501843,42.7008648]},{"NomBarreau":"BASTIA","avNom":"TABOUREAU","avPrenom":"Valérie","cbRaisonSociale":"TOMASI-VACCAREZZA-BRONZINI DE CARAFFA-TABOUREAU-GENUINI-LUISI-BENARD-BATTESTI","cbSiretSiren":"301075123","cbAdresse1":"6 Boulevard Paoli","cbAdresse2":"","cbCp":"20200","cbVille":"BASTIA","spLibelle1":"","spLibelle2":"","acDateSerment":"","coordinates":[9.4501843,42.7008648]},{"NomBarreau":"BASTIA","avNom":"TALAMONI","avPrenom":"Charles Eric","cbRaisonSociale":"TALAMONI CHARLES ERIC","cbSiretSiren":"413177312","cbAdresse1":"7 Rue Miot","cbAdresse2":"","cbCp":"20200","cbVille":"BASTIA","spLibelle1":"","spLibelle2":"","acDateSerment":"","coordinates":[9.4510945,42.6991756]},{"NomBarreau":"BASTIA","avNom":"TALAMONI","avPrenom":"Jean Guy","cbRaisonSociale":"TALAMONI JEAN GUY","cbSiretSiren":"345375620","cbAdresse1":"7 Rue Miot","cbAdresse2":"","cbCp":"20200","cbVille":"BASTIA","spLibelle1":"","spLibelle2":"","acDateSerment":"","coordinates":[9.4510945,42.6991756]},{"NomBarreau":"BASTIA","avNom":"THIBAUDEAU","avPrenom":"Claude","cbRaisonSociale":"THIBAUDEAU CLAUDE","cbSiretSiren":"328734819","cbAdresse1":"2 Rue Carnot","cbAdresse2":"","cbCp":"20200","cbVille":"BASTIA","spLibelle1":"","spLibelle2":"","acDateSerment":"","coordinates":[9.4495532,42.7027773]},{"NomBarreau":"BASTIA","avNom":"THIBAUDEAU","avPrenom":"Laure Anne","cbRaisonSociale":"THIBAUDEAU LAURE- ANNE","cbSiretSiren":"810399543","cbAdresse1":"41 Boulevard PAOLI","cbAdresse2":"","cbCp":"20200","cbVille":"BASTIA","spLibelle1":"","spLibelle2":"","acDateSerment":"","coordinates":[9.4501843,42.7008648]},{"NomBarreau":"BASTIA","avNom":"TOMASI","avPrenom":"Angeline","cbRaisonSociale":"TOMASI ANGELINE","cbSiretSiren":"301731196","cbAdresse1":"6 Boulevard PAOLI","cbAdresse2":"","cbCp":"20200","cbVille":"BASTIA","spLibelle1":"","spLibelle2":"","acDateSerment":"","coordinates":[9.4501843,42.7008648]},{"NomBarreau":"BASTIA","avNom":"VACCAREZZA","avPrenom":"Jacques","cbRaisonSociale":"TOMASI-VACCAREZZA-BRONZINI DE CARAFFA-TABOUREAU-GENUINI-LUISI-BENARD-BATTESTI","cbSiretSiren":"301075123","cbAdresse1":"6 Boulevard Paoli","cbAdresse2":"","cbCp":"20200","cbVille":"BASTIA","spLibelle1":"","spLibelle2":"","acDateSerment":"","coordinates":[9.4501843,42.7008648]},{"NomBarreau":"BASTIA","avNom":"VASSE","avPrenom":"Eloise","cbRaisonSociale":"VASSE ELOISE","cbSiretSiren":"891877029","cbAdresse1":"6 Boulevard Paoli","cbAdresse2":"","cbCp":"20200","cbVille":"BASTIA","spLibelle1":"","spLibelle2":"","acDateSerment":"","coordinates":[9.4501843,42.7008648]},{"NomBarreau":"BASTIA","avNom":"VINCENTI","avPrenom":"Valérie","cbRaisonSociale":"VINCENTI VALERIE","cbSiretSiren":"519853154","cbAdresse1":"4 Boulevard Hyacinthe de MONTERA","cbAdresse2":"","cbCp":"20200","cbVille":"BASTIA","spLibelle1":"","spLibelle2":"","acDateSerment":"","coordinates":[9.447179870715548,42.69761775]},{"NomBarreau":"BASTIA","avNom":"VOITURIEZ","avPrenom":"Claude","cbRaisonSociale":"VOITURIEZ CLAUDE","cbSiretSiren":"315114371","cbAdresse1":"4 bd Paoli","cbAdresse2":"","cbCp":"20200","cbVille":"BASTIA","spLibelle1":"","spLibelle2":"","acDateSerment":"","coordinates":[9.4501843,42.7008648]}]