[{"NomBarreau":"BEZIERS","avNom":"ABELLA","avPrenom":"Mathilde","cbRaisonSociale":"ABELLA MATHILDE","cbSiretSiren":"519611669","cbAdresse1":"54 Avenue Pierre Verdier","cbAdresse2":"Espace Domitia","cbCp":"34500","cbVille":"BEZIERS","spLibelle1":"","spLibelle2":"","acDateSerment":"","coordinates":[3.2378685,43.3453045]},{"NomBarreau":"BEZIERS","avNom":"ALCINA","avPrenom":"Virginie","cbRaisonSociale":"ABMD","cbSiretSiren":"528487143","cbAdresse1":"2 Boulevard Jean BOUIN","cbAdresse2":"Résidence OPTIMUM","cbCp":"34500","cbVille":"BEZIERS","spLibelle1":"","spLibelle2":"","acDateSerment":"","coordinates":[3.2561587,43.3359802]},{"NomBarreau":"BEZIERS","avNom":"AMOROS","avPrenom":"Mélanie","cbRaisonSociale":"AMOROS MELANIE","cbSiretSiren":"528802341","cbAdresse1":"2 Boulevard Jean Bouin","cbAdresse2":"Résidence l'Optimum","cbCp":"34500","cbVille":"BEZIERS","spLibelle1":"","spLibelle2":"","acDateSerment":"","coordinates":[3.2561587,43.3359802]},{"NomBarreau":"BEZIERS","avNom":"ANNOVAZZI","avPrenom":"Nora","cbRaisonSociale":"GUIGUES CALAS-DAVID ANNOVAZZI","cbSiretSiren":"792253197","cbAdresse1":"18 Rue Guibal","cbAdresse2":"","cbCp":"34500","cbVille":"BEZIERS","spLibelle1":"","spLibelle2":"","acDateSerment":"","coordinates":[3.2152318,43.3442197]},{"NomBarreau":"BEZIERS","avNom":"APPE","avPrenom":"Florent","cbRaisonSociale":"APPE FLORENT","cbSiretSiren":"419284690","cbAdresse1":"23 avenue Auguste Albertini","cbAdresse2":"","cbCp":"34500","cbVille":"BEZIERS","spLibelle1":"","spLibelle2":"","acDateSerment":"","coordinates":[3.233197,43.347835]},{"NomBarreau":"BEZIERS","avNom":"ARSLAN ARIKAN","avPrenom":"Vanessa","cbRaisonSociale":"VAA AVOCATS","cbSiretSiren":"893211722","cbAdresse1":"2 Rue Maximilien Sully","cbAdresse2":"","cbCp":"34500","cbVille":"BEZIERS","spLibelle1":"","spLibelle2":"","acDateSerment":"","coordinates":[3.228228,43.3363268]},{"NomBarreau":"BEZIERS","avNom":"AURAN-VISTE","avPrenom":"Françoise","cbRaisonSociale":"AURAN-VISTE & ASSOCIES","cbSiretSiren":"480160555","cbAdresse1":"13 Rue Viennet","cbAdresse2":"","cbCp":"34500","cbVille":"BEZIERS","spLibelle1":"Droit de la famille, des personnes et de leur patrimoine","spLibelle2":"Droit de la sécurité sociale et de la protection sociale","acDateSerment":"","coordinates":[3.2123682,43.3421773]},{"NomBarreau":"BEZIERS","avNom":"AZZABI","avPrenom":"Zaina","cbRaisonSociale":"AZZABI ZAINA","cbSiretSiren":"509197539","cbAdresse1":"23 Avenue Auguste Albertini","cbAdresse2":"","cbCp":"34500","cbVille":"BEZIERS","spLibelle1":"","spLibelle2":"","acDateSerment":"","coordinates":[3.233197,43.347835]},{"NomBarreau":"BEZIERS","avNom":"BAR","avPrenom":"Sylvie","cbRaisonSociale":"BAR SYLVIE","cbSiretSiren":"441102340","cbAdresse1":"54 Avenue Pierre Verdier","cbAdresse2":"","cbCp":"34500","cbVille":"BEZIERS","spLibelle1":"Droit pénal","spLibelle2":"","acDateSerment":"","coordinates":[3.2378685,43.3453045]},{"NomBarreau":"BEZIERS","avNom":"BASTELICA-MARTINEZ","avPrenom":"Marianne","cbRaisonSociale":"BASTELICA-MARTINEZ MARIANNE","cbSiretSiren":"502807100","cbAdresse1":"2 Place David d'Angers","cbAdresse2":"","cbCp":"34500","cbVille":"BEZIERS","spLibelle1":"","spLibelle2":"","acDateSerment":"","coordinates":[3.2201412,43.3454162]},{"NomBarreau":"BEZIERS","avNom":"BATAL-GROSCLAUDE","avPrenom":"Aziza","cbRaisonSociale":"BATAL-GROSCLAUDE AZIZA","cbSiretSiren":"442580262","cbAdresse1":"62 Avenue Jean Moulin","cbAdresse2":"Le Carré d'Hort - Bat C","cbCp":"34500","cbVille":"BEZIERS","spLibelle1":"","spLibelle2":"","acDateSerment":"","coordinates":[3.232855,43.352696]},{"NomBarreau":"BEZIERS","avNom":"BEKAIRI","avPrenom":"Yoann","cbRaisonSociale":"BEKAIRI YOANN","cbSiretSiren":"800743049","cbAdresse1":"58 Avenue de la Tanne","cbAdresse2":"","cbCp":"34500","cbVille":"BEZIERS","spLibelle1":"","spLibelle2":"","acDateSerment":"","coordinates":[3.2372299,43.3321011]},{"NomBarreau":"BEZIERS","avNom":"BEN JEDDI","avPrenom":"Melissa","cbRaisonSociale":"BEN JEDDI MELISSA","cbSiretSiren":"947735189","cbAdresse1":"12 Rue Boieldieu","cbAdresse2":"","cbCp":"34500","cbVille":"BEZIERS","spLibelle1":"","spLibelle2":"","acDateSerment":"","coordinates":[3.2173547,43.3434267]},{"NomBarreau":"BEZIERS","avNom":"BERMOND","avPrenom":"François","cbRaisonSociale":"BAM AVOCATS","cbSiretSiren":"908224553","cbAdresse1":"12 Rue Boieldieu","cbAdresse2":"","cbCp":"34500","cbVille":"BEZIERS","spLibelle1":"","spLibelle2":"","acDateSerment":"","coordinates":[3.2173547,43.3434267]},{"NomBarreau":"BEZIERS","avNom":"BERTRAND","avPrenom":"David","cbRaisonSociale":"BERTRAND DAVID","cbSiretSiren":"418127239","cbAdresse1":"34 Avenue Auguste Albertini","cbAdresse2":"","cbCp":"34500","cbVille":"BEZIERS","spLibelle1":"","spLibelle2":"","acDateSerment":"","coordinates":[3.235394,43.348766]},{"NomBarreau":"BEZIERS","avNom":"BES","avPrenom":"Marie-Hélène","cbRaisonSociale":"BES MARIE HELENE","cbSiretSiren":"340177625","cbAdresse1":"11 Rue Montmorency","cbAdresse2":"","cbCp":"34500","cbVille":"BEZIERS","spLibelle1":"","spLibelle2":"","acDateSerment":"","coordinates":[3.214675,43.3424073]},{"NomBarreau":"BEZIERS","avNom":"BIALEK","avPrenom":"Anne","cbRaisonSociale":"BIALEK ANNE","cbSiretSiren":"334715588","cbAdresse1":"21 Place de la Madeleine","cbAdresse2":"","cbCp":"34500","cbVille":"BEZIERS","spLibelle1":"","spLibelle2":"","acDateSerment":"","coordinates":[3.212728752533785,43.34444365]},{"NomBarreau":"BEZIERS","avNom":"BIANCO","avPrenom":"Benjamin","cbRaisonSociale":"BIANCO BENJAMIN","cbSiretSiren":"834414112","cbAdresse1":"7 Avenue Pierre Verdier","cbAdresse2":"","cbCp":"34500","cbVille":"BEZIERS","spLibelle1":"","spLibelle2":"","acDateSerment":"","coordinates":[3.2378685,43.3453045]},{"NomBarreau":"BEZIERS","avNom":"CALAS-DAVID","avPrenom":"Annabel","cbRaisonSociale":"GUIGUES CALAS-DAVID ANNOVAZZI","cbSiretSiren":"792253197","cbAdresse1":"18 Rue Guibal","cbAdresse2":"","cbCp":"34500","cbVille":"BEZIERS","spLibelle1":"","spLibelle2":"","acDateSerment":"","coordinates":[3.2152318,43.3442197]},{"NomBarreau":"BEZIERS","avNom":"CAMPANELLA","avPrenom":"Lisa","cbRaisonSociale":"CAMPANELLA LISA","cbSiretSiren":"908453376","cbAdresse1":"13 Rue Viennet","cbAdresse2":"","cbCp":"34500","cbVille":"BEZIERS","spLibelle1":"","spLibelle2":"","acDateSerment":"","coordinates":[3.2123682,43.3421773]},{"NomBarreau":"BEZIERS","avNom":"CARABASSE","avPrenom":"Sylvie","cbRaisonSociale":"CARABASSE SYLVIE","cbSiretSiren":"409441060","cbAdresse1":"8 Rue Amiral Courbet","cbAdresse2":"","cbCp":"34500","cbVille":"BEZIERS","spLibelle1":"","spLibelle2":"","acDateSerment":"","coordinates":[3.2250604,43.338683]},{"NomBarreau":"BEZIERS","avNom":"CASTAN","avPrenom":"Marc","cbRaisonSociale":"CASTAN MARC","cbSiretSiren":"522630722","cbAdresse1":"32 Rue Louis Malbosc","cbAdresse2":"","cbCp":"34500","cbVille":"BEZIERS","spLibelle1":"","spLibelle2":"","acDateSerment":"","coordinates":[3.2384943,43.3454762]},{"NomBarreau":"BEZIERS","avNom":"CAUSSE","avPrenom":"Delphine","cbRaisonSociale":"CAUSSE DELPHINE","cbSiretSiren":"480815638","cbAdresse1":"54 Avenue Pierre Verdier","cbAdresse2":"Espace Domitia","cbCp":"34500","cbVille":"BEZIERS","spLibelle1":"","spLibelle2":"","acDateSerment":"","coordinates":[3.2378685,43.3453045]},{"NomBarreau":"BEZIERS","avNom":"CHAVANNE","avPrenom":"Philippe","cbRaisonSociale":"CHAVANNE PHILIPPE","cbSiretSiren":"332095256","cbAdresse1":"7 avenue Pierre Verdier","cbAdresse2":"","cbCp":"34500","cbVille":"BEZIERS","spLibelle1":"Droit des sociétés","spLibelle2":"Droit fiscal et droit douanier","acDateSerment":"","coordinates":[3.2378685,43.3453045]},{"NomBarreau":"BEZIERS","avNom":"CORDERO","avPrenom":"Sandra","cbRaisonSociale":"CORDERO SANDRA","cbSiretSiren":"520998600","cbAdresse1":"43 Avenue Jean Constans","cbAdresse2":"","cbCp":"34500","cbVille":"BEZIERS","spLibelle1":"","spLibelle2":"","acDateSerment":"","coordinates":[3.236719,43.3389079]},{"NomBarreau":"BEZIERS","avNom":"DAGORY","avPrenom":"Aliénor","cbRaisonSociale":"DAGORY ALIENOR","cbSiretSiren":"488264029","cbAdresse1":"12 Rue Boieldieu","cbAdresse2":"","cbCp":"34500","cbVille":"BEZIERS","spLibelle1":"","spLibelle2":"","acDateSerment":"","coordinates":[3.2173547,43.3434267]},{"NomBarreau":"BEZIERS","avNom":"DEJEANT","avPrenom":"Marion","cbRaisonSociale":"DEJEANT MARION","cbSiretSiren":"520555871","cbAdresse1":"7 Avenue Pierre Verdier","cbAdresse2":"","cbCp":"34500","cbVille":"BEZIERS","spLibelle1":"","spLibelle2":"","acDateSerment":"","coordinates":[3.2378685,43.3453045]},{"NomBarreau":"BEZIERS","avNom":"DELFAU-BARDY","avPrenom":"Florence","cbRaisonSociale":"DELFAU-BARDY FLORENCE","cbSiretSiren":"391192085","cbAdresse1":"6 Place St Aphrodise","cbAdresse2":"","cbCp":"34500","cbVille":"BEZIERS","spLibelle1":"","spLibelle2":"","acDateSerment":"","coordinates":[3.214514818321535,43.34664575]},{"NomBarreau":"BEZIERS","avNom":"DELMAS","avPrenom":"Claire","cbRaisonSociale":"DELMAS CLAIRE","cbSiretSiren":"845005396","cbAdresse1":"23 Avenue Auguste Albertini","cbAdresse2":"","cbCp":"34500","cbVille":"BEZIERS","spLibelle1":"","spLibelle2":"","acDateSerment":"","coordinates":[3.233197,43.347835]},{"NomBarreau":"BEZIERS","avNom":"DESRUELLES","avPrenom":"Philippe","cbRaisonSociale":"DESRUELLES PHILIPPE","cbSiretSiren":"452625569","cbAdresse1":"2 Place David d'Angers","cbAdresse2":"","cbCp":"34500","cbVille":"BEZIERS","spLibelle1":"","spLibelle2":"","acDateSerment":"","coordinates":[3.2201412,43.3454162]},{"NomBarreau":"BEZIERS","avNom":"DHEROT","avPrenom":"Charlène","cbRaisonSociale":"DHEROT CHARLENE","cbSiretSiren":"799475694","cbAdresse1":"43 Avenue Jean Constans","cbAdresse2":"","cbCp":"34500","cbVille":"BEZIERS","spLibelle1":"","spLibelle2":"","acDateSerment":"","coordinates":[3.236719,43.3389079]},{"NomBarreau":"BEZIERS","avNom":"DUMAS","avPrenom":"Sandrine","cbRaisonSociale":"ACTIUM AVOCATS ASSOCIES","cbSiretSiren":"489024141","cbAdresse1":"32 Rue Louis Malbosc","cbAdresse2":"","cbCp":"34500","cbVille":"BEZIERS","spLibelle1":"","spLibelle2":"","acDateSerment":"","coordinates":[3.2384943,43.3454762]},{"NomBarreau":"BEZIERS","avNom":"ESPOSITO","avPrenom":"Sandrine","cbRaisonSociale":"ACTIUM AVOCATS ASSOCIES","cbSiretSiren":"489024141","cbAdresse1":"32 Rue Louis Malbosc","cbAdresse2":"","cbCp":"34500","cbVille":"BEZIERS","spLibelle1":"","spLibelle2":"","acDateSerment":"","coordinates":[3.2384943,43.3454762]},{"NomBarreau":"BEZIERS","avNom":"FERNANDEZ","avPrenom":"Estelle","cbRaisonSociale":"FERNANDEZ ESTELLE","cbSiretSiren":"799884770","cbAdresse1":"58-60 Avenue de la Tanne","cbAdresse2":"","cbCp":"34500","cbVille":"BEZIERS","spLibelle1":"","spLibelle2":"","acDateSerment":"","coordinates":[3.2380854,43.3344067]},{"NomBarreau":"BEZIERS","avNom":"FISCHER","avPrenom":"Katia","cbRaisonSociale":"FISCHER ET ASSOCIES","cbSiretSiren":"818421604","cbAdresse1":"3 Rue Montmorency","cbAdresse2":"","cbCp":"34500","cbVille":"BEZIERS","spLibelle1":"","spLibelle2":"","acDateSerment":"","coordinates":[3.214675,43.3424073]},{"NomBarreau":"BEZIERS","avNom":"FOULQUIER","avPrenom":"Nicole","cbRaisonSociale":"FOULQUIER NICOLE","cbSiretSiren":"378601736","cbAdresse1":"6 Rue de Bonsi","cbAdresse2":"","cbCp":"34500","cbVille":"BEZIERS","spLibelle1":"","spLibelle2":"","acDateSerment":"","coordinates":[3.211982,43.3414606]},{"NomBarreau":"BEZIERS","avNom":"FRESET","avPrenom":"Dominique Charles","cbRaisonSociale":"AVOCARREDHORT","cbSiretSiren":"411020217","cbAdresse1":"62 Avenue Jean Moulin","cbAdresse2":"Centre d'Affaire LE CARRE D'HORT","cbCp":"34500","cbVille":"BEZIERS","spLibelle1":"","spLibelle2":"","acDateSerment":"","coordinates":[3.232855,43.352696]},{"NomBarreau":"BEZIERS","avNom":"GERENTON","avPrenom":"Alexandra","cbRaisonSociale":"ALTHEIS AVOCATS ","cbSiretSiren":"912042462","cbAdresse1":"385 Boulevard Robert Koch","cbAdresse2":"Immeuble le Triangle","cbCp":"34500","cbVille":"BEZIERS","spLibelle1":"Droit du travail","spLibelle2":"","acDateSerment":"","coordinates":[3.255782,43.3631204]},{"NomBarreau":"BEZIERS","avNom":"GIMENO","avPrenom":"Charline","cbRaisonSociale":"GIMENO CHARLINE","cbSiretSiren":"452298474","cbAdresse1":"23 Avenue Auguste Albertini","cbAdresse2":"Espace des Arènes","cbCp":"34500","cbVille":"BEZIERS","spLibelle1":"","spLibelle2":"","acDateSerment":"","coordinates":[3.233197,43.347835]},{"NomBarreau":"BEZIERS","avNom":"GIRAUD","avPrenom":"Alban","cbRaisonSociale":"GIRAUD  ALBAN","cbSiretSiren":"800984577","cbAdresse1":"17 Rue Viennet","cbAdresse2":"","cbCp":"34500","cbVille":"BEZIERS","spLibelle1":"","spLibelle2":"","acDateSerment":"","coordinates":[3.2123682,43.3421773]},{"NomBarreau":"BEZIERS","avNom":"GONZALEZ","avPrenom":"Séraphine","cbRaisonSociale":"GONZALEZ SERAPHINE","cbSiretSiren":"817598360","cbAdresse1":"23 Rue Barbeyrac","cbAdresse2":"","cbCp":"34500","cbVille":"BEZIERS","spLibelle1":"","spLibelle2":"","acDateSerment":"","coordinates":[3.2173127,43.3467994]},{"NomBarreau":"BEZIERS","avNom":"GUIDERA","avPrenom":"Marine","cbRaisonSociale":"GUIDERA MARINE","cbSiretSiren":"884378597","cbAdresse1":"12 Rue Boieldieu","cbAdresse2":"","cbCp":"34500","cbVille":"BEZIERS","spLibelle1":"","spLibelle2":"","acDateSerment":"","coordinates":[3.2173547,43.3434267]},{"NomBarreau":"BEZIERS","avNom":"GUIGUES","avPrenom":"Jean-Christophe","cbRaisonSociale":"GUIGUES CALAS-DAVID ANNOVAZZI","cbSiretSiren":"792253197","cbAdresse1":"18 Rue Guibal","cbAdresse2":"","cbCp":"34500","cbVille":"BEZIERS","spLibelle1":"Droit des garanties, des saretés et des mesures d'exécution","spLibelle2":"Droit pénal","acDateSerment":"","coordinates":[3.2152318,43.3442197]},{"NomBarreau":"BEZIERS","avNom":"GUILHABERT","avPrenom":"Eric","cbRaisonSociale":"GUILHABERT ERIC","cbSiretSiren":"410560700","cbAdresse1":"6 Avenue Enseigne Albertini","cbAdresse2":"","cbCp":"34500","cbVille":"BEZIERS","spLibelle1":"","spLibelle2":"","acDateSerment":"","coordinates":[3.22364,43.345524]},{"NomBarreau":"BEZIERS","avNom":"HERAIL","avPrenom":"Dylan","cbRaisonSociale":"HERAIL DYLAN","cbSiretSiren":"908763790","cbAdresse1":"34 Avenue Auguste Albertini","cbAdresse2":"","cbCp":"34500","cbVille":"BEZIERS","spLibelle1":"","spLibelle2":"","acDateSerment":"","coordinates":[3.235394,43.348766]},{"NomBarreau":"BEZIERS","avNom":"JACQUES","avPrenom":"Anne-Claude","cbRaisonSociale":"ACTIUM AVOCATS ASSOCIES","cbSiretSiren":"489024141","cbAdresse1":"32 Rue Louis Malbosc","cbAdresse2":"","cbCp":"34500","cbVille":"BEZIERS","spLibelle1":"Droit de la sécurité sociale et de la protection sociale","spLibelle2":"Droit du travail","acDateSerment":"","coordinates":[3.2384943,43.3454762]},{"NomBarreau":"BEZIERS","avNom":"JEANJEAN","avPrenom":"Lucille","cbRaisonSociale":"JEANJEAN LUCILLE","cbSiretSiren":"","cbAdresse1":"7 Avenue Pierre Verdier","cbAdresse2":"","cbCp":"34500","cbVille":"BEZIERS","spLibelle1":"","spLibelle2":"","acDateSerment":"","coordinates":[3.2378685,43.3453045]},{"NomBarreau":"BEZIERS","avNom":"JEGOU","avPrenom":"Benjamin","cbRaisonSociale":"JEGOU BENJAMIN","cbSiretSiren":"808259337","cbAdresse1":"62 Avenue Jean Moulin","cbAdresse2":"Le Carré d'Hort","cbCp":"34500","cbVille":"BEZIERS","spLibelle1":"","spLibelle2":"","acDateSerment":"","coordinates":[3.232855,43.352696]},{"NomBarreau":"BEZIERS","avNom":"KOLCHAK","avPrenom":"Isabelle","cbRaisonSociale":"KOLCHAK ISABELLE","cbSiretSiren":"794812594","cbAdresse1":"8 Rue Amiral Courbet","cbAdresse2":"","cbCp":"34500","cbVille":"BEZIERS","spLibelle1":"","spLibelle2":"","acDateSerment":"","coordinates":[3.2250604,43.338683]},{"NomBarreau":"BEZIERS","avNom":"LEMOUDAA","avPrenom":"Rachid","cbRaisonSociale":"LEMOUDAA RACHID","cbSiretSiren":"399732338","cbAdresse1":"8 Rue Amiral Courbet","cbAdresse2":"","cbCp":"34500","cbVille":"BEZIERS","spLibelle1":"","spLibelle2":"","acDateSerment":"","coordinates":[3.2250604,43.338683]},{"NomBarreau":"BEZIERS","avNom":"LIMOUZIN","avPrenom":"Clarisse","cbRaisonSociale":"LIMOUZIN CLARISSE","cbSiretSiren":"880828215","cbAdresse1":"34 Avenue Auguste Albertini","cbAdresse2":"","cbCp":"34500","cbVille":"BEZIERS","spLibelle1":"","spLibelle2":"","acDateSerment":"","coordinates":[3.235394,43.348766]},{"NomBarreau":"BEZIERS","avNom":"LLADOS-HERAIL","avPrenom":"Bernadette","cbRaisonSociale":"LLADOS-HERAIL BERNADETTE","cbSiretSiren":"349936443","cbAdresse1":"2 BIS Rue Viennet","cbAdresse2":"","cbCp":"34500","cbVille":"BEZIERS","spLibelle1":"","spLibelle2":"","acDateSerment":"","coordinates":[3.2123682,43.3421773]},{"NomBarreau":"BEZIERS","avNom":"MANGIN","avPrenom":"Solène","cbRaisonSociale":"BAM AVOCATS","cbSiretSiren":"908224553","cbAdresse1":"12 Rue Boieldieu","cbAdresse2":"","cbCp":"34500","cbVille":"BEZIERS","spLibelle1":"","spLibelle2":"","acDateSerment":"","coordinates":[3.2173547,43.3434267]},{"NomBarreau":"BEZIERS","avNom":"MARAVAL","avPrenom":"Pierre","cbRaisonSociale":"MARAVAL PIERRE","cbSiretSiren":"452298490","cbAdresse1":"2 Boulevard Jean BOUIN","cbAdresse2":"Immeuble Optimum","cbCp":"34500","cbVille":"BEZIERS","spLibelle1":"","spLibelle2":"","acDateSerment":"","coordinates":[3.2561587,43.3359802]},{"NomBarreau":"BEZIERS","avNom":"MAUREL","avPrenom":"Franck","cbRaisonSociale":"MAUREL ET ASSOCIES","cbSiretSiren":"853435428","cbAdresse1":"7 Avenue Pierre Verdier","cbAdresse2":"","cbCp":"34500","cbVille":"BEZIERS","spLibelle1":"Droit fiscal et droit douanier","spLibelle2":"","acDateSerment":"","coordinates":[3.2378685,43.3453045]},{"NomBarreau":"BEZIERS","avNom":"MEGNINT","avPrenom":"Anais","cbRaisonSociale":"ALTHEIS AVOCATS ","cbSiretSiren":"912042462","cbAdresse1":"385 Boulevard Robert Koch","cbAdresse2":"Immeuble le Triangle","cbCp":"34500","cbVille":"BEZIERS","spLibelle1":"","spLibelle2":"","acDateSerment":"","coordinates":[3.255782,43.3631204]},{"NomBarreau":"BEZIERS","avNom":"MENUT","avPrenom":"Olivier","cbRaisonSociale":"MENUT OLIVIER","cbSiretSiren":"421348020","cbAdresse1":"16 Rue Jules Ferry","cbAdresse2":"","cbCp":"34500","cbVille":"BEZIERS","spLibelle1":"","spLibelle2":"","acDateSerment":"","coordinates":[3.366451194777956,43.50722165]},{"NomBarreau":"BEZIERS","avNom":"MERAND","avPrenom":"Muriel","cbRaisonSociale":"MERAND MURIEL","cbSiretSiren":"482225315","cbAdresse1":"7 Avenue Pierre Verdier","cbAdresse2":"","cbCp":"34500","cbVille":"BEZIERS","spLibelle1":"","spLibelle2":"","acDateSerment":"","coordinates":[3.2378685,43.3453045]},{"NomBarreau":"BEZIERS","avNom":"MERCEY","avPrenom":"Anne-Chloé","cbRaisonSociale":"PIJOT POMPIER MERCEY","cbSiretSiren":"509429932","cbAdresse1":"13 Rue du Docteur Fleming","cbAdresse2":"Le Patio de Montimaran","cbCp":"34500","cbVille":"BEZIERS","spLibelle1":"","spLibelle2":"","acDateSerment":"","coordinates":[3.2568375,43.3368138]},{"NomBarreau":"BEZIERS","avNom":"MERCIER","avPrenom":"Grégoire","cbRaisonSociale":"BAM AVOCATS","cbSiretSiren":"908224553","cbAdresse1":"12 Rue Boieldieu","cbAdresse2":"","cbCp":"34500","cbVille":"BEZIERS","spLibelle1":"","spLibelle2":"","acDateSerment":"","coordinates":[3.2173547,43.3434267]},{"NomBarreau":"BEZIERS","avNom":"MICHEL","avPrenom":"Fanny","cbRaisonSociale":"MICHEL FANNY","cbSiretSiren":"749831764","cbAdresse1":"34 Avenue Auguste Albertini","cbAdresse2":"","cbCp":"34500","cbVille":"BEZIERS","spLibelle1":"","spLibelle2":"","acDateSerment":"","coordinates":[3.235394,43.348766]},{"NomBarreau":"BEZIERS","avNom":"MOLINE","avPrenom":"Murielle","cbRaisonSociale":"MOLINE MURIELLE","cbSiretSiren":"413566100","cbAdresse1":"10 Rue Guibal","cbAdresse2":"","cbCp":"34500","cbVille":"BEZIERS","spLibelle1":"","spLibelle2":"","acDateSerment":"","coordinates":[3.2152318,43.3442197]},{"NomBarreau":"BEZIERS","avNom":"MONSARRAT","avPrenom":"Lisa","cbRaisonSociale":"MONSARRAT LISA","cbSiretSiren":"908700115","cbAdresse1":"13 Rue du Docteur Fleming","cbAdresse2":"Le Patio de Montimaran","cbCp":"34500","cbVille":"BEZIERS","spLibelle1":"","spLibelle2":"","acDateSerment":"","coordinates":[3.2568375,43.3368138]},{"NomBarreau":"BEZIERS","avNom":"MONTAZEL","avPrenom":"Laurence","cbRaisonSociale":"MONTAZEL LAURENCE","cbSiretSiren":"488466269","cbAdresse1":"8 Rue Amiral Courbet","cbAdresse2":"","cbCp":"34500","cbVille":"BEZIERS","spLibelle1":"","spLibelle2":"","acDateSerment":"","coordinates":[3.2250604,43.338683]},{"NomBarreau":"BEZIERS","avNom":"MONTPELLIER","avPrenom":"Axelle","cbRaisonSociale":"LK AVOCATS","cbSiretSiren":"879696748","cbAdresse1":"385 Boulevard Robert Koch","cbAdresse2":"Immeuble le Triangle","cbCp":"34500","cbVille":"BEZIERS","spLibelle1":"","spLibelle2":"","acDateSerment":"","coordinates":[3.255782,43.3631204]},{"NomBarreau":"BEZIERS","avNom":"MOSSUS","avPrenom":"Jean-François","cbRaisonSociale":"MOSSUS JEAN-FRANCOIS","cbSiretSiren":"453881831","cbAdresse1":"16 Rue Jules Ferry","cbAdresse2":"","cbCp":"34500","cbVille":"BEZIERS","spLibelle1":"","spLibelle2":"","acDateSerment":"","coordinates":[3.366451194777956,43.50722165]},{"NomBarreau":"BEZIERS","avNom":"NICOLAS","avPrenom":"Philippe","cbRaisonSociale":"NICOLAS PHILIPPE","cbSiretSiren":"413367939","cbAdresse1":"8 Rue Amiral Courbet","cbAdresse2":"","cbCp":"34500","cbVille":"BEZIERS","spLibelle1":"","spLibelle2":"","acDateSerment":"","coordinates":[3.2250604,43.338683]},{"NomBarreau":"BEZIERS","avNom":"NOUGARET-FISCHER","avPrenom":"Fleur","cbRaisonSociale":"NOUGARET-FISCHER FLEUR","cbSiretSiren":"840122279","cbAdresse1":"3 Rue Montmorency","cbAdresse2":"","cbCp":"34500","cbVille":"BEZIERS","spLibelle1":"","spLibelle2":"","acDateSerment":"","coordinates":[3.214675,43.3424073]},{"NomBarreau":"BEZIERS","avNom":"NOURRIT-FRESET","avPrenom":"Marie","cbRaisonSociale":"AVOCARREDHORT","cbSiretSiren":"411020217","cbAdresse1":"62 Avenue Jean Moulin","cbAdresse2":"Centre d'Affaire LE CARRE D'HORT","cbCp":"34500","cbVille":"BEZIERS","spLibelle1":"","spLibelle2":"","acDateSerment":"","coordinates":[3.232855,43.352696]},{"NomBarreau":"BEZIERS","avNom":"PAQUETTE-DESSAIGNE","avPrenom":"Corinne","cbRaisonSociale":"JURIDIS-LR","cbSiretSiren":"808013437","cbAdresse1":"7 Avenue Pierre Verdier","cbAdresse2":"","cbCp":"34500","cbVille":"BEZIERS","spLibelle1":"","spLibelle2":"","acDateSerment":"","coordinates":[3.2378685,43.3453045]},{"NomBarreau":"BEZIERS","avNom":"PETIT","avPrenom":"Maeva","cbRaisonSociale":"PETIT MAEVA","cbSiretSiren":"907950059","cbAdresse1":"6 Place St Aphrodise","cbAdresse2":"","cbCp":"34500","cbVille":"BEZIERS","spLibelle1":"","spLibelle2":"","acDateSerment":"","coordinates":[3.214514818321535,43.34664575]},{"NomBarreau":"BEZIERS","avNom":"PIJOT","avPrenom":"Patricia","cbRaisonSociale":"PIJOT POMPIER MERCEY","cbSiretSiren":"509429932","cbAdresse1":"13 Rue du Docteur Fleming","cbAdresse2":"Le Patio de Montimaran","cbCp":"34500","cbVille":"BEZIERS","spLibelle1":"","spLibelle2":"","acDateSerment":"","coordinates":[3.2568375,43.3368138]},{"NomBarreau":"BEZIERS","avNom":"POMPIER","avPrenom":"Agnès","cbRaisonSociale":"PIJOT POMPIER MERCEY","cbSiretSiren":"509429932","cbAdresse1":"13 Rue du Docteur Fleming","cbAdresse2":"Le Patio de Montimaran","cbCp":"34500","cbVille":"BEZIERS","spLibelle1":"","spLibelle2":"","acDateSerment":"","coordinates":[3.2568375,43.3368138]},{"NomBarreau":"BEZIERS","avNom":"RAYBAUD","avPrenom":"Margot","cbRaisonSociale":"RAYBAUD MARGOT","cbSiretSiren":"835313974","cbAdresse1":"43 Avenue Jean Constans","cbAdresse2":"","cbCp":"34500","cbVille":"BEZIERS","spLibelle1":"","spLibelle2":"","acDateSerment":"","coordinates":[3.236719,43.3389079]},{"NomBarreau":"BEZIERS","avNom":"RIGAUD","avPrenom":"Franck","cbRaisonSociale":"RIGAUD FRANCK","cbSiretSiren":"410867725","cbAdresse1":"2 Boulevard Jean BOUIN","cbAdresse2":"Résidence l'Optimum","cbCp":"34500","cbVille":"BEZIERS","spLibelle1":"","spLibelle2":"","acDateSerment":"","coordinates":[3.2561587,43.3359802]},{"NomBarreau":"BEZIERS","avNom":"ROLLIN","avPrenom":"Jean-Claude","cbRaisonSociale":"ACSE SUD","cbSiretSiren":"520450347","cbAdresse1":"2 Boulevard Jean Bouin","cbAdresse2":"Immeuble Optimum","cbCp":"34500","cbVille":"BEZIERS","spLibelle1":"","spLibelle2":"","acDateSerment":"","coordinates":[3.2561587,43.3359802]},{"NomBarreau":"BEZIERS","avNom":"RUDELLE","avPrenom":"Laurence","cbRaisonSociale":"RUDELLE-LE BIGOT-SCOLLO","cbSiretSiren":"448759704","cbAdresse1":"6 Place Saint Aphrodise","cbAdresse2":"","cbCp":"34500","cbVille":"BEZIERS","spLibelle1":"","spLibelle2":"","acDateSerment":"","coordinates":[3.214514818321535,43.34664575]},{"NomBarreau":"BEZIERS","avNom":"RUIZ-GARCIA","avPrenom":"Camille","cbRaisonSociale":"RUIZ-GARCIA CAMILLE","cbSiretSiren":"878590538","cbAdresse1":"7 Avenue Pierre Verdier","cbAdresse2":"","cbCp":"34500","cbVille":"BEZIERS","spLibelle1":"Droit du travail","spLibelle2":"","acDateSerment":"","coordinates":[3.2378685,43.3453045]},{"NomBarreau":"BEZIERS","avNom":"SALVAYRE","avPrenom":"Dorothée","cbRaisonSociale":"SALVAYRE","cbSiretSiren":"510219777","cbAdresse1":"385 Boulevard Robert Koch","cbAdresse2":"Immeuble Le Triangle","cbCp":"34500","cbVille":"BEZIERS","spLibelle1":"","spLibelle2":"","acDateSerment":"","coordinates":[3.255782,43.3631204]},{"NomBarreau":"BEZIERS","avNom":"SEILLIER","avPrenom":"Anne","cbRaisonSociale":"SEILLIER ANNE","cbSiretSiren":"849900188","cbAdresse1":"34 Avenue Auguste Albertini","cbAdresse2":"","cbCp":"34500","cbVille":"BEZIERS","spLibelle1":"","spLibelle2":"","acDateSerment":"","coordinates":[3.235394,43.348766]},{"NomBarreau":"BEZIERS","avNom":"SERRADO","avPrenom":"Isabelle","cbRaisonSociale":"SERRADO ISABELLE","cbSiretSiren":"384354361","cbAdresse1":"1 Rue Bernard D'AURIAC","cbAdresse2":"","cbCp":"34500","cbVille":"BEZIERS","spLibelle1":"","spLibelle2":"","acDateSerment":"","coordinates":[3.234397,43.347546]},{"NomBarreau":"BEZIERS","avNom":"SERRIER","avPrenom":"Delphine","cbRaisonSociale":"SERRIER DELPHINE","cbSiretSiren":"510978711","cbAdresse1":"54 Avenue Pierre Verdier","cbAdresse2":"Espace Domitia","cbCp":"34500","cbVille":"BEZIERS","spLibelle1":"","spLibelle2":"","acDateSerment":"","coordinates":[3.2378685,43.3453045]},{"NomBarreau":"BEZIERS","avNom":"SIAU","avPrenom":"Bruno","cbRaisonSociale":"SIAU BRUNO","cbSiretSiren":"403507544","cbAdresse1":"54-56 Avenue Pierre Verdier","cbAdresse2":"Espace Domitia","cbCp":"34500","cbVille":"BEZIERS","spLibelle1":"Droit de la sécurité sociale et de la protection sociale","spLibelle2":"Droit du travail","acDateSerment":"","coordinates":[3.2378685,43.3453045]},{"NomBarreau":"BEZIERS","avNom":"SLINKMAN","avPrenom":"Eva","cbRaisonSociale":"SLINKMAN EVA","cbSiretSiren":"922421961","cbAdresse1":"62 Avenue Jean Moulin","cbAdresse2":"Centre d'Affaire LE CARRE D'HORT","cbCp":"34500","cbVille":"BEZIERS","spLibelle1":"","spLibelle2":"","acDateSerment":"","coordinates":[3.232855,43.352696]},{"NomBarreau":"BEZIERS","avNom":"TALLON","avPrenom":"Samuel","cbRaisonSociale":"SAMUEL TALLON AVOCAT CONSEIL (S.T.A.C)","cbSiretSiren":"911800217","cbAdresse1":"32 Rue Malbosc","cbAdresse2":"","cbCp":"34500","cbVille":"BEZIERS","spLibelle1":"","spLibelle2":"","acDateSerment":"","coordinates":[3.2384943,43.3454762]},{"NomBarreau":"BEZIERS","avNom":"TERRAL","avPrenom":"Alain","cbRaisonSociale":"TERRAL ALAIN","cbSiretSiren":"428852792","cbAdresse1":"385 Boulevard Robert Koch","cbAdresse2":"Le Triangle - 2ème étage - B 122","cbCp":"34500","cbVille":"BEZIERS","spLibelle1":"","spLibelle2":"","acDateSerment":"","coordinates":[3.255782,43.3631204]},{"NomBarreau":"BEZIERS","avNom":"TESOKA","avPrenom":"Laurent","cbRaisonSociale":"TESOKA LAURENT","cbSiretSiren":"492221007","cbAdresse1":"7 Avenue Pierre Verdier","cbAdresse2":"","cbCp":"34500","cbVille":"BEZIERS","spLibelle1":"","spLibelle2":"","acDateSerment":"","coordinates":[3.2378685,43.3453045]},{"NomBarreau":"BEZIERS","avNom":"TOURRAL-SUAS","avPrenom":"Valérie","cbRaisonSociale":"TOURRAL-SUAS VALERIE","cbSiretSiren":"403900434","cbAdresse1":"54 Avenue Pierre Verdier","cbAdresse2":"","cbCp":"34500","cbVille":"BEZIERS","spLibelle1":"","spLibelle2":"","acDateSerment":"","coordinates":[3.2378685,43.3453045]},{"NomBarreau":"BEZIERS","avNom":"VALIENTE","avPrenom":"Lisa","cbRaisonSociale":"VALIENTE LISA","cbSiretSiren":"790853998","cbAdresse1":"6 Avenue Enseigne ALBERTINI","cbAdresse2":"","cbCp":"34500","cbVille":"BEZIERS","spLibelle1":"","spLibelle2":"","acDateSerment":"","coordinates":[3.22364,43.345524]},{"NomBarreau":"BEZIERS","avNom":"VANDROY","avPrenom":"Catherine","cbRaisonSociale":"VANDROY CATHERINE","cbSiretSiren":"327022752","cbAdresse1":"3 Rue Montmorency","cbAdresse2":"","cbCp":"34500","cbVille":"BEZIERS","spLibelle1":"Droit de la famille, des personnes et de leur patrimoine","spLibelle2":"","acDateSerment":"","coordinates":[3.214675,43.3424073]},{"NomBarreau":"BEZIERS","avNom":"VASSAIL","avPrenom":"Jean-Pierre","cbRaisonSociale":"VASSAIL","cbSiretSiren":"415191485","cbAdresse1":"62 Avenue Jean Moulin","cbAdresse2":"Le Carré d'Hort - Bat C","cbCp":"34500","cbVille":"BEZIERS","spLibelle1":"","spLibelle2":"","acDateSerment":"","coordinates":[3.232855,43.352696]},{"NomBarreau":"BEZIERS","avNom":"VERGNAUD","avPrenom":"Sandra","cbRaisonSociale":"VERGNAUD SANDRA","cbSiretSiren":"478352933","cbAdresse1":"66 Avenue Pierre Verdier","cbAdresse2":"","cbCp":"34500","cbVille":"BEZIERS","spLibelle1":"","spLibelle2":"","acDateSerment":"","coordinates":[3.2378685,43.3453045]},{"NomBarreau":"BEZIERS","avNom":"VERGNOLLE","avPrenom":"Caroline","cbRaisonSociale":"VERGNOLLE CAROLINE","cbSiretSiren":"808225007","cbAdresse1":"62 Avenue Jean Moulin","cbAdresse2":"Le Carré d'Hort","cbCp":"34500","cbVille":"BEZIERS","spLibelle1":"","spLibelle2":"","acDateSerment":"","coordinates":[3.232855,43.352696]},{"NomBarreau":"BEZIERS","avNom":"VERGNOLLE","avPrenom":"Vincent","cbRaisonSociale":"AVOCARREDHORT","cbSiretSiren":"411020217","cbAdresse1":"62 Avenue Jean Moulin","cbAdresse2":"Centre d'Affaire LE CARRE D'HORT","cbCp":"34500","cbVille":"BEZIERS","spLibelle1":"Droit de la famille, des personnes et de leur patrimoine","spLibelle2":"Droit du crédit et de la consommation","acDateSerment":"","coordinates":[3.232855,43.352696]},{"NomBarreau":"BEZIERS","avNom":"VIAL-BONDON","avPrenom":"Dominique","cbRaisonSociale":"VIAL-BONDON DOMINIQUE","cbSiretSiren":"342335866","cbAdresse1":"58-60 Avenue de la Tanne","cbAdresse2":"L'ATRIUM","cbCp":"34500","cbVille":"BEZIERS","spLibelle1":"","spLibelle2":"","acDateSerment":"","coordinates":[3.2380854,43.3344067]},{"NomBarreau":"BEZIERS","avNom":"VISTE","avPrenom":"Pierre-Emmanuel","cbRaisonSociale":"AURAN-VISTE & ASSOCIES","cbSiretSiren":"480160555","cbAdresse1":"13 Rue Viennet","cbAdresse2":"","cbCp":"34500","cbVille":"BEZIERS","spLibelle1":"","spLibelle2":"","acDateSerment":"","coordinates":[3.2123682,43.3421773]},{"NomBarreau":"BEZIERS","avNom":"VISTE-BELLIN","avPrenom":"Anne-Sophie","cbRaisonSociale":"AURAN-VISTE & ASSOCIES","cbSiretSiren":"480160555","cbAdresse1":"13 Rue Viennet","cbAdresse2":"","cbCp":"34500","cbVille":"BEZIERS","spLibelle1":"","spLibelle2":"","acDateSerment":"","coordinates":[3.2123682,43.3421773]},{"NomBarreau":"BEZIERS","avNom":"WOLTERS-CRISTOFOLI","avPrenom":"Karola","cbRaisonSociale":"WOLTERS-CRISTOFOLI KAROLA","cbSiretSiren":"395376064","cbAdresse1":"17 Rue Viennet","cbAdresse2":"","cbCp":"34500","cbVille":"BEZIERS","spLibelle1":"","spLibelle2":"","acDateSerment":"","coordinates":[3.2123682,43.3421773]}]