[{"NomBarreau":"HAUTS-DE-SEINE","avNom":"ALBRAND","avPrenom":"Sandrine","cbRaisonSociale":"ALBRAND SANDRINE","cbSiretSiren":"432633733","cbAdresse1":"1 rue Carnot","cbAdresse2":"","cbCp":"92100","cbVille":"BOULOGNE BILLANCOURT","spLibelle1":"","spLibelle2":"","acDateSerment":"","coordinates":[2.2426512,48.8346729]},{"NomBarreau":"HAUTS-DE-SEINE","avNom":"ANNE","avPrenom":"Sarah","cbRaisonSociale":"ANNE SARAH","cbSiretSiren":"540056173","cbAdresse1":"69 rue du Point du Jour","cbAdresse2":"","cbCp":"92100","cbVille":"BOULOGNE BILLANCOURT","spLibelle1":"","spLibelle2":"","acDateSerment":"","coordinates":[2.253677,48.832245]},{"NomBarreau":"HAUTS-DE-SEINE","avNom":"ARAKELIAN","avPrenom":"Fabien","cbRaisonSociale":"ARAKELIAN-MARTINI","cbSiretSiren":"518961743","cbAdresse1":"14 bis rue Escudier","cbAdresse2":"","cbCp":"92100","cbVille":"BOULOGNE BILLANCOURT","spLibelle1":"","spLibelle2":"","acDateSerment":"","coordinates":[2.2343217,48.8432538]},{"NomBarreau":"HAUTS-DE-SEINE","avNom":"ASTIER","avPrenom":"Baptiste","cbRaisonSociale":"ASTIER BAPTISTE","cbSiretSiren":"845121839","cbAdresse1":"63 ter avenue Edouard Vaillant","cbAdresse2":"","cbCp":"92100","cbVille":"BOULOGNE BILLANCOURT","spLibelle1":"","spLibelle2":"","acDateSerment":"","coordinates":[2.248708,48.835059]},{"NomBarreau":"HAUTS-DE-SEINE","avNom":"AYADI","avPrenom":"Mani","cbRaisonSociale":"AYADI MANI","cbSiretSiren":"790074660","cbAdresse1":"1, rue Carnot","cbAdresse2":"","cbCp":"92100","cbVille":"BOULOGNE BILLANCOURT","spLibelle1":"","spLibelle2":"","acDateSerment":"","coordinates":[2.2426512,48.8346729]},{"NomBarreau":"HAUTS-DE-SEINE","avNom":"BARTOLI","avPrenom":"David","cbRaisonSociale":"BARTOLI DAVID","cbSiretSiren":"819865890","cbAdresse1":"108 avenue Victor Hugo","cbAdresse2":"","cbCp":"92100","cbVille":"BOULOGNE BILLANCOURT","spLibelle1":"","spLibelle2":"","acDateSerment":"","coordinates":[2.2442898,48.8352616]},{"NomBarreau":"HAUTS-DE-SEINE","avNom":"BERNARD","avPrenom":"Daniel","cbRaisonSociale":"BERNARD DANIEL","cbSiretSiren":"401517248","cbAdresse1":"27, rue du Pavillon","cbAdresse2":"","cbCp":"92100","cbVille":"BOULOGNE BILLANCOURT","spLibelle1":"Droit fiscal et droit douanier","spLibelle2":"","acDateSerment":"","coordinates":[2.2485487,48.8407916]},{"NomBarreau":"HAUTS-DE-SEINE","avNom":"BERRY","avPrenom":"Hugues","cbRaisonSociale":"BERRY HUGUES","cbSiretSiren":"391513249","cbAdresse1":"40, rue du point du jour","cbAdresse2":"","cbCp":"92100","cbVille":"BOULOGNE BILLANCOURT","spLibelle1":"","spLibelle2":"","acDateSerment":"","coordinates":[2.255623,48.833771]},{"NomBarreau":"HAUTS-DE-SEINE","avNom":"BETTAN","avPrenom":"Armand-Ari","cbRaisonSociale":"BETTAN ARMAND-ARI","cbSiretSiren":"442784526","cbAdresse1":"60 rue du Chemin Vert","cbAdresse2":"","cbCp":"92100","cbVille":"BOULOGNE BILLANCOURT","spLibelle1":"","spLibelle2":"","acDateSerment":"","coordinates":[2.249777,48.836048]},{"NomBarreau":"HAUTS-DE-SEINE","avNom":"BLOCH","avPrenom":"Alexia","cbRaisonSociale":"CABINET BLOCH","cbSiretSiren":"750313207","cbAdresse1":"78 avenue Victor Hugo","cbAdresse2":"","cbCp":"92100","cbVille":"BOULOGNE BILLANCOURT","spLibelle1":"","spLibelle2":"","acDateSerment":"","coordinates":[2.2457118,48.8375305]},{"NomBarreau":"HAUTS-DE-SEINE","avNom":"BOUDRICHE","avPrenom":"Lydia","cbRaisonSociale":"BL AVOCATS","cbSiretSiren":"","cbAdresse1":"50 route de la Reine","cbAdresse2":"","cbCp":"92100","cbVille":"BOULOGNE BILLANCOURT","spLibelle1":"","spLibelle2":"","acDateSerment":"","coordinates":[2.2400146,48.83966]},{"NomBarreau":"HAUTS-DE-SEINE","avNom":"BOUSALLAMI","avPrenom":"Ahmed","cbRaisonSociale":"BOUSALLAMI AHMED","cbSiretSiren":"913309449","cbAdresse1":"50 route de la Reine","cbAdresse2":"","cbCp":"92100","cbVille":"BOULOGNE BILLANCOURT","spLibelle1":"","spLibelle2":"","acDateSerment":"","coordinates":[2.2400146,48.83966]},{"NomBarreau":"HAUTS-DE-SEINE","avNom":"CAMPILLA","avPrenom":"Aubin","cbRaisonSociale":"CAMPILLA AUBIN","cbSiretSiren":"","cbAdresse1":"1 rue carnot","cbAdresse2":"","cbCp":"92100","cbVille":"BOULOGNE BILLANCOURT","spLibelle1":"","spLibelle2":"","acDateSerment":"","coordinates":[2.2426512,48.8346729]},{"NomBarreau":"HAUTS-DE-SEINE","avNom":"CHAMBELLAN","avPrenom":"Anne","cbRaisonSociale":"CHAMBELLAN ANNE","cbSiretSiren":"384813531","cbAdresse1":"74 route de la Reine","cbAdresse2":"","cbCp":"92100","cbVille":"BOULOGNE BILLANCOURT","spLibelle1":"","spLibelle2":"","acDateSerment":"","coordinates":[2.2410477,48.8397504]},{"NomBarreau":"HAUTS-DE-SEINE","avNom":"CHARPENTIER-STOLOFF","avPrenom":"Olivier","cbRaisonSociale":"CHEMOULI DALIN STOLOFF BOINET & ASSOCIES","cbSiretSiren":"538736497","cbAdresse1":"63 ter Avenue Edouard Vaillant","cbAdresse2":"","cbCp":"92100","cbVille":"BOULOGNE BILLANCOURT","spLibelle1":"Droit fiscal et droit douanier","spLibelle2":"","acDateSerment":"","coordinates":[2.248708,48.835059]},{"NomBarreau":"HAUTS-DE-SEINE","avNom":"DRACH","avPrenom":"Fréderic","cbRaisonSociale":"DRACH FREDERIC","cbSiretSiren":"531518207","cbAdresse1":"78 avenue Victor Hugo","cbAdresse2":"","cbCp":"92100","cbVille":"BOULOGNE BILLANCOURT","spLibelle1":"","spLibelle2":"","acDateSerment":"","coordinates":[2.2457118,48.8375305]},{"NomBarreau":"HAUTS-DE-SEINE","avNom":"DUBLINEAU","avPrenom":"Stanislas","cbRaisonSociale":"CHEMOULI DALIN STOLOFF BOINET & ASSOCIES","cbSiretSiren":"538736497","cbAdresse1":"63 ter Avenue Edouard Vaillant","cbAdresse2":"","cbCp":"92100","cbVille":"BOULOGNE BILLANCOURT","spLibelle1":"","spLibelle2":"","acDateSerment":"","coordinates":[2.248708,48.835059]},{"NomBarreau":"HAUTS-DE-SEINE","avNom":"DUMESNIL-CAMUS","avPrenom":"Marie","cbRaisonSociale":"DUMESNIL-CAMUS MARIE","cbSiretSiren":"350557393","cbAdresse1":"11, rue Denfert-Rochereau","cbAdresse2":"","cbCp":"92100","cbVille":"BOULOGNE BILLANCOURT","spLibelle1":"","spLibelle2":"","acDateSerment":"","coordinates":[2.2443049,48.8459952]},{"NomBarreau":"HAUTS-DE-SEINE","avNom":"DUMET-BOISSIN","avPrenom":"Christine","cbRaisonSociale":"DUMET-BOISSIN & ASSOCIES","cbSiretSiren":"802295998","cbAdresse1":"69 rue du Point du Jour","cbAdresse2":"","cbCp":"92100","cbVille":"BOULOGNE BILLANCOURT","spLibelle1":"","spLibelle2":"","acDateSerment":"","coordinates":[2.253677,48.832245]},{"NomBarreau":"HAUTS-DE-SEINE","avNom":"FERNANDES","avPrenom":"Isabel","cbRaisonSociale":"FERNANDES ISABEL","cbSiretSiren":"817665748","cbAdresse1":"12 rue Emile Landrin","cbAdresse2":"","cbCp":"92100","cbVille":"BOULOGNE BILLANCOURT","spLibelle1":"","spLibelle2":"","acDateSerment":"","coordinates":[2.246743,48.835297]},{"NomBarreau":"HAUTS-DE-SEINE","avNom":"FLORET","avPrenom":"Ludivine","cbRaisonSociale":"FLORET LUDIVINE","cbSiretSiren":"528899305","cbAdresse1":"12 rue Emile Landrin","cbAdresse2":"","cbCp":"92100","cbVille":"BOULOGNE BILLANCOURT","spLibelle1":"","spLibelle2":"","acDateSerment":"","coordinates":[2.246743,48.835297]},{"NomBarreau":"HAUTS-DE-SEINE","avNom":"FORGET","avPrenom":"Louise","cbRaisonSociale":"IN EXTENSO SOCFI","cbSiretSiren":"","cbAdresse1":"63 ter avenue Edouard Vaillant","cbAdresse2":"","cbCp":"92100","cbVille":"BOULOGNE BILLANCOURT","spLibelle1":"","spLibelle2":"","acDateSerment":"","coordinates":[2.248708,48.835059]},{"NomBarreau":"HAUTS-DE-SEINE","avNom":"FRATACCI","avPrenom":"Delphine","cbRaisonSociale":"FRATACCI DELPHINE","cbSiretSiren":"400497715","cbAdresse1":"32-34 rue des Peupliers","cbAdresse2":"","cbCp":"92100","cbVille":"BOULOGNE BILLANCOURT","spLibelle1":"","spLibelle2":"","acDateSerment":"","coordinates":[2.255414,48.8334719]},{"NomBarreau":"HAUTS-DE-SEINE","avNom":"GOMES","avPrenom":"Florence","cbRaisonSociale":"G.B AVOCATS","cbSiretSiren":"798114526","cbAdresse1":"32 bis rue Emile Landrin","cbAdresse2":"","cbCp":"92100","cbVille":"BOULOGNE BILLANCOURT","spLibelle1":"","spLibelle2":"","acDateSerment":"","coordinates":[2.246434,48.836352]},{"NomBarreau":"HAUTS-DE-SEINE","avNom":"GOURDET","avPrenom":"Marion","cbRaisonSociale":"GOURDET MARION","cbSiretSiren":"891793960","cbAdresse1":"14 bis rue Escudier","cbAdresse2":"","cbCp":"92100","cbVille":"BOULOGNE BILLANCOURT","spLibelle1":"","spLibelle2":"","acDateSerment":"","coordinates":[2.2343217,48.8432538]},{"NomBarreau":"HAUTS-DE-SEINE","avNom":"JOUHANNY","avPrenom":"Ludivine","cbRaisonSociale":"JLAVOCAT","cbSiretSiren":"850190869","cbAdresse1":"121 rue d'Aguesseau","cbAdresse2":"","cbCp":"92100","cbVille":"BOULOGNE BILLANCOURT","spLibelle1":"","spLibelle2":"","acDateSerment":"","coordinates":[2.2379094,48.8380666]},{"NomBarreau":"HAUTS-DE-SEINE","avNom":"KARPISEK-BETTAN","avPrenom":"Dominique","cbRaisonSociale":"KARPISEK-BETTAN DOMINIQUE","cbSiretSiren":"422799981","cbAdresse1":"60 rue du Chemin Vert","cbAdresse2":"","cbCp":"92100","cbVille":"BOULOGNE BILLANCOURT","spLibelle1":"","spLibelle2":"","acDateSerment":"","coordinates":[2.249777,48.836048]},{"NomBarreau":"HAUTS-DE-SEINE","avNom":"KOUCH-AMSALLEM","avPrenom":"Stéphanie","cbRaisonSociale":"KOUCH-AMSALLEM","cbSiretSiren":"","cbAdresse1":"25 rue Vauthier","cbAdresse2":"","cbCp":"92100","cbVille":"BOULOGNE BILLANCOURT","spLibelle1":"","spLibelle2":"","acDateSerment":"","coordinates":[2.2417932,48.8453695]},{"NomBarreau":"HAUTS-DE-SEINE","avNom":"KOWALIK","avPrenom":"Roman","cbRaisonSociale":"CHEMOULI DALIN STOLOFF BOINET & ASSOCIES","cbSiretSiren":"538736497","cbAdresse1":"63 ter Avenue Edouard Vaillant","cbAdresse2":"","cbCp":"92100","cbVille":"BOULOGNE BILLANCOURT","spLibelle1":"","spLibelle2":"","acDateSerment":"","coordinates":[2.248708,48.835059]},{"NomBarreau":"HAUTS-DE-SEINE","avNom":"LANDRY","avPrenom":"Sophie","cbRaisonSociale":"LANDRY SOPHIE","cbSiretSiren":"","cbAdresse1":"63 ter avenue Edouard Vaillant","cbAdresse2":"","cbCp":"92100","cbVille":"BOULOGNE BILLANCOURT","spLibelle1":"","spLibelle2":"","acDateSerment":"","coordinates":[2.248708,48.835059]},{"NomBarreau":"HAUTS-DE-SEINE","avNom":"LECLERC DE HAUTECLOCQUE","avPrenom":"Marie-Thérèse","cbRaisonSociale":"LHP AVOCATS","cbSiretSiren":"818129322","cbAdresse1":"52 rue d'Aguesseau","cbAdresse2":"","cbCp":"92774","cbVille":"BOULOGNE BILLANCOURT","spLibelle1":"Droit du travail","spLibelle2":"","acDateSerment":"","coordinates":[2.2376779,48.8385999]},{"NomBarreau":"HAUTS-DE-SEINE","avNom":"LEPINARD","avPrenom":"Anne-Sophie","cbRaisonSociale":"LEPINARD ANNE-SOPHIE","cbSiretSiren":"520385931","cbAdresse1":"36 rue de Silly","cbAdresse2":"","cbCp":"92100","cbVille":"BOULOGNE BILLANCOURT","spLibelle1":"","spLibelle2":"","acDateSerment":"","coordinates":[2.2319448,48.8387414]},{"NomBarreau":"HAUTS-DE-SEINE","avNom":"LUNEAU","avPrenom":"Benoit","cbRaisonSociale":"LUNEAU BENOUŽT","cbSiretSiren":"848029559","cbAdresse1":"1, rue Carnot","cbAdresse2":"","cbCp":"92100","cbVille":"BOULOGNE BILLANCOURT","spLibelle1":"","spLibelle2":"","acDateSerment":"","coordinates":[2.2426512,48.8346729]},{"NomBarreau":"HAUTS-DE-SEINE","avNom":"MARTINI","avPrenom":"Camille","cbRaisonSociale":"ARAKELIAN-MARTINI","cbSiretSiren":"518961743","cbAdresse1":"14 bis rue Escudier","cbAdresse2":"","cbCp":"92100","cbVille":"BOULOGNE BILLANCOURT","spLibelle1":"","spLibelle2":"","acDateSerment":"","coordinates":[2.2343217,48.8432538]},{"NomBarreau":"HAUTS-DE-SEINE","avNom":"MARY-RAVAULT","avPrenom":"Sandra","cbRaisonSociale":"DUMET-BOISSIN & ASSOCIES","cbSiretSiren":"802295998","cbAdresse1":"69 rue du Point du Jour","cbAdresse2":"","cbCp":"92100","cbVille":"BOULOGNE BILLANCOURT","spLibelle1":"","spLibelle2":"","acDateSerment":"","coordinates":[2.253677,48.832245]},{"NomBarreau":"HAUTS-DE-SEINE","avNom":"MORIN","avPrenom":"Christelle","cbRaisonSociale":"MORIN CHRISTELLE","cbSiretSiren":"423000322","cbAdresse1":"1, rue Carnot","cbAdresse2":"","cbCp":"92100","cbVille":"BOULOGNE BILLANCOURT","spLibelle1":"","spLibelle2":"","acDateSerment":"","coordinates":[2.2426512,48.8346729]},{"NomBarreau":"HAUTS-DE-SEINE","avNom":"MULLER","avPrenom":"Emilie","cbRaisonSociale":"MULLER EMILIE","cbSiretSiren":"845245349","cbAdresse1":"14 bis rue Escudier","cbAdresse2":"","cbCp":"92100","cbVille":"BOULOGNE BILLANCOURT","spLibelle1":"","spLibelle2":"","acDateSerment":"","coordinates":[2.2343217,48.8432538]},{"NomBarreau":"HAUTS-DE-SEINE","avNom":"NOREILS","avPrenom":"Laurent","cbRaisonSociale":"NOREILS LAURENT","cbSiretSiren":"438891673","cbAdresse1":"81, route de la reine","cbAdresse2":"","cbCp":"92100","cbVille":"BOULOGNE BILLANCOURT","spLibelle1":"","spLibelle2":"","acDateSerment":"","coordinates":[2.239217,48.8395431]},{"NomBarreau":"HAUTS-DE-SEINE","avNom":"PAGNY CLAIRACQ","avPrenom":"Céline","cbRaisonSociale":"PAGNY CLAIRACQ CELINE","cbSiretSiren":"417518511","cbAdresse1":"63 ter Avenue Edouard Vaillant","cbAdresse2":"","cbCp":"92100","cbVille":"BOULOGNE BILLANCOURT","spLibelle1":"","spLibelle2":"","acDateSerment":"","coordinates":[2.248708,48.835059]},{"NomBarreau":"HAUTS-DE-SEINE","avNom":"RAYNAUD","avPrenom":"Valérie","cbRaisonSociale":"RAYNAUD VALERIE","cbSiretSiren":"402540306","cbAdresse1":"48 rue de Paris","cbAdresse2":"","cbCp":"92100","cbVille":"BOULOGNE BILLANCOURT","spLibelle1":"Droit de la sécurité sociale et de la protection sociale","spLibelle2":"Droit du travail","acDateSerment":"","coordinates":[2.2453735,48.8400779]},{"NomBarreau":"HAUTS-DE-SEINE","avNom":"RIGAL MEYER","avPrenom":"Christelle","cbRaisonSociale":"RIGAL MEYER CHRISTELLE","cbSiretSiren":"452609522","cbAdresse1":"36 rue de l'ancienne Mairie","cbAdresse2":"","cbCp":"92100","cbVille":"BOULOGNE BILLANCOURT","spLibelle1":"","spLibelle2":"","acDateSerment":"","coordinates":[2.2339789,48.8387806]},{"NomBarreau":"HAUTS-DE-SEINE","avNom":"SANSON","avPrenom":"Christophe","cbRaisonSociale":"AVOCAT BRUIT","cbSiretSiren":"901867424","cbAdresse1":"50 avenue Pierre GRENIER","cbAdresse2":"","cbCp":"92100","cbVille":"BOULOGNE BILLANCOURT","spLibelle1":"","spLibelle2":"","acDateSerment":"","coordinates":[2.253372,48.832306]},{"NomBarreau":"HAUTS-DE-SEINE","avNom":"SARZAUD","avPrenom":"Sophie","cbRaisonSociale":"SARZAUD AVOCAT","cbSiretSiren":"847826112","cbAdresse1":"50 route de la Reine","cbAdresse2":"","cbCp":"92100","cbVille":"BOULOGNE BILLANCOURT","spLibelle1":"","spLibelle2":"","acDateSerment":"","coordinates":[2.2400146,48.83966]},{"NomBarreau":"HAUTS-DE-SEINE","avNom":"THIRY","avPrenom":"Violette","cbRaisonSociale":"THIRY VIOLETTE","cbSiretSiren":"880823042","cbAdresse1":"63 ter avenue Edouard Vaillant","cbAdresse2":"","cbCp":"92100","cbVille":"BOULOGNE BILLANCOURT","spLibelle1":"","spLibelle2":"","acDateSerment":"","coordinates":[2.248708,48.835059]},{"NomBarreau":"HAUTS-DE-SEINE","avNom":"TROUSSET","avPrenom":"Hugues Marie","cbRaisonSociale":"TROUSSET HUGUES MARIE","cbSiretSiren":"324324250","cbAdresse1":"52 rue d'Aguesseau","cbAdresse2":"CS 30199","cbCp":"92774","cbVille":"BOULOGNE BILLANCOURT","spLibelle1":"","spLibelle2":"","acDateSerment":"","coordinates":[2.2376779,48.8385999]},{"NomBarreau":"HAUTS-DE-SEINE","avNom":"VANNIER","avPrenom":"Sylvie","cbRaisonSociale":"VANNIER BOUVET AVOCATS","cbSiretSiren":"843046376","cbAdresse1":"12 rue Emile Landrin","cbAdresse2":"","cbCp":"92100","cbVille":"BOULOGNE BILLANCOURT","spLibelle1":"Droit des sociétés","spLibelle2":"Droit immobilier","acDateSerment":"","coordinates":[2.246743,48.835297]},{"NomBarreau":"HAUTS-DE-SEINE","avNom":"VANNIER-BOUVET","avPrenom":"Alice","cbRaisonSociale":"VANNIER BOUVET AVOCATS","cbSiretSiren":"843046376","cbAdresse1":"12 rue Emile Landrin","cbAdresse2":"","cbCp":"92100","cbVille":"BOULOGNE BILLANCOURT","spLibelle1":"","spLibelle2":"","acDateSerment":"","coordinates":[2.246743,48.835297]}]