[{"NomBarreau":"AIN","avNom":"AMADO DE FRIAS CORREIA","avPrenom":"Odette","cbRaisonSociale":"AMADO DE FRIAS CORREIA ODETTE","cbSiretSiren":"529889990","cbAdresse1":"17 Place Bernard","cbAdresse2":"","cbCp":"1000","cbVille":"BOURG EN BRESSE","spLibelle1":"","spLibelle2":"","acDateSerment":"","coordinates":[5.2283385,46.206897]},{"NomBarreau":"AIN","avNom":"AUDINEAU","avPrenom":"Marie","cbRaisonSociale":"AUDINEAU MARIE","cbSiretSiren":"451966246","cbAdresse1":"4 rue des Casernes","cbAdresse2":"","cbCp":"1000","cbVille":"BOURG EN BRESSE","spLibelle1":"","spLibelle2":"","acDateSerment":"","coordinates":[5.2226862,46.2048438]},{"NomBarreau":"AIN","avNom":"BARRE","avPrenom":"Marie-Anne","cbRaisonSociale":"BARRE MARIE-ANNE","cbSiretSiren":"790305288","cbAdresse1":"24 rue de Montholon","cbAdresse2":"Espace Montholon - Batiment A - Local 33","cbCp":"1000","cbVille":"BOURG EN BRESSE","spLibelle1":"","spLibelle2":"","acDateSerment":"","coordinates":[5.210443,46.198981]},{"NomBarreau":"AIN","avNom":"BENNETEAU DESGROIS","avPrenom":"Laurence","cbRaisonSociale":"BENNETEAU-DESGROIS","cbSiretSiren":"950411488","cbAdresse1":"2 Place Pierre Goujon","cbAdresse2":"","cbCp":"1000","cbVille":"BOURG EN BRESSE","spLibelle1":"","spLibelle2":"","acDateSerment":"","coordinates":[5.2214255,46.2031834]},{"NomBarreau":"AIN","avNom":"BERENGER","avPrenom":"Dalila","cbRaisonSociale":"DALILA BERENGER","cbSiretSiren":"448724104","cbAdresse1":"37 Avenue Alsace Lorraine","cbAdresse2":"","cbCp":"1000","cbVille":"BOURG EN BRESSE","spLibelle1":"Droit de la famille, des personnes et de leur patrimoine","spLibelle2":"","acDateSerment":"","coordinates":[5.2228947,46.2032633]},{"NomBarreau":"AIN","avNom":"BERNARDIN","avPrenom":"Jean Marc","cbRaisonSociale":"BERNARDIN JEAN MARC","cbSiretSiren":"415073105","cbAdresse1":"4 Rue Gambetta","cbAdresse2":"","cbCp":"1002","cbVille":"BOURG EN BRESSE","spLibelle1":"","spLibelle2":"","acDateSerment":"","coordinates":[5.2260242,46.2047624]},{"NomBarreau":"AIN","avNom":"BERNASCONI","avPrenom":"Jacques","cbRaisonSociale":"BERNASCONI-ROZET-MONNET SUETY-FOREST","cbSiretSiren":"429081540","cbAdresse1":"9 avenue Alsace Lorraine","cbAdresse2":"","cbCp":"1000","cbVille":"BOURG EN BRESSE","spLibelle1":"","spLibelle2":"","acDateSerment":"","coordinates":[5.2248818,46.2044577]},{"NomBarreau":"AIN","avNom":"BOGUE","avPrenom":"Jean François","cbRaisonSociale":"BLANC LARMARAUD BOGUE GOSSWEILER","cbSiretSiren":"423832146","cbAdresse1":"4 Rue Bourgmayer","cbAdresse2":"","cbCp":"1000","cbVille":"BOURG EN BRESSE","spLibelle1":"","spLibelle2":"","acDateSerment":"","coordinates":[5.2235034,46.2047579]},{"NomBarreau":"AIN","avNom":"CALLE","avPrenom":"Manon","cbRaisonSociale":"CALLE MANON","cbSiretSiren":"892243502","cbAdresse1":"3 Avenue Jean-Marie Verne","cbAdresse2":"","cbCp":"1000","cbVille":"BOURG EN BRESSE","spLibelle1":"","spLibelle2":"","acDateSerment":"","coordinates":[5.225995,46.199046]},{"NomBarreau":"AIN","avNom":"CAMACHO","avPrenom":"Christophe","cbRaisonSociale":"SERFATY VENUTTI CAMACHO & CORDIER","cbSiretSiren":"434557963","cbAdresse1":"2 rue Clavagry","cbAdresse2":"","cbCp":"1000","cbVille":"BOURG EN BRESSE","spLibelle1":"","spLibelle2":"","acDateSerment":"","coordinates":[5.2244385,46.2039225]},{"NomBarreau":"AIN","avNom":"CARNEIRO","avPrenom":"Julie","cbRaisonSociale":"CARNEIRO JULIE","cbSiretSiren":"824356869","cbAdresse1":"26 Avenue Alsace Lorraine","cbAdresse2":"","cbCp":"1000","cbVille":"BOURG EN BRESSE","spLibelle1":"","spLibelle2":"","acDateSerment":"","coordinates":[5.2215097,46.2025792]},{"NomBarreau":"AIN","avNom":"CLEON","avPrenom":"Camille","cbRaisonSociale":"CLEON CAMILLE","cbSiretSiren":"879513141","cbAdresse1":"37 Avenue Alsace Lorraine","cbAdresse2":"","cbCp":"1000","cbVille":"BOURG EN BRESSE","spLibelle1":"","spLibelle2":"","acDateSerment":"","coordinates":[5.2228947,46.2032633]},{"NomBarreau":"AIN","avNom":"CONTENT","avPrenom":"Benoit","cbRaisonSociale":"BENOIT CONTENT","cbSiretSiren":"451825640","cbAdresse1":"13 Avenue Alsace Lorraine","cbAdresse2":"","cbCp":"1000","cbVille":"BOURG EN BRESSE","spLibelle1":"","spLibelle2":"","acDateSerment":"","coordinates":[5.2245885,46.2042886]},{"NomBarreau":"AIN","avNom":"CORDIER","avPrenom":"Laurent","cbRaisonSociale":"SERFATY VENUTTI CAMACHO & CORDIER","cbSiretSiren":"434557963","cbAdresse1":"2 rue Clavagry","cbAdresse2":"","cbCp":"1000","cbVille":"BOURG EN BRESSE","spLibelle1":"","spLibelle2":"","acDateSerment":"","coordinates":[5.2244385,46.2039225]},{"NomBarreau":"AIN","avNom":"DASSONVILLE","avPrenom":"Patricia","cbRaisonSociale":"L.ROBERT ET ASSOCIES","cbSiretSiren":"538382011","cbAdresse1":"6 Rue Lalande","cbAdresse2":"","cbCp":"1004","cbVille":"BOURG EN BRESSE","spLibelle1":"","spLibelle2":"","acDateSerment":"","coordinates":[5.2232567,46.2043694]},{"NomBarreau":"AIN","avNom":"DAUBIGNEY","avPrenom":"Léa","cbRaisonSociale":"DAUBIGNEY LEA","cbSiretSiren":"799792858","cbAdresse1":"17 Avenue Pierre Semard","cbAdresse2":"","cbCp":"1000","cbVille":"BOURG EN BRESSE","spLibelle1":"","spLibelle2":"","acDateSerment":"","coordinates":[5.2160971,46.1986071]},{"NomBarreau":"AIN","avNom":"DE BOYSSON","avPrenom":"Benoit","cbRaisonSociale":"CABINET BENOIT DE BOYSSON","cbSiretSiren":"790382139","cbAdresse1":"4 RUE BOURGMAYER","cbAdresse2":"","cbCp":"1000","cbVille":"BOURG EN BRESSE","spLibelle1":"","spLibelle2":"","acDateSerment":"","coordinates":[5.2235034,46.2047579]},{"NomBarreau":"AIN","avNom":"DUPONT GUERINOT","avPrenom":"Claire","cbRaisonSociale":"CELEV CONSEIL AVOCATS ASSOCIES","cbSiretSiren":"811723600","cbAdresse1":"3 Avenue Jean-Marie Verne","cbAdresse2":"Résidence Les Amandines","cbCp":"1000","cbVille":"BOURG EN BRESSE","spLibelle1":"","spLibelle2":"","acDateSerment":"","coordinates":[5.225995,46.199046]},{"NomBarreau":"AIN","avNom":"ENU","avPrenom":"Virginie","cbRaisonSociale":"ENU VIRGINIE","cbSiretSiren":"844003590","cbAdresse1":"4 Rue des Casernes","cbAdresse2":"","cbCp":"1000","cbVille":"BOURG EN BRESSE","spLibelle1":"","spLibelle2":"","acDateSerment":"","coordinates":[5.2226862,46.2048438]},{"NomBarreau":"AIN","avNom":"FOREST","avPrenom":"Pascal","cbRaisonSociale":"BERNASCONI-ROZET-MONNET SUETY-FOREST","cbSiretSiren":"429081540","cbAdresse1":"9 avenue Alsace Lorraine","cbAdresse2":"","cbCp":"1000","cbVille":"BOURG EN BRESSE","spLibelle1":"","spLibelle2":"","acDateSerment":"","coordinates":[5.2248818,46.2044577]},{"NomBarreau":"AIN","avNom":"GARCIA","avPrenom":"Stéphanie","cbRaisonSociale":"GARCIA STEPHANIE","cbSiretSiren":"441875259","cbAdresse1":"27 avenue Alsace Lorraine","cbAdresse2":"","cbCp":"1000","cbVille":"BOURG EN BRESSE","spLibelle1":"","spLibelle2":"","acDateSerment":"","coordinates":[5.2234398,46.2036215]},{"NomBarreau":"AIN","avNom":"GENAUDY","avPrenom":"Bertrand","cbRaisonSociale":"GENAUDY BERTRAND","cbSiretSiren":"430007799","cbAdresse1":"29 Avenue Alsace Lorraine","cbAdresse2":"","cbCp":"1000","cbVille":"BOURG EN BRESSE","spLibelle1":"","spLibelle2":"","acDateSerment":"","coordinates":[5.2232588,46.2034324]},{"NomBarreau":"AIN","avNom":"GIRAUD","avPrenom":"Véronique","cbRaisonSociale":"GIRAUD VERONIQUE","cbSiretSiren":"448402172","cbAdresse1":"26 avenue Alsace Lorraine","cbAdresse2":"","cbCp":"1000","cbVille":"BOURG EN BRESSE","spLibelle1":"","spLibelle2":"","acDateSerment":"","coordinates":[5.2215097,46.2025792]},{"NomBarreau":"AIN","avNom":"GOSSWEILER","avPrenom":"Guillaume","cbRaisonSociale":"BLANC LARMARAUD BOGUE GOSSWEILER","cbSiretSiren":"423832146","cbAdresse1":"4 Rue Bourgmayer","cbAdresse2":"","cbCp":"1000","cbVille":"BOURG EN BRESSE","spLibelle1":"","spLibelle2":"","acDateSerment":"","coordinates":[5.2235034,46.2047579]},{"NomBarreau":"AIN","avNom":"GUINET","avPrenom":"Thibault","cbRaisonSociale":"SOCIETE D'AVOCATS VICARI LE GOFF GUINET","cbSiretSiren":"798772190","cbAdresse1":"14 rue des Casernes","cbAdresse2":"","cbCp":"1000","cbVille":"BOURG EN BRESSE","spLibelle1":"","spLibelle2":"","acDateSerment":"","coordinates":[5.2209382,46.2048026]},{"NomBarreau":"AIN","avNom":"LE GOFF","avPrenom":"Delphine","cbRaisonSociale":"SOCIETE D'AVOCATS VICARI LE GOFF GUINET","cbSiretSiren":"798772190","cbAdresse1":"14 rue des Casernes","cbAdresse2":"","cbCp":"1000","cbVille":"BOURG EN BRESSE","spLibelle1":"","spLibelle2":"","acDateSerment":"","coordinates":[5.2209382,46.2048026]},{"NomBarreau":"AIN","avNom":"LLOBET","avPrenom":"Nelly","cbRaisonSociale":"NEOLEXIS","cbSiretSiren":"834083727","cbAdresse1":"24 Rue de Montholon","cbAdresse2":"Bat.A - 1er étage","cbCp":"1000","cbVille":"BOURG EN BRESSE","spLibelle1":"","spLibelle2":"","acDateSerment":"","coordinates":[5.210443,46.198981]},{"NomBarreau":"AIN","avNom":"MASSONNET","avPrenom":"Marjorie","cbRaisonSociale":"MASSONNET MARJORIE","cbSiretSiren":"800014060","cbAdresse1":"9 Avenue Alphonse Muscat","cbAdresse2":"","cbCp":"1000","cbVille":"BOURG EN BRESSE","spLibelle1":"","spLibelle2":"","acDateSerment":"","coordinates":[5.2196345,46.2027793]},{"NomBarreau":"AIN","avNom":"METIFIOT-FAVOULET","avPrenom":"Philippe","cbRaisonSociale":"METIFIOT-FAVOULET PHILIPPE","cbSiretSiren":"805222445","cbAdresse1":"4 Rue Gambetta","cbAdresse2":"","cbCp":"1000","cbVille":"BOURG EN BRESSE","spLibelle1":"","spLibelle2":"","acDateSerment":"","coordinates":[5.2260242,46.2047624]},{"NomBarreau":"AIN","avNom":"MONNET SUETY","avPrenom":"Annie","cbRaisonSociale":"BERNASCONI-ROZET-MONNET SUETY-FOREST","cbSiretSiren":"429081540","cbAdresse1":"9 avenue Alsace Lorraine","cbAdresse2":"","cbCp":"1000","cbVille":"BOURG EN BRESSE","spLibelle1":"","spLibelle2":"","acDateSerment":"","coordinates":[5.2248818,46.2044577]},{"NomBarreau":"AIN","avNom":"NEVEU","avPrenom":"Clémence","cbRaisonSociale":"NEVEU CLEMENCE","cbSiretSiren":"834399420","cbAdresse1":"26 Avenue  Alsace Lorraine","cbAdresse2":"","cbCp":"1000","cbVille":"BOURG EN BRESSE","spLibelle1":"","spLibelle2":"","acDateSerment":"","coordinates":[5.2215097,46.2025792]},{"NomBarreau":"AIN","avNom":"PAROVEL","avPrenom":"Luc","cbRaisonSociale":"CABINET PACAUT-PAROVEL","cbSiretSiren":"538659392","cbAdresse1":"4 Rue des Casernes","cbAdresse2":"","cbCp":"1000","cbVille":"BOURG EN BRESSE","spLibelle1":"","spLibelle2":"","acDateSerment":"","coordinates":[5.2226862,46.2048438]},{"NomBarreau":"AIN","avNom":"PERRONNET","avPrenom":"Marc-Christian","cbRaisonSociale":"PERRONNET MARC-CHRISTIAN","cbSiretSiren":"828966127","cbAdresse1":"3 Avenue Jean-Marie Verne","cbAdresse2":"Résidence Les Amandines","cbCp":"1000","cbVille":"BOURG EN BRESSE","spLibelle1":"","spLibelle2":"","acDateSerment":"","coordinates":[5.225995,46.199046]},{"NomBarreau":"AIN","avNom":"PROMPT","avPrenom":"Guillaume","cbRaisonSociale":"DULATIER ET ASSOCIES","cbSiretSiren":"491475521","cbAdresse1":"3 rue Samaritaine","cbAdresse2":"","cbCp":"1000","cbVille":"BOURG EN BRESSE","spLibelle1":"","spLibelle2":"","acDateSerment":"","coordinates":[5.2272835,46.2051431]},{"NomBarreau":"AIN","avNom":"PRUGNAUD SERVELLE","avPrenom":"Sophie","cbRaisonSociale":"PRUGNAUD SERVELLE SOPHIE","cbSiretSiren":"441031432","cbAdresse1":"17 Avenue Pierre Semard","cbAdresse2":"","cbCp":"1000","cbVille":"BOURG EN BRESSE","spLibelle1":"Droit immobilier","spLibelle2":"","acDateSerment":"","coordinates":[5.2160971,46.1986071]},{"NomBarreau":"AIN","avNom":"RAPPAZ CELSO","avPrenom":"Christine","cbRaisonSociale":"RAPPAZ CELSO CHRISTINE","cbSiretSiren":"484238977","cbAdresse1":"15 Avenue Alsace Lorraine","cbAdresse2":"","cbCp":"1000","cbVille":"BOURG EN BRESSE","spLibelle1":"","spLibelle2":"","acDateSerment":"","coordinates":[5.2243499,46.204152]},{"NomBarreau":"AIN","avNom":"REMINIAC","avPrenom":"Marie Christine","cbRaisonSociale":"REMINIAC MARIE CHRISTINE","cbSiretSiren":"403804016","cbAdresse1":"17 Avenue Pierre Semard","cbAdresse2":"","cbCp":"1000","cbVille":"BOURG EN BRESSE","spLibelle1":"","spLibelle2":"","acDateSerment":"","coordinates":[5.2160971,46.1986071]},{"NomBarreau":"AIN","avNom":"RICORDEAU","avPrenom":"Christelle","cbRaisonSociale":"RICORDEAU CHRISTELLE","cbSiretSiren":"441064128","cbAdresse1":"9 Avenue Alphonse Muscat","cbAdresse2":"","cbCp":"1000","cbVille":"BOURG EN BRESSE","spLibelle1":"","spLibelle2":"","acDateSerment":"","coordinates":[5.2196345,46.2027793]},{"NomBarreau":"AIN","avNom":"ROBERT","avPrenom":"Luc","cbRaisonSociale":"L.ROBERT ET ASSOCIES","cbSiretSiren":"538382011","cbAdresse1":"6 Rue Lalande","cbAdresse2":"","cbCp":"1004","cbVille":"BOURG EN BRESSE","spLibelle1":"","spLibelle2":"","acDateSerment":"","coordinates":[5.2232567,46.2043694]},{"NomBarreau":"AIN","avNom":"ROZET","avPrenom":"Eric","cbRaisonSociale":"BERNASCONI-ROZET-MONNET SUETY-FOREST","cbSiretSiren":"429081540","cbAdresse1":"9 avenue Alsace Lorraine","cbAdresse2":"","cbCp":"1000","cbVille":"BOURG EN BRESSE","spLibelle1":"","spLibelle2":"","acDateSerment":"","coordinates":[5.2248818,46.2044577]},{"NomBarreau":"AIN","avNom":"SAVOURNIN","avPrenom":"Mélanie","cbRaisonSociale":"SAVOURNIN MELANIE","cbSiretSiren":"790171128","cbAdresse1":"4 Place des Lices","cbAdresse2":"Immeuble \"Le Bastion\"","cbCp":"1000","cbVille":"BOURG EN BRESSE","spLibelle1":"","spLibelle2":"","acDateSerment":"","coordinates":[5.223757,46.2060545]},{"NomBarreau":"AIN","avNom":"THIVEND","avPrenom":"Pierre Emmanuel","cbRaisonSociale":"SELARL D'AVOCAT PIERRE-EMMANUEL THIVEND","cbSiretSiren":"487663577","cbAdresse1":"13 Avenue de Bad Kreuznach","cbAdresse2":"","cbCp":"1000","cbVille":"BOURG EN BRESSE","spLibelle1":"","spLibelle2":"","acDateSerment":"","coordinates":[5.24092,46.212518]},{"NomBarreau":"AIN","avNom":"THOMAS","avPrenom":"Sébastien","cbRaisonSociale":"NEOLEXIS","cbSiretSiren":"834083727","cbAdresse1":"24 Rue de Montholon","cbAdresse2":"Bat.A - 1er étage","cbCp":"1000","cbVille":"BOURG EN BRESSE","spLibelle1":"","spLibelle2":"","acDateSerment":"","coordinates":[5.210443,46.198981]},{"NomBarreau":"AIN","avNom":"VENUTTI","avPrenom":"Evelyne","cbRaisonSociale":"SERFATY VENUTTI CAMACHO & CORDIER","cbSiretSiren":"434557963","cbAdresse1":"2 rue Clavagry","cbAdresse2":"","cbCp":"1000","cbVille":"BOURG EN BRESSE","spLibelle1":"","spLibelle2":"","acDateSerment":"","coordinates":[5.2244385,46.2039225]},{"NomBarreau":"AIN","avNom":"VERCHERE-MICHON","avPrenom":"Amandine","cbRaisonSociale":"VERCHERE-MICHON AMANDINE","cbSiretSiren":"818325839","cbAdresse1":"2 RUE CLAVAGRY","cbAdresse2":"","cbCp":"1000","cbVille":"BOURG EN BRESSE","spLibelle1":"","spLibelle2":"","acDateSerment":"","coordinates":[5.2244385,46.2039225]},{"NomBarreau":"AIN","avNom":"VERNAY","avPrenom":"Isabelle","cbRaisonSociale":"DULATIER ET ASSOCIES","cbSiretSiren":"491475521","cbAdresse1":"3 rue Samaritaine","cbAdresse2":"","cbCp":"1000","cbVille":"BOURG EN BRESSE","spLibelle1":"","spLibelle2":"","acDateSerment":"","coordinates":[5.2272835,46.2051431]},{"NomBarreau":"AIN","avNom":"VICARI","avPrenom":"Michel","cbRaisonSociale":"SOCIETE D'AVOCATS VICARI LE GOFF GUINET","cbSiretSiren":"798772190","cbAdresse1":"14 rue des Casernes","cbAdresse2":"","cbCp":"1000","cbVille":"BOURG EN BRESSE","spLibelle1":"","spLibelle2":"","acDateSerment":"","coordinates":[5.2209382,46.2048026]},{"NomBarreau":"AIN","avNom":"VIGUIER","avPrenom":"Catherine","cbRaisonSociale":"VIGUIER CATHERINE","cbSiretSiren":"393890835","cbAdresse1":"9 Avenue Alphonse Muscat","cbAdresse2":"","cbCp":"1000","cbVille":"BOURG EN BRESSE","spLibelle1":"","spLibelle2":"","acDateSerment":"","coordinates":[5.2196345,46.2027793]},{"NomBarreau":"AIN","avNom":"VILLEFRANCHE","avPrenom":"Philippe","cbRaisonSociale":"BENOIT CONTENT","cbSiretSiren":"451825640","cbAdresse1":"13 Avenue Alsace Lorraine","cbAdresse2":"","cbCp":"1000","cbVille":"BOURG EN BRESSE","spLibelle1":"","spLibelle2":"","acDateSerment":"","coordinates":[5.2245885,46.2042886]}]