[{"NomBarreau":"BRIVE ","avNom":"AUCHABIE","avPrenom":"Aurélien","cbRaisonSociale":"AUCHABIE AURELIEN","cbSiretSiren":"818049330","cbAdresse1":"11 Boulevard Voltaire","cbAdresse2":"","cbCp":"19100","cbVille":"BRIVE LA GAILLARDE","spLibelle1":"","spLibelle2":"","acDateSerment":"","coordinates":[1.5406897,45.160143]},{"NomBarreau":"BRIVE ","avNom":"BAGGUL","avPrenom":"Aysun","cbRaisonSociale":"BAGGUL AYSUN","cbSiretSiren":"531215887","cbAdresse1":"27 avenue Thiers","cbAdresse2":"","cbCp":"19100","cbVille":"BRIVE LA GAILLARDE","spLibelle1":"","spLibelle2":"","acDateSerment":"","coordinates":[1.5398531,45.1575506]},{"NomBarreau":"BRIVE ","avNom":"BARRIERE","avPrenom":"Jean-Charles","cbRaisonSociale":"ARISTOTE","cbSiretSiren":"441811080","cbAdresse1":"18 Avenue Edouard Herriot","cbAdresse2":"","cbCp":"19100","cbVille":"BRIVE LA GAILLARDE","spLibelle1":"Droit des sociétés","spLibelle2":"Droit fiscal et droit douanier","acDateSerment":"","coordinates":[1.5329098,45.1534695]},{"NomBarreau":"BRIVE ","avNom":"BENTEJAC","avPrenom":"Laurence","cbRaisonSociale":"BENTEJAC LAURENCE","cbSiretSiren":"415402627","cbAdresse1":"7 bis rue Carnot","cbAdresse2":"","cbCp":"19100","cbVille":"BRIVE LA GAILLARDE","spLibelle1":"","spLibelle2":"","acDateSerment":"","coordinates":[1.5323929,45.1588906]},{"NomBarreau":"BRIVE ","avNom":"BERSAT","avPrenom":"Sandrine","cbRaisonSociale":"BERSAT SANDRINE","cbSiretSiren":"440872018","cbAdresse1":"3 Cours Martignac","cbAdresse2":"","cbCp":"19100","cbVille":"BRIVE LA GAILLARDE","spLibelle1":"","spLibelle2":"","acDateSerment":"","coordinates":[1.531993,45.1572563]},{"NomBarreau":"BRIVE ","avNom":"BLANCHARD","avPrenom":"Virginie","cbRaisonSociale":"BLANCHARD VIRGINIE","cbSiretSiren":"818184913","cbAdresse1":"56 avenue Jean JAURES","cbAdresse2":"","cbCp":"19100","cbVille":"BRIVE LA GAILLARDE","spLibelle1":"","spLibelle2":"","acDateSerment":"","coordinates":[1.5308801,45.1555343]},{"NomBarreau":"BRIVE ","avNom":"BONNIE","avPrenom":"Alexandre ","cbRaisonSociale":"BONNIE  ALEXANDRE","cbSiretSiren":"891670820","cbAdresse1":"3 Avenue Bourzat","cbAdresse2":"","cbCp":"19100","cbVille":"BRIVE LA GAILLARDE","spLibelle1":"","spLibelle2":"","acDateSerment":"","coordinates":[1.5284941,45.156084]},{"NomBarreau":"BRIVE ","avNom":"BOUCHERAT HERESZTYN","avPrenom":"Laurence","cbRaisonSociale":"AVOCATS JURIS-CONSEILS A.J.C.","cbSiretSiren":"487823320","cbAdresse1":"14 Rue d'Arsonval","cbAdresse2":"","cbCp":"19100","cbVille":"BRIVE LA GAILLARDE","spLibelle1":"","spLibelle2":"","acDateSerment":"","coordinates":[1.5412196,45.1555115]},{"NomBarreau":"BRIVE ","avNom":"BRETAGNOL NEE JAKUBOWSKI GRANDRY","avPrenom":"Caroline","cbRaisonSociale":"JAKUBOWSKI GRANDRY  CAROLINE","cbSiretSiren":"442619243","cbAdresse1":"7 rue de la Fontaine Bleue","cbAdresse2":"","cbCp":"19100","cbVille":"BRIVE LA GAILLARDE","spLibelle1":"","spLibelle2":"","acDateSerment":"","coordinates":[1.5308473,45.1527616]},{"NomBarreau":"BRIVE ","avNom":"CAILLAUD","avPrenom":"Albane","cbRaisonSociale":"MCM AVOCAT","cbSiretSiren":"524111861","cbAdresse1":"12 Boulevard du Puyblanc","cbAdresse2":"","cbCp":"19100","cbVille":"BRIVE LA GAILLARDE","spLibelle1":"","spLibelle2":"","acDateSerment":"","coordinates":[1.5338196,45.156736]},{"NomBarreau":"BRIVE ","avNom":"CARMOUSE","avPrenom":"Marie","cbRaisonSociale":"MCM AVOCAT","cbSiretSiren":"524111861","cbAdresse1":"12 Boulevard du Puyblanc","cbAdresse2":"","cbCp":"19100","cbVille":"BRIVE LA GAILLARDE","spLibelle1":"","spLibelle2":"","acDateSerment":"","coordinates":[1.5338196,45.156736]},{"NomBarreau":"BRIVE ","avNom":"CHASTANET","avPrenom":"Christophe","cbRaisonSociale":"CHASTANET CHRISTOPHE","cbSiretSiren":"511610727","cbAdresse1":"11 AVENUE BOURZAT","cbAdresse2":"","cbCp":"19100","cbVille":"BRIVE LA GAILLARDE","spLibelle1":"","spLibelle2":"","acDateSerment":"","coordinates":[1.5284941,45.156084]},{"NomBarreau":"BRIVE ","avNom":"COMBRADET","avPrenom":"Martial","cbRaisonSociale":"COMBRADET MARTIAL","cbSiretSiren":"539690156","cbAdresse1":"6 Quai Tourny","cbAdresse2":"","cbCp":"19100","cbVille":"BRIVE LA GAILLARDE","spLibelle1":"","spLibelle2":"","acDateSerment":"","coordinates":[1.5373862,45.1653042]},{"NomBarreau":"BRIVE ","avNom":"COUDERC","avPrenom":"Sandrine","cbRaisonSociale":"SELARL ACT'EC","cbSiretSiren":"831413471","cbAdresse1":"7 rue de la Fontaine Bleue","cbAdresse2":"","cbCp":"19100","cbVille":"BRIVE LA GAILLARDE","spLibelle1":"","spLibelle2":"","acDateSerment":"","coordinates":[1.5308473,45.1527616]},{"NomBarreau":"BRIVE ","avNom":"COULAUD","avPrenom":"Noel","cbRaisonSociale":"COULAUD NOEL","cbSiretSiren":"819705401","cbAdresse1":"4 Boulevard du Salan","cbAdresse2":"","cbCp":"19100","cbVille":"BRIVE LA GAILLARDE","spLibelle1":"","spLibelle2":"","acDateSerment":"","coordinates":[1.5358985,45.1590643]},{"NomBarreau":"BRIVE ","avNom":"COUSIN MARLAUD","avPrenom":"Myriam","cbRaisonSociale":"AXIUM AVOCATS","cbSiretSiren":"828564906","cbAdresse1":"11 Boulevard Voltaire","cbAdresse2":"","cbCp":"19100","cbVille":"BRIVE LA GAILLARDE","spLibelle1":"","spLibelle2":"","acDateSerment":"","coordinates":[1.5406897,45.160143]},{"NomBarreau":"BRIVE ","avNom":"CROUZET","avPrenom":"Marie Sophie","cbRaisonSociale":"ARISTOTE","cbSiretSiren":"441811080","cbAdresse1":"18 Avenue Edouard Herriot","cbAdresse2":"","cbCp":"19100","cbVille":"BRIVE LA GAILLARDE","spLibelle1":"","spLibelle2":"","acDateSerment":"","coordinates":[1.5329098,45.1534695]},{"NomBarreau":"BRIVE ","avNom":"DELEAGE","avPrenom":"Franck","cbRaisonSociale":"FRANCK DELEAGE","cbSiretSiren":"794304006","cbAdresse1":"8 rue majour","cbAdresse2":"","cbCp":"19100","cbVille":"BRIVE LA GAILLARDE","spLibelle1":"Droit du travail","spLibelle2":"","acDateSerment":"","coordinates":[1.5316291,45.159545]},{"NomBarreau":"BRIVE ","avNom":"DELPY","avPrenom":"Christian","cbRaisonSociale":"CHRISTIAN DELPY AVOCAT","cbSiretSiren":"384909677","cbAdresse1":"3 Avenue Bourzat","cbAdresse2":"","cbCp":"19100","cbVille":"BRIVE LA GAILLARDE","spLibelle1":"","spLibelle2":"","acDateSerment":"","coordinates":[1.5284941,45.156084]},{"NomBarreau":"BRIVE ","avNom":"DESBROUSSES","avPrenom":"Alizée","cbRaisonSociale":"MCM AVOCAT","cbSiretSiren":"524111861","cbAdresse1":"12 Boulevard du Puyblanc","cbAdresse2":"","cbCp":"19100","cbVille":"BRIVE LA GAILLARDE","spLibelle1":"","spLibelle2":"","acDateSerment":"","coordinates":[1.5338196,45.156736]},{"NomBarreau":"BRIVE ","avNom":"DIAS","avPrenom":"Eric","cbRaisonSociale":"GOUT DIAS AVOCATS ASSOCIES","cbSiretSiren":"825359367","cbAdresse1":"2 Boulevard Edouard Lachaud","cbAdresse2":"","cbCp":"19100","cbVille":"BRIVE LA GAILLARDE","spLibelle1":"","spLibelle2":"","acDateSerment":"","coordinates":[1.531666,45.156698]},{"NomBarreau":"BRIVE ","avNom":"DOMINGOS","avPrenom":"Céline","cbRaisonSociale":"DOMINGOS CELINE","cbSiretSiren":"432534931","cbAdresse1":"6 Bis rue Jules Bouchet","cbAdresse2":"","cbCp":"19100","cbVille":"BRIVE LA GAILLARDE","spLibelle1":"","spLibelle2":"","acDateSerment":"","coordinates":[1.4820631,45.1616684]},{"NomBarreau":"BRIVE ","avNom":"DUPUY","avPrenom":"Bertrand","cbRaisonSociale":"DUPUY BERTRAND","cbSiretSiren":"414757450","cbAdresse1":"13 Rue Toulzac","cbAdresse2":"","cbCp":"19100","cbVille":"BRIVE LA GAILLARDE","spLibelle1":"","spLibelle2":"","acDateSerment":"","coordinates":[1.5329273,45.1608137]},{"NomBarreau":"BRIVE ","avNom":"ETCHEVERRY","avPrenom":"Lauranne","cbRaisonSociale":"ETCHEVERRY","cbSiretSiren":"851430041","cbAdresse1":"38 Boulevard Koenig","cbAdresse2":"","cbCp":"19100","cbVille":"BRIVE LA GAILLARDE","spLibelle1":"","spLibelle2":"","acDateSerment":"","coordinates":[1.5315829,45.1603646]},{"NomBarreau":"BRIVE ","avNom":"EYSSARTIER","avPrenom":"Dominique","cbRaisonSociale":"EYSSARTIER DOMINIQUE","cbSiretSiren":"422555193","cbAdresse1":"28 Boulevard","cbAdresse2":"Jules Ferry","cbCp":"19100","cbVille":"BRIVE LA GAILLARDE","spLibelle1":"","spLibelle2":"","acDateSerment":"","coordinates":[1.522674,45.1629316]},{"NomBarreau":"BRIVE ","avNom":"FROIDEFOND","avPrenom":"Frédérique","cbRaisonSociale":"LABONNE ET ACDP ","cbSiretSiren":"331128363","cbAdresse1":"11 Boulevard Voltaire","cbAdresse2":"","cbCp":"19100","cbVille":"BRIVE LA GAILLARDE","spLibelle1":"Droit du travail","spLibelle2":"","acDateSerment":"","coordinates":[1.5406897,45.160143]},{"NomBarreau":"BRIVE ","avNom":"GARRELON","avPrenom":"Emmanuel","cbRaisonSociale":"AXIUM AVOCATS","cbSiretSiren":"828564906","cbAdresse1":"11 Boulevard Voltaire","cbAdresse2":"","cbCp":"19100","cbVille":"BRIVE LA GAILLARDE","spLibelle1":"","spLibelle2":"","acDateSerment":"","coordinates":[1.5406897,45.160143]},{"NomBarreau":"BRIVE ","avNom":"HEVE","avPrenom":"Christelle","cbRaisonSociale":"LH AVOCATS","cbSiretSiren":"810008060","cbAdresse1":"8 Boulevard Edouard Lachaud","cbAdresse2":"","cbCp":"19100","cbVille":"BRIVE LA GAILLARDE","spLibelle1":"","spLibelle2":"","acDateSerment":"","coordinates":[1.531666,45.156698]},{"NomBarreau":"BRIVE ","avNom":"JOSEPH","avPrenom":"Soraya","cbRaisonSociale":"JOSEPH SORAYA","cbSiretSiren":"530987346","cbAdresse1":"18 avenue Edouard Herriot","cbAdresse2":"2ème étage","cbCp":"19100","cbVille":"BRIVE LA GAILLARDE","spLibelle1":"","spLibelle2":"","acDateSerment":"","coordinates":[1.5329098,45.1534695]},{"NomBarreau":"BRIVE ","avNom":"LACHAISE","avPrenom":"Matthieu","cbRaisonSociale":"LH AVOCATS","cbSiretSiren":"810008060","cbAdresse1":"8 Boulevard Edouard Lachaud","cbAdresse2":"","cbCp":"19100","cbVille":"BRIVE LA GAILLARDE","spLibelle1":"","spLibelle2":"","acDateSerment":"","coordinates":[1.531666,45.156698]},{"NomBarreau":"BRIVE ","avNom":"LAURENT","avPrenom":"Aurélien","cbRaisonSociale":"LAURENT  AURELIEN","cbSiretSiren":"821931284","cbAdresse1":"2 Boulevard Edouard Lachaud","cbAdresse2":"","cbCp":"19100","cbVille":"BRIVE LA GAILLARDE","spLibelle1":"","spLibelle2":"","acDateSerment":"","coordinates":[1.531666,45.156698]},{"NomBarreau":"BRIVE ","avNom":"MAISONNEUVE","avPrenom":"Philippe","cbRaisonSociale":"MCM AVOCAT","cbSiretSiren":"524111861","cbAdresse1":"12 Boulevard du Puyblanc","cbAdresse2":"","cbCp":"19100","cbVille":"BRIVE LA GAILLARDE","spLibelle1":"","spLibelle2":"","acDateSerment":"","coordinates":[1.5338196,45.156736]},{"NomBarreau":"BRIVE ","avNom":"MALAUZAT","avPrenom":"Christelle","cbRaisonSociale":"MALAUZAT CHRISTELLE","cbSiretSiren":"480742741","cbAdresse1":"4 Boulevard du Salan","cbAdresse2":"","cbCp":"19100","cbVille":"BRIVE LA GAILLARDE","spLibelle1":"","spLibelle2":"","acDateSerment":"","coordinates":[1.5358985,45.1590643]},{"NomBarreau":"BRIVE ","avNom":"MORA","avPrenom":"Sabine","cbRaisonSociale":"MORA-PRADON VALLANCY","cbSiretSiren":"521150268","cbAdresse1":"26 Boulevard Jules Ferry","cbAdresse2":"","cbCp":"19100","cbVille":"BRIVE LA GAILLARDE","spLibelle1":"","spLibelle2":"","acDateSerment":"","coordinates":[1.535424771617112,45.15836415]},{"NomBarreau":"BRIVE ","avNom":"POUJADE","avPrenom":"Virginie","cbRaisonSociale":"HORIZON CONSEILS ","cbSiretSiren":"853948024","cbAdresse1":"17 Rue Fernand DELMAS","cbAdresse2":"","cbCp":"19100","cbVille":"BRIVE LA GAILLARDE","spLibelle1":"","spLibelle2":"","acDateSerment":"","coordinates":[1.530192,45.1594484]},{"NomBarreau":"BRIVE ","avNom":"PRADON VALLANCY","avPrenom":"Maud","cbRaisonSociale":"MORA-PRADON VALLANCY","cbSiretSiren":"521150268","cbAdresse1":"26 Boulevard Jules Ferry","cbAdresse2":"","cbCp":"19100","cbVille":"BRIVE LA GAILLARDE","spLibelle1":"","spLibelle2":"","acDateSerment":"","coordinates":[1.535424771617112,45.15836415]},{"NomBarreau":"BRIVE ","avNom":"RENAUDIE","avPrenom":"Marie Hélène","cbRaisonSociale":"SELARL ACT'EC","cbSiretSiren":"831413471","cbAdresse1":"7 rue de la Fontaine Bleue","cbAdresse2":"","cbCp":"19100","cbVille":"BRIVE LA GAILLARDE","spLibelle1":"","spLibelle2":"","acDateSerment":"","coordinates":[1.5308473,45.1527616]},{"NomBarreau":"BRIVE ","avNom":"ROUQUIE","avPrenom":"Corinne","cbRaisonSociale":"CABINET ROUQUIE","cbSiretSiren":"419641642","cbAdresse1":"5 Boulevard Edouard Lachaud","cbAdresse2":"","cbCp":"19100","cbVille":"BRIVE LA GAILLARDE","spLibelle1":"","spLibelle2":"","acDateSerment":"","coordinates":[1.531666,45.156698]},{"NomBarreau":"BRIVE ","avNom":"VAL","avPrenom":"Dominique","cbRaisonSociale":"AVOJURIS","cbSiretSiren":"803964865","cbAdresse1":"3 Boulevard Koenig","cbAdresse2":"","cbCp":"19100","cbVille":"BRIVE LA GAILLARDE","spLibelle1":"Droit de la famille, des personnes et de leur patrimoine","spLibelle2":"Droit du travail","acDateSerment":"","coordinates":[1.5315829,45.1603646]},{"NomBarreau":"BRIVE ","avNom":"ZOUNGRANA","avPrenom":"Benoit","cbRaisonSociale":"ZOUNGRANA BENOUŽT","cbSiretSiren":"820401826","cbAdresse1":"8 avenue  Edouard Herriot","cbAdresse2":"","cbCp":"19100","cbVille":"BRIVE LA GAILLARDE","spLibelle1":"","spLibelle2":"","acDateSerment":"","coordinates":[1.5329098,45.1534695]}]