[{"NomBarreau":"CAMBRAI","avNom":"BEAUCHART","avPrenom":"Cathy","cbRaisonSociale":"CATHY BEAUCHART AVOCAT","cbSiretSiren":"922156955","cbAdresse1":"8 RUE SADI CARNOT","cbAdresse2":"","cbCp":"59400","cbVille":"CAMBRAI","spLibelle1":"","spLibelle2":"","acDateSerment":"","coordinates":[3.2334414,50.1770006]},{"NomBarreau":"CAMBRAI","avNom":"BLEUX","avPrenom":"Sandrine","cbRaisonSociale":"BLEUX","cbSiretSiren":"488838533","cbAdresse1":"10 Rue Froissart","cbAdresse2":"","cbCp":"59400","cbVille":"CAMBRAI","spLibelle1":"","spLibelle2":"","acDateSerment":"","coordinates":[3.2312929,50.1812744]},{"NomBarreau":"CAMBRAI","avNom":"BRABANT","avPrenom":"Ségolène","cbRaisonSociale":"THEMES CONSEIL","cbSiretSiren":"824547723","cbAdresse1":"28 BOULEVARD JEAN BART","cbAdresse2":"","cbCp":"59400","cbVille":"CAMBRAI","spLibelle1":"","spLibelle2":"","acDateSerment":"","coordinates":[3.2233367,50.1780177]},{"NomBarreau":"CAMBRAI","avNom":"CAYET","avPrenom":"Olivier","cbRaisonSociale":"ARTETMIS","cbSiretSiren":"842131930","cbAdresse1":"14 Rue de Selles","cbAdresse2":"","cbCp":"59400","cbVille":"CAMBRAI","spLibelle1":"","spLibelle2":"","acDateSerment":"","coordinates":[3.2309775,50.1808067]},{"NomBarreau":"CAMBRAI","avNom":"CLEMENT","avPrenom":"Michèle","cbRaisonSociale":"THEMES CONSEIL","cbSiretSiren":"824547723","cbAdresse1":"28 BOULEVARD JEAN BART","cbAdresse2":"","cbCp":"59400","cbVille":"CAMBRAI","spLibelle1":"","spLibelle2":"","acDateSerment":"","coordinates":[3.2233367,50.1780177]},{"NomBarreau":"CAMBRAI","avNom":"DEMAILLY","avPrenom":"Elsa","cbRaisonSociale":"LEX JUSTITIA","cbSiretSiren":"503582397","cbAdresse1":"7 RUE DE SELLES","cbAdresse2":"","cbCp":"59400","cbVille":"CAMBRAI","spLibelle1":"","spLibelle2":"","acDateSerment":"","coordinates":[3.2309735,50.1805439]},{"NomBarreau":"CAMBRAI","avNom":"DOUBLET","avPrenom":"Philippe","cbRaisonSociale":"COJURA","cbSiretSiren":"528035892","cbAdresse1":"16 RUE DE L'EPEE","cbAdresse2":"","cbCp":"59400","cbVille":"CAMBRAI","spLibelle1":"Droit des sociétés","spLibelle2":"","acDateSerment":"","coordinates":[3.2292874,50.1735726]},{"NomBarreau":"CAMBRAI","avNom":"HERBIN","avPrenom":"Jean-Claude","cbRaisonSociale":"HERBIN","cbSiretSiren":"349989301","cbAdresse1":"28 Boulevard Jean Bart","cbAdresse2":"","cbCp":"59400","cbVille":"CAMBRAI","spLibelle1":"","spLibelle2":"","acDateSerment":"","coordinates":[3.2233367,50.1780177]},{"NomBarreau":"CAMBRAI","avNom":"LEBLANC","avPrenom":"Sabrina","cbRaisonSociale":"LEBLANC","cbSiretSiren":"534085337","cbAdresse1":"10 Rue Froissart","cbAdresse2":"","cbCp":"59400","cbVille":"CAMBRAI","spLibelle1":"","spLibelle2":"","acDateSerment":"","coordinates":[3.2312929,50.1812744]},{"NomBarreau":"CAMBRAI","avNom":"PIPART","avPrenom":"Maryse","cbRaisonSociale":"ARTETMIS","cbSiretSiren":"842131930","cbAdresse1":"14 Rue de Selles","cbAdresse2":"","cbCp":"59400","cbVille":"CAMBRAI","spLibelle1":"Droit du travail","spLibelle2":"","acDateSerment":"","coordinates":[3.2309775,50.1808067]},{"NomBarreau":"CAMBRAI","avNom":"PONCHARD","avPrenom":"Marie-Odile","cbRaisonSociale":"PONCHARD","cbSiretSiren":"401833454","cbAdresse1":"3 Avenue Georges Pompidou","cbAdresse2":"","cbCp":"59400","cbVille":"CAMBRAI","spLibelle1":"","spLibelle2":"","acDateSerment":"","coordinates":[3.204437,50.175609]},{"NomBarreau":"CAMBRAI","avNom":"POTEL","avPrenom":"Alexiane","cbRaisonSociale":"POTEL","cbSiretSiren":"502042799","cbAdresse1":"28 Bd Jean Bart","cbAdresse2":"","cbCp":"59400","cbVille":"CAMBRAI","spLibelle1":"","spLibelle2":"","acDateSerment":"","coordinates":[3.2233367,50.1780177]},{"NomBarreau":"CAMBRAI","avNom":"RAMETTE","avPrenom":"Marine","cbRaisonSociale":"MARINE RAMETTE AVOCAT","cbSiretSiren":"909680449","cbAdresse1":"30. PLACE ARISTIDE BRIAND","cbAdresse2":"","cbCp":"59400","cbVille":"CAMBRAI","spLibelle1":"","spLibelle2":"","acDateSerment":"","coordinates":[3.2329847,50.1757914]},{"NomBarreau":"CAMBRAI","avNom":"SAALE","avPrenom":"Mariam","cbRaisonSociale":"SAALE MARIAM","cbSiretSiren":"833591472","cbAdresse1":"10 RUE FROISSART","cbAdresse2":"","cbCp":"59400","cbVille":"CAMBRAI","spLibelle1":"","spLibelle2":"","acDateSerment":"","coordinates":[3.2312929,50.1812744]},{"NomBarreau":"CAMBRAI","avNom":"TAQUET","avPrenom":"François","cbRaisonSociale":"TAQUET","cbSiretSiren":"347879892","cbAdresse1":"136 Rue de Caudry","cbAdresse2":"","cbCp":"59400","cbVille":"CAMBRAI","spLibelle1":"Droit de la sécurité sociale et de la protection sociale","spLibelle2":"Droit du travail","acDateSerment":"","coordinates":[3.2481697,50.1706688]},{"NomBarreau":"CAMBRAI","avNom":"VILLAIN","avPrenom":"Eric","cbRaisonSociale":"VILLAIN","cbSiretSiren":"424682458","cbAdresse1":"17 Avenue de la Victoire","cbAdresse2":"","cbCp":"59400","cbVille":"CAMBRAI","spLibelle1":"","spLibelle2":"","acDateSerment":"","coordinates":[3.2338718,50.1743622]}]