[{"NomBarreau":"CARCASSONNE","avNom":"ADAMOU","avPrenom":"Aboufeidou","cbRaisonSociale":"ADAMOU ABOUFEIDOU","cbSiretSiren":"912237211","cbAdresse1":"31 Boulevard Omer Sarraut","cbAdresse2":"","cbCp":"11000","cbVille":"CARCASSONNE","spLibelle1":"","spLibelle2":"","acDateSerment":"","coordinates":[2.3503349,43.2160691]},{"NomBarreau":"CARCASSONNE","avNom":"ALBERTI","avPrenom":"Franck","cbRaisonSociale":"SELASU ALBERTI","cbSiretSiren":"812704161","cbAdresse1":"49 Rue Coste Reboulh","cbAdresse2":"","cbCp":"11000","cbVille":"CARCASSONNE","spLibelle1":"","spLibelle2":"","acDateSerment":"","coordinates":[2.3542727,43.2137376]},{"NomBarreau":"CARCASSONNE","avNom":"BIDOIS","avPrenom":"Jean-Luc","cbRaisonSociale":"BIDOIS","cbSiretSiren":"381242940","cbAdresse1":"12 Rue du Palais","cbAdresse2":"","cbCp":"11000","cbVille":"CARCASSONNE","spLibelle1":"","spLibelle2":"","acDateSerment":"","coordinates":[2.3561219,43.2150709]},{"NomBarreau":"CARCASSONNE","avNom":"BITEAU","avPrenom":"Willy","cbRaisonSociale":"BITEAU-LECLERC","cbSiretSiren":"801443508","cbAdresse1":"7 Rue du Palais","cbAdresse2":"","cbCp":"11000","cbVille":"CARCASSONNE","spLibelle1":"","spLibelle2":"","acDateSerment":"","coordinates":[2.3560579,43.2134359]},{"NomBarreau":"CARCASSONNE","avNom":"BIVER","avPrenom":"Gilles","cbRaisonSociale":"CABEE-BIVER-SPANGHERO","cbSiretSiren":"349977322","cbAdresse1":"12 Rue du Palais","cbAdresse2":"","cbCp":"11000","cbVille":"CARCASSONNE","spLibelle1":"","spLibelle2":"","acDateSerment":"","coordinates":[2.3561219,43.2150709]},{"NomBarreau":"CARCASSONNE","avNom":"BLONDEAU","avPrenom":"Marion","cbRaisonSociale":"BLONDEAU MARION","cbSiretSiren":"799312285","cbAdresse1":"6 BIS Boulevard Omer Sarraut","cbAdresse2":"","cbCp":"11000","cbVille":"CARCASSONNE","spLibelle1":"","spLibelle2":"","acDateSerment":"","coordinates":[2.3531331,43.216459]},{"NomBarreau":"CARCASSONNE","avNom":"BOUISSINET","avPrenom":"Gérard","cbRaisonSociale":"BOUISSINET-SERRES","cbSiretSiren":"404327181","cbAdresse1":"48 Rue de Strasbourg","cbAdresse2":"","cbCp":"11000","cbVille":"CARCASSONNE","spLibelle1":"","spLibelle2":"","acDateSerment":"","coordinates":[2.3554623,43.2148849]},{"NomBarreau":"CARCASSONNE","avNom":"BOULET-GERCOURT","avPrenom":"Véronique","cbRaisonSociale":"BOULET-GERCOURT","cbSiretSiren":"422739193","cbAdresse1":"72 Rue d'Alsace","cbAdresse2":"1er étage","cbCp":"11000","cbVille":"CARCASSONNE","spLibelle1":"","spLibelle2":"","acDateSerment":"","coordinates":[2.3548957,43.2156796]},{"NomBarreau":"CARCASSONNE","avNom":"BOURIANES ROQUES","avPrenom":"Jessica","cbRaisonSociale":"JESSICA BOURIANES-ROQUES","cbSiretSiren":"914831896","cbAdresse1":"2 Rue de Verdun","cbAdresse2":"","cbCp":"11000","cbVille":"CARCASSONNE","spLibelle1":"","spLibelle2":"","acDateSerment":"","coordinates":[2.3552778,43.2126862]},{"NomBarreau":"CARCASSONNE","avNom":"BOUSGARBIES","avPrenom":"Marie-Josèphe","cbRaisonSociale":"BOUSGARBIES","cbSiretSiren":"300287380","cbAdresse1":"49 Rue Coste Reboulh","cbAdresse2":"","cbCp":"11000","cbVille":"CARCASSONNE","spLibelle1":"","spLibelle2":"","acDateSerment":"","coordinates":[2.3542727,43.2137376]},{"NomBarreau":"CARCASSONNE","avNom":"BOYER","avPrenom":"Emilie","cbRaisonSociale":"BOYER EMILIE","cbSiretSiren":"799949094","cbAdresse1":"13 Rue Mazagran","cbAdresse2":"","cbCp":"11000","cbVille":"CARCASSONNE","spLibelle1":"","spLibelle2":"","acDateSerment":"","coordinates":[2.3588127,43.2140353]},{"NomBarreau":"CARCASSONNE","avNom":"BREUIL","avPrenom":"Charline","cbRaisonSociale":"CHARLINE BREUIL","cbSiretSiren":"753079383","cbAdresse1":"2 Rue de Verdun","cbAdresse2":"","cbCp":"11000","cbVille":"CARCASSONNE","spLibelle1":"","spLibelle2":"","acDateSerment":"","coordinates":[2.3552778,43.2126862]},{"NomBarreau":"CARCASSONNE","avNom":"CABEE","avPrenom":"Stéphane","cbRaisonSociale":"CABEE-BIVER-SPANGHERO","cbSiretSiren":"349977322","cbAdresse1":"12 Rue du Palais","cbAdresse2":"","cbCp":"11000","cbVille":"CARCASSONNE","spLibelle1":"","spLibelle2":"","acDateSerment":"","coordinates":[2.3561219,43.2150709]},{"NomBarreau":"CARCASSONNE","avNom":"CLAIN","avPrenom":"Pascal","cbRaisonSociale":"DE MARION-GAJA-LAVOYE-CLAIN-DOMENECH-MEGNIN","cbSiretSiren":"306743097","cbAdresse1":"34 Rue Mazagran","cbAdresse2":"","cbCp":"11000","cbVille":"CARCASSONNE","spLibelle1":"","spLibelle2":"","acDateSerment":"","coordinates":[2.3568607,43.2141715]},{"NomBarreau":"CARCASSONNE","avNom":"COLOMBIE","avPrenom":"Bernard","cbRaisonSociale":"COLOMBIE BERNARD","cbSiretSiren":"834270373","cbAdresse1":"4 Rue Montesquieu","cbAdresse2":"","cbCp":"11000","cbVille":"CARCASSONNE","spLibelle1":"","spLibelle2":"","acDateSerment":"","coordinates":[2.3554645,43.2168065]},{"NomBarreau":"CARCASSONNE","avNom":"COLOMBO-BRUEZ","avPrenom":"Céline","cbRaisonSociale":"SOLERE-RIUS- COLOMBO","cbSiretSiren":"501525299","cbAdresse1":"72 Rue d'Alsace","cbAdresse2":"","cbCp":"11000","cbVille":"CARCASSONNE","spLibelle1":"","spLibelle2":"","acDateSerment":"","coordinates":[2.3548957,43.2156796]},{"NomBarreau":"CARCASSONNE","avNom":"COULOUMIES","avPrenom":"Sarah","cbRaisonSociale":"COULOUMIES","cbSiretSiren":"480349216","cbAdresse1":"44 Rue de Strasbourg","cbAdresse2":"","cbCp":"11000","cbVille":"CARCASSONNE","spLibelle1":"","spLibelle2":"","acDateSerment":"","coordinates":[2.3557682,43.2148742]},{"NomBarreau":"CARCASSONNE","avNom":"DE RINALDO","avPrenom":"Frédéric","cbRaisonSociale":"DE RINALDO","cbSiretSiren":"503034589","cbAdresse1":"1 Boulevard Omer Sarraut","cbAdresse2":"","cbCp":"11000","cbVille":"CARCASSONNE","spLibelle1":"","spLibelle2":"","acDateSerment":"","coordinates":[2.3534976,43.2162959]},{"NomBarreau":"CARCASSONNE","avNom":"DELOFFRE","avPrenom":"Charlotte","cbRaisonSociale":"DELOFFRE","cbSiretSiren":"901602672","cbAdresse1":"2 Rue de Verdun","cbAdresse2":"","cbCp":"11000","cbVille":"CARCASSONNE","spLibelle1":"","spLibelle2":"","acDateSerment":"","coordinates":[2.3552778,43.2126862]},{"NomBarreau":"CARCASSONNE","avNom":"DEMERET","avPrenom":"Chloe","cbRaisonSociale":"DEMERET CHLOE","cbSiretSiren":"788445757","cbAdresse1":"2 Rue de Verdun","cbAdresse2":"","cbCp":"11000","cbVille":"CARCASSONNE","spLibelle1":"","spLibelle2":"","acDateSerment":"","coordinates":[2.3552778,43.2126862]},{"NomBarreau":"CARCASSONNE","avNom":"DENARNAUD","avPrenom":"Aude","cbRaisonSociale":"DENARNAUD","cbSiretSiren":"534791819","cbAdresse1":"26 Avenue Bunau Varilla","cbAdresse2":"","cbCp":"11000","cbVille":"CARCASSONNE","spLibelle1":"","spLibelle2":"","acDateSerment":"","coordinates":[2.343045,43.2119751]},{"NomBarreau":"CARCASSONNE","avNom":"DOMENECH","avPrenom":"Nicolas","cbRaisonSociale":"DE MARION-GAJA-LAVOYE-CLAIN-DOMENECH-MEGNIN","cbSiretSiren":"306743097","cbAdresse1":"34 Rue Mazagran","cbAdresse2":"","cbCp":"11000","cbVille":"CARCASSONNE","spLibelle1":"","spLibelle2":"","acDateSerment":"","coordinates":[2.3568607,43.2141715]},{"NomBarreau":"CARCASSONNE","avNom":"FEKRACHE","avPrenom":"Caroline","cbRaisonSociale":"FEKRACHE CAROLINE","cbSiretSiren":"449247394","cbAdresse1":"13 Rue Mazagran","cbAdresse2":"","cbCp":"11000","cbVille":"CARCASSONNE","spLibelle1":"","spLibelle2":"","acDateSerment":"","coordinates":[2.3588127,43.2140353]},{"NomBarreau":"CARCASSONNE","avNom":"FERES","avPrenom":"Yves","cbRaisonSociale":"FERES & ASSOCIES","cbSiretSiren":"493598767","cbAdresse1":"31 Boulevard Omer Sarraut","cbAdresse2":"","cbCp":"11000","cbVille":"CARCASSONNE","spLibelle1":"Droit commercial, des affaires et de la concurrence","spLibelle2":"Droit du travail","acDateSerment":"","coordinates":[2.3503349,43.2160691]},{"NomBarreau":"CARCASSONNE","avNom":"FERMOND","avPrenom":"Xavier","cbRaisonSociale":"FERMOND - LIMA","cbSiretSiren":"492770417","cbAdresse1":"28 Rue de Strasbourg","cbAdresse2":"","cbCp":"11000","cbVille":"CARCASSONNE","spLibelle1":"","spLibelle2":"","acDateSerment":"","coordinates":[2.3575676,43.2148131]},{"NomBarreau":"CARCASSONNE","avNom":"FOUQUENET","avPrenom":"Laetitia","cbRaisonSociale":"FOUQUENET","cbSiretSiren":"449372705","cbAdresse1":"16 Place Carnot","cbAdresse2":"","cbCp":"11000","cbVille":"CARCASSONNE","spLibelle1":"","spLibelle2":"","acDateSerment":"","coordinates":[2.3512134,43.2131901]},{"NomBarreau":"CARCASSONNE","avNom":"GASTOU","avPrenom":"Aude","cbRaisonSociale":"GASTOU AUDE","cbSiretSiren":"799406020","cbAdresse1":"16 Place Carnot","cbAdresse2":"","cbCp":"11000","cbVille":"CARCASSONNE","spLibelle1":"","spLibelle2":"","acDateSerment":"","coordinates":[2.3512134,43.2131901]},{"NomBarreau":"CARCASSONNE","avNom":"GOURLIN","avPrenom":"Carole","cbRaisonSociale":"CAROLE GOURLIN-ABDELDJELIL","cbSiretSiren":"500668918","cbAdresse1":"31 Boulevard Omer Sarraut","cbAdresse2":"","cbCp":"11000","cbVille":"CARCASSONNE","spLibelle1":"","spLibelle2":"","acDateSerment":"","coordinates":[2.3503349,43.2160691]},{"NomBarreau":"CARCASSONNE","avNom":"GRANGE","avPrenom":"Patricia","cbRaisonSociale":"D'AVOCAT PATRICIA GRANGE","cbSiretSiren":"897584090","cbAdresse1":"2 Rue de Verdun","cbAdresse2":"","cbCp":"11000","cbVille":"CARCASSONNE","spLibelle1":"","spLibelle2":"","acDateSerment":"","coordinates":[2.3552778,43.2126862]},{"NomBarreau":"CARCASSONNE","avNom":"GROS","avPrenom":"Philippe","cbRaisonSociale":"GROS PHILIPPE","cbSiretSiren":"520662545","cbAdresse1":"10 Rue du Palais","cbAdresse2":"","cbCp":"11000","cbVille":"CARCASSONNE","spLibelle1":"","spLibelle2":"","acDateSerment":"","coordinates":[2.3561211,43.2149222]},{"NomBarreau":"CARCASSONNE","avNom":"JOCTEUR-MONROZIER","avPrenom":"Catherine","cbRaisonSociale":"JOCTEUR-MONROZIER","cbSiretSiren":"529418055","cbAdresse1":"13 Rue Mazagran","cbAdresse2":"","cbCp":"11000","cbVille":"CARCASSONNE","spLibelle1":"","spLibelle2":"","acDateSerment":"","coordinates":[2.3588127,43.2140353]},{"NomBarreau":"CARCASSONNE","avNom":"LATARGET","avPrenom":"Rémi","cbRaisonSociale":"SELARL CLN CONSULT","cbSiretSiren":"393858766","cbAdresse1":"44 Rue de Strasbourg","cbAdresse2":"","cbCp":"11000","cbVille":"CARCASSONNE","spLibelle1":"","spLibelle2":"","acDateSerment":"","coordinates":[2.3557682,43.2148742]},{"NomBarreau":"CARCASSONNE","avNom":"LAVOYE","avPrenom":"Véronique","cbRaisonSociale":"DE MARION-GAJA-LAVOYE-CLAIN-DOMENECH-MEGNIN","cbSiretSiren":"306743097","cbAdresse1":"34 Rue Mazagran","cbAdresse2":"","cbCp":"11000","cbVille":"CARCASSONNE","spLibelle1":"","spLibelle2":"","acDateSerment":"","coordinates":[2.3568607,43.2141715]},{"NomBarreau":"CARCASSONNE","avNom":"LECLERC","avPrenom":"Benoit","cbRaisonSociale":"BITEAU-LECLERC","cbSiretSiren":"801443508","cbAdresse1":"7 Rue du Palais","cbAdresse2":"","cbCp":"11000","cbVille":"CARCASSONNE","spLibelle1":"","spLibelle2":"","acDateSerment":"","coordinates":[2.3560579,43.2134359]},{"NomBarreau":"CARCASSONNE","avNom":"LEGUAY","avPrenom":"Sébastien","cbRaisonSociale":"SEBASTIEN LEGUAY","cbSiretSiren":"491695185","cbAdresse1":"72 Rue d'Alsace","cbAdresse2":"1er étage","cbCp":"11000","cbVille":"CARCASSONNE","spLibelle1":"","spLibelle2":"","acDateSerment":"","coordinates":[2.3548957,43.2156796]},{"NomBarreau":"CARCASSONNE","avNom":"LIMA","avPrenom":"Victor","cbRaisonSociale":"FERMOND - LIMA","cbSiretSiren":"492770417","cbAdresse1":"28 Rue de Strasbourg","cbAdresse2":"","cbCp":"11000","cbVille":"CARCASSONNE","spLibelle1":"","spLibelle2":"","acDateSerment":"","coordinates":[2.3575676,43.2148131]},{"NomBarreau":"CARCASSONNE","avNom":"MARCHAND","avPrenom":"Mylene","cbRaisonSociale":"MARCHAND MYLENE","cbSiretSiren":"851313841","cbAdresse1":"10 Rue du Palais","cbAdresse2":"","cbCp":"11000","cbVille":"CARCASSONNE","spLibelle1":"","spLibelle2":"","acDateSerment":"","coordinates":[2.3561211,43.2149222]},{"NomBarreau":"CARCASSONNE","avNom":"MARTI","avPrenom":"Jean-Christophe","cbRaisonSociale":"MARTI JEAN-CHRISTOPHE","cbSiretSiren":"844316794","cbAdresse1":"26 Rue du Palais","cbAdresse2":"","cbCp":"11000","cbVille":"CARCASSONNE","spLibelle1":"","spLibelle2":"","acDateSerment":"","coordinates":[2.3561806,43.2161577]},{"NomBarreau":"CARCASSONNE","avNom":"MAYNIE","avPrenom":"Claire","cbRaisonSociale":"MAYNIE CLAIRE","cbSiretSiren":"791525405","cbAdresse1":"2 Place Victor Basch","cbAdresse2":"2ème étage","cbCp":"11000","cbVille":"CARCASSONNE","spLibelle1":"","spLibelle2":"","acDateSerment":"","coordinates":[2.35607535,43.21448855]},{"NomBarreau":"CARCASSONNE","avNom":"MEGNIN","avPrenom":"Serge","cbRaisonSociale":"DE MARION-GAJA-LAVOYE-CLAIN-DOMENECH-MEGNIN","cbSiretSiren":"306743097","cbAdresse1":"34 Rue Mazagran","cbAdresse2":"","cbCp":"11000","cbVille":"CARCASSONNE","spLibelle1":"","spLibelle2":"","acDateSerment":"","coordinates":[2.3568607,43.2141715]},{"NomBarreau":"CARCASSONNE","avNom":"NEGRE","avPrenom":"Manon","cbRaisonSociale":"NEGRE MANON","cbSiretSiren":"824638639","cbAdresse1":"44 Rue de Strasbourg","cbAdresse2":"","cbCp":"11000","cbVille":"CARCASSONNE","spLibelle1":"","spLibelle2":"","acDateSerment":"","coordinates":[2.3557682,43.2148742]},{"NomBarreau":"CARCASSONNE","avNom":"PAULET","avPrenom":"Fanchon Célina","cbRaisonSociale":"PAULET FANCHON CELINA","cbSiretSiren":"810303099","cbAdresse1":"72 Rue d'Alsace","cbAdresse2":"","cbCp":"11000","cbVille":"CARCASSONNE","spLibelle1":"","spLibelle2":"","acDateSerment":"","coordinates":[2.3548957,43.2156796]},{"NomBarreau":"CARCASSONNE","avNom":"PEPIN","avPrenom":"Sabine","cbRaisonSociale":"CHOPIN-PEPIN & ASSOCIES","cbSiretSiren":"531277895","cbAdresse1":"13 Square Gambetta","cbAdresse2":"","cbCp":"11000","cbVille":"CARCASSONNE","spLibelle1":"","spLibelle2":"","acDateSerment":"","coordinates":[2.3567665,43.2117011]},{"NomBarreau":"CARCASSONNE","avNom":"PETIT","avPrenom":"Stéphanie","cbRaisonSociale":"PETIT","cbSiretSiren":"451672505","cbAdresse1":"7 Rue du Palais","cbAdresse2":"","cbCp":"11000","cbVille":"CARCASSONNE","spLibelle1":"","spLibelle2":"","acDateSerment":"","coordinates":[2.3560579,43.2134359]},{"NomBarreau":"CARCASSONNE","avNom":"POIROT-SEYNAEVE","avPrenom":"Quentin","cbRaisonSociale":"POIROT-SEYNAEVE QUENTIN","cbSiretSiren":"880920061","cbAdresse1":"6 BIS Boulevard Omer Sarraut","cbAdresse2":"","cbCp":"11000","cbVille":"CARCASSONNE","spLibelle1":"","spLibelle2":"","acDateSerment":"","coordinates":[2.3531331,43.216459]},{"NomBarreau":"CARCASSONNE","avNom":"RENEAUD","avPrenom":"Valérie","cbRaisonSociale":"RENEAUD","cbSiretSiren":"423104124","cbAdresse1":"71 Rue Jean Bringer","cbAdresse2":"","cbCp":"11000","cbVille":"CARCASSONNE","spLibelle1":"","spLibelle2":"","acDateSerment":"","coordinates":[2.3531453,43.214765]},{"NomBarreau":"CARCASSONNE","avNom":"SERRES","avPrenom":"Lionel","cbRaisonSociale":"BOUISSINET-SERRES","cbSiretSiren":"404327181","cbAdresse1":"48 Rue de Strasbourg","cbAdresse2":"","cbCp":"11000","cbVille":"CARCASSONNE","spLibelle1":"","spLibelle2":"","acDateSerment":"","coordinates":[2.3554623,43.2148849]},{"NomBarreau":"CARCASSONNE","avNom":"SOLERE-RIUS","avPrenom":"Béatrice","cbRaisonSociale":"SOLERE-RIUS- COLOMBO","cbSiretSiren":"501525299","cbAdresse1":"72 Rue d'Alsace","cbAdresse2":"","cbCp":"11000","cbVille":"CARCASSONNE","spLibelle1":"","spLibelle2":"","acDateSerment":"","coordinates":[2.3548957,43.2156796]},{"NomBarreau":"CARCASSONNE","avNom":"VAN DEN BROEK","avPrenom":"Maud","cbRaisonSociale":"VAN DEN BROEK MAUD","cbSiretSiren":"800254773","cbAdresse1":"44 Rue de Strasbourg","cbAdresse2":"","cbCp":"11000","cbVille":"CARCASSONNE","spLibelle1":"","spLibelle2":"","acDateSerment":"","coordinates":[2.3557682,43.2148742]},{"NomBarreau":"CARCASSONNE","avNom":"VITRAC","avPrenom":"Alexandra","cbRaisonSociale":"VITRAC","cbSiretSiren":"529443186","cbAdresse1":"1 Boulevard Omer Sarraut","cbAdresse2":"","cbCp":"11000","cbVille":"CARCASSONNE","spLibelle1":"","spLibelle2":"","acDateSerment":"","coordinates":[2.3534976,43.2162959]}]