[{"NomBarreau":"MONTPELLIER","avNom":"BEIGNON","avPrenom":"Justine","cbRaisonSociale":"BEIGNON JUSTINE","cbSiretSiren":"809041627","cbAdresse1":"26 rue du Prado","cbAdresse2":"","cbCp":"34170","cbVille":"CASTELNAU LE LEZ","spLibelle1":"","spLibelle2":"","acDateSerment":"","coordinates":[3.8967648,43.6291942]},{"NomBarreau":"MONTPELLIER","avNom":"BENAMOU","avPrenom":"Rébecca","cbRaisonSociale":"DBGL","cbSiretSiren":"524619103","cbAdresse1":"1 Chemin de Borie","cbAdresse2":"Parc de Bellegarde - Bt A","cbCp":"34170","cbVille":"CASTELNAU LE LEZ","spLibelle1":"","spLibelle2":"","acDateSerment":"","coordinates":[3.9103019,43.6223013]},{"NomBarreau":"MONTPELLIER","avNom":"BLANC","avPrenom":"Loic","cbRaisonSociale":"DBGL","cbSiretSiren":"524619103","cbAdresse1":"1 Chemin de Borie","cbAdresse2":"Parc de Bellegarde - Bt A","cbCp":"34170","cbVille":"CASTELNAU LE LEZ","spLibelle1":"Droit fiscal et droit douanier","spLibelle2":"","acDateSerment":"","coordinates":[3.9103019,43.6223013]},{"NomBarreau":"MONTPELLIER","avNom":"BORIAT","avPrenom":"Jérome","cbRaisonSociale":"BORIAT JERU”ME","cbSiretSiren":"834729634","cbAdresse1":"1 Chemin de Borie","cbAdresse2":"Parc de Bellegarde - Bt A","cbCp":"34170","cbVille":"CASTELNAU LE LEZ","spLibelle1":"","spLibelle2":"","acDateSerment":"","coordinates":[3.9103019,43.6223013]},{"NomBarreau":"MONTPELLIER","avNom":"BOULET","avPrenom":"Guillaume","cbRaisonSociale":"DBGL","cbSiretSiren":"524619103","cbAdresse1":"1 Chemin de Borie","cbAdresse2":"Parc de Bellegarde - Bt A","cbCp":"34170","cbVille":"CASTELNAU LE LEZ","spLibelle1":"Droit fiscal et droit douanier","spLibelle2":"","acDateSerment":"","coordinates":[3.9103019,43.6223013]},{"NomBarreau":"MONTPELLIER","avNom":"BRIBES","avPrenom":"Bérengère","cbRaisonSociale":"MEYNADIER - BRIBES AVOCATS","cbSiretSiren":"840687826","cbAdresse1":"26 rue du Prado","cbAdresse2":"Cap Concorde","cbCp":"34170","cbVille":"CASTELNAU LE LEZ","spLibelle1":"","spLibelle2":"","acDateSerment":"","coordinates":[3.8967648,43.6291942]},{"NomBarreau":"MONTPELLIER","avNom":"CHOLET","avPrenom":"Sylvie","cbRaisonSociale":"CABINET SELINSKY CHOLET","cbSiretSiren":"521215863","cbAdresse1":"90 Rue Didier Daurat","cbAdresse2":"","cbCp":"34170","cbVille":"CASTELNAU LE LEZ","spLibelle1":"Droit commercial, des affaires et de la concurrence","spLibelle2":"","acDateSerment":"","coordinates":[3.9133927,43.6226314]},{"NomBarreau":"MONTPELLIER","avNom":"FERRANDO","avPrenom":"Jérome","cbRaisonSociale":"ETNA","cbSiretSiren":"521391078","cbAdresse1":"26 rue du Prado","cbAdresse2":"Cap Concorde","cbCp":"34170","cbVille":"CASTELNAU LE LEZ","spLibelle1":"","spLibelle2":"","acDateSerment":"","coordinates":[3.8967648,43.6291942]},{"NomBarreau":"MONTPELLIER","avNom":"GIMBERT","avPrenom":"Isabelle","cbRaisonSociale":"GIMBERT ISABELLE","cbSiretSiren":"332764653","cbAdresse1":"17 Avenue de la Galine","cbAdresse2":"Résidence Le Clairval Bt 2","cbCp":"34170","cbVille":"CASTELNAU LE LEZ","spLibelle1":"","spLibelle2":"","acDateSerment":"","coordinates":[3.8987553,43.6295783]},{"NomBarreau":"MONTPELLIER","avNom":"GLEIZE","avPrenom":"Jean-Louis","cbRaisonSociale":"DBGL","cbSiretSiren":"524619103","cbAdresse1":"1 Chemin de Borie","cbAdresse2":"Parc de Bellegarde - Bt A","cbCp":"34170","cbVille":"CASTELNAU LE LEZ","spLibelle1":"Droit fiscal et droit douanier","spLibelle2":"","acDateSerment":"","coordinates":[3.9103019,43.6223013]},{"NomBarreau":"MONTPELLIER","avNom":"GRIMALT","avPrenom":"Julie","cbRaisonSociale":"GRIMALT JULIE","cbSiretSiren":"893741199","cbAdresse1":"1 Chemin de Borie","cbAdresse2":"Parc de Bellegarde - Bt A","cbCp":"34170","cbVille":"CASTELNAU LE LEZ","spLibelle1":"","spLibelle2":"","acDateSerment":"","coordinates":[3.9103019,43.6223013]},{"NomBarreau":"MONTPELLIER","avNom":"LINOSSIER","avPrenom":"Christian","cbRaisonSociale":"DBGL","cbSiretSiren":"524619103","cbAdresse1":"1 Chemin de Borie","cbAdresse2":"Parc de Bellegarde - Bt A","cbCp":"34170","cbVille":"CASTELNAU LE LEZ","spLibelle1":"Droit des sociétés","spLibelle2":"","acDateSerment":"","coordinates":[3.9103019,43.6223013]},{"NomBarreau":"MONTPELLIER","avNom":"LOMBARDI","avPrenom":"Sophie","cbRaisonSociale":"LOMBARDI SOPHIE","cbSiretSiren":"432357697","cbAdresse1":"14 av. des Apollons","cbAdresse2":"Rés. Le Belvédère - Bt A 2","cbCp":"34170","cbVille":"CASTELNAU LE LEZ","spLibelle1":"","spLibelle2":"","acDateSerment":"","coordinates":[3.9231208,43.6420464]},{"NomBarreau":"MONTPELLIER","avNom":"MEYNADIER","avPrenom":"Fanny","cbRaisonSociale":"MEYNADIER - BRIBES AVOCATS","cbSiretSiren":"840687826","cbAdresse1":"26 rue du Prado","cbAdresse2":"Cap Concorde","cbCp":"34170","cbVille":"CASTELNAU LE LEZ","spLibelle1":"Droit immobilier","spLibelle2":"","acDateSerment":"","coordinates":[3.8967648,43.6291942]},{"NomBarreau":"MONTPELLIER","avNom":"NUNES","avPrenom":"Céline","cbRaisonSociale":"BREMOND NUNES AVOCATS","cbSiretSiren":"834716813","cbAdresse1":"90 rue Didier Daurat","cbAdresse2":"","cbCp":"34170","cbVille":"CASTELNAU LE LEZ","spLibelle1":"","spLibelle2":"","acDateSerment":"","coordinates":[3.9133927,43.6226314]},{"NomBarreau":"MONTPELLIER","avNom":"PASSET","avPrenom":"Solène","cbRaisonSociale":"PASSET SOLENE","cbSiretSiren":"539148718","cbAdresse1":"26 rue du Prado","cbAdresse2":"Prado Concorde","cbCp":"34170","cbVille":"CASTELNAU LE LEZ","spLibelle1":"Droit public","spLibelle2":"","acDateSerment":"","coordinates":[3.8967648,43.6291942]},{"NomBarreau":"MONTPELLIER","avNom":"ROUCOU","avPrenom":"Corinne","cbRaisonSociale":"ROUCOU CORINNE","cbSiretSiren":"401128251","cbAdresse1":"1 place du Forum","cbAdresse2":"Rés. l'Acropole","cbCp":"34170","cbVille":"CASTELNAU LE LEZ","spLibelle1":"","spLibelle2":"","acDateSerment":"","coordinates":[3.9239907,43.6448253]},{"NomBarreau":"MONTPELLIER","avNom":"VERNHES","avPrenom":"Lisa","cbRaisonSociale":"VERNHES LISA","cbSiretSiren":"880466479","cbAdresse1":"26 rue du Prado","cbAdresse2":"Cap Concorde","cbCp":"34170","cbVille":"CASTELNAU LE LEZ","spLibelle1":"","spLibelle2":"","acDateSerment":"","coordinates":[3.8967648,43.6291942]},{"NomBarreau":"MONTPELLIER","avNom":"VIDAL","avPrenom":"Elsa","cbRaisonSociale":"VIDAL AVOCATS","cbSiretSiren":"840724769","cbAdresse1":"26 rue du Prado","cbAdresse2":"Cap Concorde","cbCp":"34170","cbVille":"CASTELNAU LE LEZ","spLibelle1":"Droit du travail","spLibelle2":"","acDateSerment":"","coordinates":[3.8967648,43.6291942]}]