[{"NomBarreau":"CHALONS en CHAMPAGNE","avNom":"ALMEIDA","avPrenom":"Elisabeth","cbRaisonSociale":"ALMEIDA-ANTUNES","cbSiretSiren":"504616871","cbAdresse1":"10 Quai Notre Dame","cbAdresse2":"","cbCp":"51000","cbVille":"CHALONS-EN-CHAMPAGNE","spLibelle1":"","spLibelle2":"","acDateSerment":"","coordinates":[4.362438400135355,48.958321]},{"NomBarreau":"CHALONS en CHAMPAGNE","avNom":"ANTUNES ALMEIDA","avPrenom":"Ana","cbRaisonSociale":"ALMEIDA-ANTUNES","cbSiretSiren":"504616871","cbAdresse1":"10 Quai Notre Dame","cbAdresse2":"","cbCp":"51000","cbVille":"CHALONS-EN-CHAMPAGNE","spLibelle1":"","spLibelle2":"","acDateSerment":"","coordinates":[4.362438400135355,48.958321]},{"NomBarreau":"CHALONS en CHAMPAGNE","avNom":"BIAUSQUE-SICARD","avPrenom":"Carine","cbRaisonSociale":"BIAUSQUE SICARD","cbSiretSiren":"384044004","cbAdresse1":"3 rue des Cordeliers","cbAdresse2":"","cbCp":"51000","cbVille":"CHALONS-EN-CHAMPAGNE","spLibelle1":"","spLibelle2":"","acDateSerment":"","coordinates":[4.3606458,48.9552242]},{"NomBarreau":"CHALONS en CHAMPAGNE","avNom":"DEVARENNE","avPrenom":"Pierre","cbRaisonSociale":"DEVARENNE ASSOCIES GRAND EST","cbSiretSiren":"448300434","cbAdresse1":"16 Cours d'Ormesson","cbAdresse2":"","cbCp":"51000","cbVille":"CHALONS-EN-CHAMPAGNE","spLibelle1":"Droit public","spLibelle2":"Droit rural","acDateSerment":"","coordinates":[4.3638019,48.9525263]},{"NomBarreau":"CHALONS en CHAMPAGNE","avNom":"FLORY","avPrenom":"Patricia","cbRaisonSociale":"FLORY-ZAVAGLIA","cbSiretSiren":"533982229","cbAdresse1":"7 rue Gantelet","cbAdresse2":"","cbCp":"51000","cbVille":"CHALONS-EN-CHAMPAGNE","spLibelle1":"","spLibelle2":"","acDateSerment":"","coordinates":[4.3611286,48.9565574]},{"NomBarreau":"CHALONS en CHAMPAGNE","avNom":"GARNIER","avPrenom":"Valentine","cbRaisonSociale":"DEVARENNE ASSOCIES GRAND EST","cbSiretSiren":"448300434","cbAdresse1":"16 Cours d'Ormesson","cbAdresse2":"","cbCp":"51000","cbVille":"CHALONS-EN-CHAMPAGNE","spLibelle1":"","spLibelle2":"","acDateSerment":"","coordinates":[4.3638019,48.9525263]},{"NomBarreau":"CHALONS en CHAMPAGNE","avNom":"GUILBAULT","avPrenom":"Anne","cbRaisonSociale":"GUILBAULT ","cbSiretSiren":"510373913","cbAdresse1":"1 quai Barbat","cbAdresse2":"","cbCp":"51000","cbVille":"CHALONS-EN-CHAMPAGNE","spLibelle1":"","spLibelle2":"","acDateSerment":"","coordinates":[4.3621462,48.9579925]},{"NomBarreau":"CHALONS en CHAMPAGNE","avNom":"PEZE","avPrenom":"Frédéric","cbRaisonSociale":"F. PEZE","cbSiretSiren":"443352638","cbAdresse1":"12 Cours d'Ormesson","cbAdresse2":"","cbCp":"51000","cbVille":"CHALONS-EN-CHAMPAGNE","spLibelle1":"","spLibelle2":"","acDateSerment":"","coordinates":[4.3638019,48.9525263]},{"NomBarreau":"CHALONS en CHAMPAGNE","avNom":"ZAVAGLIA","avPrenom":"Camille","cbRaisonSociale":"FLORY-ZAVAGLIA","cbSiretSiren":"533982229","cbAdresse1":"7 rue Gantelet","cbAdresse2":"","cbCp":"51000","cbVille":"CHALONS-EN-CHAMPAGNE","spLibelle1":"","spLibelle2":"","acDateSerment":"","coordinates":[4.3611286,48.9565574]}]