[{"NomBarreau":"SENLIS","avNom":"BOGADO","avPrenom":"Diogo","cbRaisonSociale":"BOGADO ","cbSiretSiren":"902597517","cbAdresse1":"46 rue d'orgemont","cbAdresse2":"","cbCp":"60500","cbVille":"CHANTILLY","spLibelle1":"","spLibelle2":"","acDateSerment":"","coordinates":[2.459336,49.1908713]},{"NomBarreau":"SENLIS","avNom":"CRONNIER","avPrenom":"Mélanie","cbRaisonSociale":"CRONNIER","cbSiretSiren":"418313532","cbAdresse1":"46 rue d'orgemont","cbAdresse2":"","cbCp":"60500","cbVille":"CHANTILLY","spLibelle1":"","spLibelle2":"","acDateSerment":"","coordinates":[2.459336,49.1908713]},{"NomBarreau":"SENLIS","avNom":"DUBOILLE","avPrenom":"Philippe","cbRaisonSociale":"DUBOILLE","cbSiretSiren":"329774624","cbAdresse1":"38 rue d'Aumale","cbAdresse2":"","cbCp":"60500","cbVille":"CHANTILLY","spLibelle1":"","spLibelle2":"","acDateSerment":"","coordinates":[2.4665233,49.1933217]},{"NomBarreau":"SENLIS","avNom":"GARNIER","avPrenom":"Frédéric","cbRaisonSociale":"LEQUILLERIER - GARNIER","cbSiretSiren":"851879692","cbAdresse1":"1 Impasse souchier","cbAdresse2":"","cbCp":"60500","cbVille":"CHANTILLY","spLibelle1":"","spLibelle2":"","acDateSerment":"","coordinates":[2.4692343,49.1951346]},{"NomBarreau":"SENLIS","avNom":"GIMENEZ","avPrenom":"Eve","cbRaisonSociale":"GIMENEZ ","cbSiretSiren":"838148641","cbAdresse1":"12 rue d'aumale","cbAdresse2":"","cbCp":"60500","cbVille":"CHANTILLY","spLibelle1":"","spLibelle2":"","acDateSerment":"","coordinates":[2.4700786,49.1934202]},{"NomBarreau":"SENLIS","avNom":"JENOUVRIER-BUFQUIN","avPrenom":"Blandine","cbRaisonSociale":"JENOUVRIER-BUFQUIN","cbSiretSiren":"344414438","cbAdresse1":"6 rue des Jardins","cbAdresse2":"","cbCp":"60500","cbVille":"CHANTILLY","spLibelle1":"Droit de la famille, des personnes et de leur patrimoine","spLibelle2":"","acDateSerment":"","coordinates":[2.4597538,49.1929129]},{"NomBarreau":"SENLIS","avNom":"LABRIKI","avPrenom":"Zoulikha","cbRaisonSociale":"LABRIKI ","cbSiretSiren":"844534826","cbAdresse1":"38 Rue d'Aumale","cbAdresse2":"","cbCp":"60500","cbVille":"CHANTILLY","spLibelle1":"","spLibelle2":"","acDateSerment":"","coordinates":[2.4665233,49.1933217]},{"NomBarreau":"SENLIS","avNom":"LEQUILLERIER","avPrenom":"Serge","cbRaisonSociale":"LEQUILLERIER - GARNIER","cbSiretSiren":"851879692","cbAdresse1":"1 Impasse souchier","cbAdresse2":"","cbCp":"60500","cbVille":"CHANTILLY","spLibelle1":"Droit commercial, des affaires et de la concurrence","spLibelle2":"Droit public","acDateSerment":"","coordinates":[2.4692343,49.1951346]},{"NomBarreau":"SENLIS","avNom":"SADOUDI","avPrenom":"Marc","cbRaisonSociale":"SADOUDI","cbSiretSiren":"484954797","cbAdresse1":"9 rue de Gouvieux","cbAdresse2":"","cbCp":"60500","cbVille":"CHANTILLY","spLibelle1":"","spLibelle2":"","acDateSerment":"","coordinates":[2.4588915,49.1918651]}]