[{"NomBarreau":"ARDENNES","avNom":"ALLOUX","avPrenom":"Sandrine","cbRaisonSociale":"ALLOUX SANDRINE","cbSiretSiren":"421701541","cbAdresse1":"26 AVENUE D'ARCHES","cbAdresse2":"","cbCp":"8000","cbVille":"CHARLEVILLE MEZIERES","spLibelle1":"","spLibelle2":"","acDateSerment":"","coordinates":[4.719498,49.763479]},{"NomBarreau":"ARDENNES","avNom":"AOUIDET","avPrenom":"Nebil","cbRaisonSociale":"AOUIDET NEBIL","cbSiretSiren":"917404766","cbAdresse1":"56 Cours Briand","cbAdresse2":"","cbCp":"8000","cbVille":"CHARLEVILLE MEZIERES","spLibelle1":"","spLibelle2":"","acDateSerment":"","coordinates":[4.7194652,49.7665693]},{"NomBarreau":"ARDENNES","avNom":"AUBERSON","avPrenom":"Florian","cbRaisonSociale":"SCP AUBERSON DESINGLY","cbSiretSiren":"813295086","cbAdresse1":"2 rue de Lorraine","cbAdresse2":"","cbCp":"8000","cbVille":"CHARLEVILLE MEZIERES","spLibelle1":"","spLibelle2":"","acDateSerment":"","coordinates":[4.718219,49.764269]},{"NomBarreau":"ARDENNES","avNom":"BLOCQUAUX","avPrenom":"Pierre","cbRaisonSociale":"SCP PIERRE BLOCQUAUX & ASSOCIES","cbSiretSiren":"780252821","cbAdresse1":"10 RUE JEAN-BAPTISTE LEFORT","cbAdresse2":"","cbCp":"8000","cbVille":"CHARLEVILLE MEZIERES","spLibelle1":"","spLibelle2":"","acDateSerment":"","coordinates":[4.7294855,49.740708]},{"NomBarreau":"ARDENNES","avNom":"BOURBOUZE","avPrenom":"Thierry","cbRaisonSociale":"BOURBOUZE THIERRY","cbSiretSiren":"327063103","cbAdresse1":"55 Rue Ferroul","cbAdresse2":"","cbCp":"8000","cbVille":"CHARLEVILLE MEZIERES","spLibelle1":"","spLibelle2":"","acDateSerment":"","coordinates":[4.723682,49.745081]},{"NomBarreau":"ARDENNES","avNom":"CHANTRENNE","avPrenom":"Constant","cbRaisonSociale":"CHANTRENNE CONSTANT","cbSiretSiren":"910583236","cbAdresse1":"8 BOULEVARD LOUIS ARAGON","cbAdresse2":"","cbCp":"8000","cbVille":"CHARLEVILLE MEZIERES","spLibelle1":"","spLibelle2":"","acDateSerment":"","coordinates":[4.7230787,49.7397972]},{"NomBarreau":"ARDENNES","avNom":"CHERRIH","avPrenom":"Armelle","cbRaisonSociale":"CHERRIH ARMELLE","cbSiretSiren":"404315038","cbAdresse1":"8 BOULEVARD LOUIS ARAGON","cbAdresse2":"","cbCp":"8000","cbVille":"CHARLEVILLE MEZIERES","spLibelle1":"","spLibelle2":"","acDateSerment":"","coordinates":[4.7230787,49.7397972]},{"NomBarreau":"ARDENNES","avNom":"COLINET","avPrenom":"Isabelle","cbRaisonSociale":"COLINET ISABELLE","cbSiretSiren":"500216965","cbAdresse1":"10 place bauchart","cbAdresse2":"","cbCp":"8000","cbVille":"CHARLEVILLE MEZIERES","spLibelle1":"","spLibelle2":"","acDateSerment":"","coordinates":[4.724246242127775,49.7482544]},{"NomBarreau":"ARDENNES","avNom":"DELGENES","avPrenom":"Richard","cbRaisonSociale":"DELGENES JUSTINE DELGENES","cbSiretSiren":"314813197","cbAdresse1":"1 PLACE WINSTON CHURCHILL","cbAdresse2":"","cbCp":"8000","cbVille":"CHARLEVILLE MEZIERES","spLibelle1":"","spLibelle2":"","acDateSerment":"","coordinates":[4.7215182,49.7723471]},{"NomBarreau":"ARDENNES","avNom":"DELVAL","avPrenom":"Marie-Claire","cbRaisonSociale":"MARIE CLAIRE DELVAL","cbSiretSiren":"845017011","cbAdresse1":"23 Avenue d'Arches","cbAdresse2":"","cbCp":"8000","cbVille":"CHARLEVILLE MEZIERES","spLibelle1":"","spLibelle2":"","acDateSerment":"","coordinates":[4.719042,49.762697]},{"NomBarreau":"ARDENNES","avNom":"DESINGLY","avPrenom":"Aurélien","cbRaisonSociale":"SCP AUBERSON DESINGLY","cbSiretSiren":"813295086","cbAdresse1":"2 rue de Lorraine","cbAdresse2":"","cbCp":"8000","cbVille":"CHARLEVILLE MEZIERES","spLibelle1":"","spLibelle2":"","acDateSerment":"","coordinates":[4.718219,49.764269]},{"NomBarreau":"ARDENNES","avNom":"DROIT","avPrenom":"Michel","cbRaisonSociale":"DROIT MICHEL","cbSiretSiren":"308415132","cbAdresse1":"21 AVENUE JEAN JAURES","cbAdresse2":"","cbCp":"8000","cbVille":"CHARLEVILLE MEZIERES","spLibelle1":"","spLibelle2":"","acDateSerment":"","coordinates":[4.7223827,49.7700777]},{"NomBarreau":"ARDENNES","avNom":"DUPUIS","avPrenom":"Hervé","cbRaisonSociale":"DUPUIS LACOURT MIGNE","cbSiretSiren":"315103424","cbAdresse1":"3 Quai Roussel","cbAdresse2":"","cbCp":"8000","cbVille":"CHARLEVILLE MEZIERES","spLibelle1":"","spLibelle2":"","acDateSerment":"","coordinates":[4.719861,49.762531]},{"NomBarreau":"ARDENNES","avNom":"DYMARSKI","avPrenom":"Franck","cbRaisonSociale":"DYMARSKI FRANCK","cbSiretSiren":"384569737","cbAdresse1":"8 BOULEVARD LOUIS ARAGON","cbAdresse2":"","cbCp":"8000","cbVille":"CHARLEVILLE MEZIERES","spLibelle1":"","spLibelle2":"","acDateSerment":"","coordinates":[4.7230787,49.7397972]},{"NomBarreau":"ARDENNES","avNom":"FOULON","avPrenom":"Elodie","cbRaisonSociale":"FOULON ELODIE","cbSiretSiren":"441992278","cbAdresse1":"11 rue Baulmont","cbAdresse2":"","cbCp":"8000","cbVille":"CHARLEVILLE MEZIERES","spLibelle1":"","spLibelle2":"","acDateSerment":"","coordinates":[4.710036,49.773023]},{"NomBarreau":"ARDENNES","avNom":"GUILLAUME","avPrenom":"Alicia","cbRaisonSociale":"GUILLAUME ALICIA","cbSiretSiren":"892890690","cbAdresse1":"1 PLACE WINSTON CHURCHILL","cbAdresse2":"","cbCp":"8000","cbVille":"CHARLEVILLE MEZIERES","spLibelle1":"","spLibelle2":"","acDateSerment":"","coordinates":[4.7215182,49.7723471]},{"NomBarreau":"ARDENNES","avNom":"GUILLIN","avPrenom":"Aline","cbRaisonSociale":"GUILLIN ALINE","cbSiretSiren":"824814073","cbAdresse1":"1 PLACE WINSTON CHURCHILL","cbAdresse2":"","cbCp":"8000","cbVille":"CHARLEVILLE MEZIERES","spLibelle1":"","spLibelle2":"","acDateSerment":"","coordinates":[4.7215182,49.7723471]},{"NomBarreau":"ARDENNES","avNom":"JUSTINE","avPrenom":"Fabienne","cbRaisonSociale":"DELGENES JUSTINE DELGENES","cbSiretSiren":"314813197","cbAdresse1":"1 PLACE WINSTON CHURCHILL","cbAdresse2":"","cbCp":"8000","cbVille":"CHARLEVILLE MEZIERES","spLibelle1":"","spLibelle2":"","acDateSerment":"","coordinates":[4.7215182,49.7723471]},{"NomBarreau":"ARDENNES","avNom":"LACOURT","avPrenom":"Emeric","cbRaisonSociale":"DUPUIS LACOURT MIGNE","cbSiretSiren":"315103424","cbAdresse1":"3 Quai Roussel","cbAdresse2":"","cbCp":"8000","cbVille":"CHARLEVILLE MEZIERES","spLibelle1":"","spLibelle2":"","acDateSerment":"","coordinates":[4.719861,49.762531]},{"NomBarreau":"ARDENNES","avNom":"LARDAUX","avPrenom":"Marie","cbRaisonSociale":"MEDEAU-LARDAUX","cbSiretSiren":"431526730","cbAdresse1":"8 BOULEVARD LOUIS ARAGON","cbAdresse2":"","cbCp":"8000","cbVille":"CHARLEVILLE MEZIERES","spLibelle1":"","spLibelle2":"","acDateSerment":"","coordinates":[4.7230787,49.7397972]},{"NomBarreau":"ARDENNES","avNom":"LIEGEOIS","avPrenom":"Catherine","cbRaisonSociale":"LIEGEOIS","cbSiretSiren":"306425778","cbAdresse1":"1 RUE DE LORRAINE","cbAdresse2":"","cbCp":"8000","cbVille":"CHARLEVILLE MEZIERES","spLibelle1":"","spLibelle2":"","acDateSerment":"","coordinates":[4.7184925,49.7643591]},{"NomBarreau":"ARDENNES","avNom":"MAHE","avPrenom":"Oceane","cbRaisonSociale":"MAHE OCEANE","cbSiretSiren":"880200589","cbAdresse1":"10 RUE JEAN-BAPTISTE LEFORT","cbAdresse2":"","cbCp":"8000","cbVille":"CHARLEVILLE MEZIERES","spLibelle1":"","spLibelle2":"","acDateSerment":"","coordinates":[4.7294855,49.740708]},{"NomBarreau":"ARDENNES","avNom":"MANIL","avPrenom":"Patrick","cbRaisonSociale":"MANIL","cbSiretSiren":"350854923","cbAdresse1":"34 avenue d'Arches","cbAdresse2":"","cbCp":"8000","cbVille":"CHARLEVILLE MEZIERES","spLibelle1":"","spLibelle2":"","acDateSerment":"","coordinates":[4.719623,49.764375]},{"NomBarreau":"ARDENNES","avNom":"MARIAGE","avPrenom":"Valéry","cbRaisonSociale":"MARIAGE VALERY","cbSiretSiren":"434332656","cbAdresse1":"8 Rue des Ecoles","cbAdresse2":"","cbCp":"8110","cbVille":"CHARLEVILLE MEZIERES","spLibelle1":"","spLibelle2":"","acDateSerment":"","coordinates":[4.8246635,50.1388241]},{"NomBarreau":"ARDENNES","avNom":"MAVEL","avPrenom":"Laetitia","cbRaisonSociale":"MAVEL LAETITIA","cbSiretSiren":"845004936","cbAdresse1":"3 Quai Roussel","cbAdresse2":"","cbCp":"8000","cbVille":"CHARLEVILLE MEZIERES","spLibelle1":"","spLibelle2":"","acDateSerment":"","coordinates":[4.719861,49.762531]},{"NomBarreau":"ARDENNES","avNom":"MAYOLET","avPrenom":"Quentin","cbRaisonSociale":"LEDOUX FERRI RIOU-JACQUES TOUCHON MAYOLET","cbSiretSiren":"305379000","cbAdresse1":"56 Cours Briand","cbAdresse2":"","cbCp":"8000","cbVille":"CHARLEVILLE MEZIERES","spLibelle1":"","spLibelle2":"","acDateSerment":"","coordinates":[4.7194652,49.7665693]},{"NomBarreau":"ARDENNES","avNom":"MEDEAU","avPrenom":"Xavier","cbRaisonSociale":"MEDEAU-LARDAUX","cbSiretSiren":"431526730","cbAdresse1":"8 BOULEVARD LOUIS ARAGON","cbAdresse2":"","cbCp":"8000","cbVille":"CHARLEVILLE MEZIERES","spLibelle1":"Droit du travail","spLibelle2":"","acDateSerment":"","coordinates":[4.7230787,49.7397972]},{"NomBarreau":"ARDENNES","avNom":"MIGNE","avPrenom":"Pierre Yves","cbRaisonSociale":"DUPUIS LACOURT MIGNE","cbSiretSiren":"315103424","cbAdresse1":"3 Quai Roussel","cbAdresse2":"","cbCp":"8000","cbVille":"CHARLEVILLE MEZIERES","spLibelle1":"","spLibelle2":"","acDateSerment":"","coordinates":[4.719861,49.762531]},{"NomBarreau":"ARDENNES","avNom":"PHOUR","avPrenom":"Jonathan","cbRaisonSociale":"PHOUR JONATHAN","cbSiretSiren":"519727762","cbAdresse1":"1 RUE DE LORRAINE","cbAdresse2":"","cbCp":"8000","cbVille":"CHARLEVILLE MEZIERES","spLibelle1":"","spLibelle2":"","acDateSerment":"","coordinates":[4.7184925,49.7643591]},{"NomBarreau":"ARDENNES","avNom":"RAHOLA","avPrenom":"Charles Louis","cbRaisonSociale":"RAHOLA CREUSAT LEFEVRE","cbSiretSiren":"393944574","cbAdresse1":"23 AVENUE D'ARCHES","cbAdresse2":"","cbCp":"8000","cbVille":"CHARLEVILLE MEZIERES","spLibelle1":"","spLibelle2":"","acDateSerment":"","coordinates":[4.719042,49.762697]},{"NomBarreau":"ARDENNES","avNom":"RIOU-JACQUES","avPrenom":"Sylvie","cbRaisonSociale":"LEDOUX FERRI RIOU-JACQUES TOUCHON MAYOLET","cbSiretSiren":"305379000","cbAdresse1":"56 Cours Briand","cbAdresse2":"","cbCp":"8000","cbVille":"CHARLEVILLE MEZIERES","spLibelle1":"Droit du crédit et de la consommation","spLibelle2":"Droit immobilier","acDateSerment":"","coordinates":[4.7194652,49.7665693]},{"NomBarreau":"ARDENNES","avNom":"TOUCHON","avPrenom":"Mélanie","cbRaisonSociale":"LEDOUX FERRI RIOU-JACQUES TOUCHON MAYOLET","cbSiretSiren":"305379000","cbAdresse1":"56 Cours Briand","cbAdresse2":"","cbCp":"8000","cbVille":"CHARLEVILLE MEZIERES","spLibelle1":"","spLibelle2":"","acDateSerment":"","coordinates":[4.7194652,49.7665693]},{"NomBarreau":"ARDENNES","avNom":"VAUCOIS","avPrenom":"Christophe","cbRaisonSociale":"VAUCOIS CHRISTOPHE","cbSiretSiren":"338922917","cbAdresse1":"15 boulevard Gambetta","cbAdresse2":"","cbCp":"8000","cbVille":"CHARLEVILLE MEZIERES","spLibelle1":"Droit commercial, des affaires et de la concurrence","spLibelle2":"Droit du travail","acDateSerment":"","coordinates":[4.717883,49.770805]},{"NomBarreau":"ARDENNES","avNom":"VIDAL","avPrenom":"Pauline","cbRaisonSociale":"VIDAL PAULINE","cbSiretSiren":"799552831","cbAdresse1":"64 rue Voltaire","cbAdresse2":"","cbCp":"8000","cbVille":"CHARLEVILLE MEZIERES","spLibelle1":"","spLibelle2":"","acDateSerment":"","coordinates":[4.718537,49.765635]}]