[{"NomBarreau":"POITIERS","avNom":"BALLEREAU","avPrenom":"Florence","cbRaisonSociale":"BALLEREAU FLORENCE","cbSiretSiren":"390614840","cbAdresse1":"32 Avenue Georges CLEMENCEAU","cbAdresse2":"","cbCp":"86100","cbVille":"CHATELLERAULT","spLibelle1":"","spLibelle2":"","acDateSerment":"","coordinates":[0.548247,46.8176091]},{"NomBarreau":"POITIERS","avNom":"COTTET","avPrenom":"Xavier","cbRaisonSociale":"COTTET XAVIER","cbSiretSiren":"477967699","cbAdresse1":"32 Avenue Pierre Abelin","cbAdresse2":"Résidence Descartes","cbCp":"86100","cbVille":"CHATELLERAULT","spLibelle1":"","spLibelle2":"","acDateSerment":"","coordinates":[0.5435198,46.8086387]},{"NomBarreau":"POITIERS","avNom":"DIA","avPrenom":"Ibrahima Niass","cbRaisonSociale":"DIA AVOCAT","cbSiretSiren":"851976613","cbAdresse1":"25 Avenue Georges CLEMENCEAU","cbAdresse2":"","cbCp":"86100","cbVille":"CHATELLERAULT","spLibelle1":"","spLibelle2":"","acDateSerment":"","coordinates":[0.5484389,46.8176757]},{"NomBarreau":"POITIERS","avNom":"MOREIRA MESQUITA","avPrenom":"Claudia","cbRaisonSociale":"CMM-AVOCAT","cbSiretSiren":"","cbAdresse1":"22 Rue des Scieurs","cbAdresse2":"","cbCp":"86100","cbVille":"CHATELLERAULT","spLibelle1":"","spLibelle2":"","acDateSerment":"","coordinates":[0.5464946,46.8141806]},{"NomBarreau":"POITIERS","avNom":"PICHEREAU-SAMSON","avPrenom":"Hélène","cbRaisonSociale":"PICHEREAU-SAMSON HELENE","cbSiretSiren":"823779848","cbAdresse1":"88 Boulevard Blossac","cbAdresse2":"","cbCp":"86100","cbVille":"CHATELLERAULT","spLibelle1":"","spLibelle2":"","acDateSerment":"","coordinates":[0.5461674,46.8187056]},{"NomBarreau":"POITIERS","avNom":"TRIBOT","avPrenom":"Laurent","cbRaisonSociale":"TRIBOT LAURENT","cbSiretSiren":"349450585","cbAdresse1":"34 Avenue Pierre Abelin","cbAdresse2":"Résidence Descartes","cbCp":"86100","cbVille":"CHATELLERAULT","spLibelle1":"","spLibelle2":"","acDateSerment":"","coordinates":[0.5436351,46.8092422]}]