[{"NomBarreau":"HAUTS-DE-SEINE","avNom":"ACHACHE","avPrenom":"Alice","cbRaisonSociale":"ACHACHE ALICE","cbSiretSiren":"835032236","cbAdresse1":"90 Boulevard Jean Jaures","cbAdresse2":"","cbCp":"92110","cbVille":"CLICHY","spLibelle1":"","spLibelle2":"","acDateSerment":"","coordinates":[2.3037406,48.9033522]},{"NomBarreau":"HAUTS-DE-SEINE","avNom":"ANDRIEU","avPrenom":"Chloé","cbRaisonSociale":"ANDRIEU CHLOE","cbSiretSiren":"894219179","cbAdresse1":"12 rue Pasteur","cbAdresse2":"","cbCp":"92110","cbVille":"CLICHY","spLibelle1":"","spLibelle2":"","acDateSerment":"","coordinates":[2.300608,48.90331]},{"NomBarreau":"HAUTS-DE-SEINE","avNom":"DADOUAT","avPrenom":"Céline","cbRaisonSociale":"CASTLING AVOCATS","cbSiretSiren":"900273319","cbAdresse1":"12 rue Pasteur","cbAdresse2":"","cbCp":"92110","cbVille":"CLICHY","spLibelle1":"Droit pénal","spLibelle2":"","acDateSerment":"","coordinates":[2.300608,48.90331]},{"NomBarreau":"HAUTS-DE-SEINE","avNom":"GASCON","avPrenom":"Christine","cbRaisonSociale":"GASCON CHRISTINE","cbSiretSiren":"327966446","cbAdresse1":"14, Rue Poyer","cbAdresse2":"","cbCp":"92110","cbVille":"CLICHY","spLibelle1":"","spLibelle2":"","acDateSerment":"","coordinates":[2.313535,48.900611]},{"NomBarreau":"HAUTS-DE-SEINE","avNom":"KEPES","avPrenom":"Sonia","cbRaisonSociale":"KEPES SONIA","cbSiretSiren":"799242490","cbAdresse1":"14 rue Poyer","cbAdresse2":"","cbCp":"92110","cbVille":"CLICHY","spLibelle1":"","spLibelle2":"","acDateSerment":"","coordinates":[2.313535,48.900611]},{"NomBarreau":"HAUTS-DE-SEINE","avNom":"NIAMBA","avPrenom":"Laetitia","cbRaisonSociale":"ANETIA AVOCATS","cbSiretSiren":"848895652","cbAdresse1":"54 rue du Landy","cbAdresse2":"","cbCp":"92110","cbVille":"CLICHY","spLibelle1":"","spLibelle2":"","acDateSerment":"","coordinates":[2.308302,48.905689]},{"NomBarreau":"HAUTS-DE-SEINE","avNom":"POH MANZAM","avPrenom":"Liliane","cbRaisonSociale":"ANETIA AVOCATS","cbSiretSiren":"848895652","cbAdresse1":"54 rue du Landy","cbAdresse2":"","cbCp":"92110","cbVille":"CLICHY","spLibelle1":"","spLibelle2":"","acDateSerment":"","coordinates":[2.308302,48.905689]},{"NomBarreau":"HAUTS-DE-SEINE","avNom":"TARI","avPrenom":"Rakiatou Vanessa","cbRaisonSociale":"TARI RAKIATOU VANESSA","cbSiretSiren":"830275509","cbAdresse1":"14/16 rue des Cailloux","cbAdresse2":"","cbCp":"92110","cbVille":"CLICHY","spLibelle1":"","spLibelle2":"","acDateSerment":"","coordinates":[2.3065901,48.8966723]}]