[{"NomBarreau":"HAUTE-SAONE","avNom":"BAUDRY","avPrenom":"Emilie","cbRaisonSociale":"BALLORIN - BAUDRY","cbSiretSiren":"447709353","cbAdresse1":"8 rue Paul Verlaine","cbAdresse2":"AMPHYPOLIS","cbCp":"21000","cbVille":"DIJON","spLibelle1":"","spLibelle2":"","acDateSerment":"","coordinates":[5.0449642,47.3526772]},{"NomBarreau":"DIJON","avNom":"ANNE","avPrenom":"Sandrine","cbRaisonSociale":"ANNE SANDRINE","cbSiretSiren":"340605245","cbAdresse1":"15 BIS Bd Thiers","cbAdresse2":"","cbCp":"21000","cbVille":"DIJON","spLibelle1":"","spLibelle2":"","acDateSerment":"","coordinates":[5.047507,47.3246747]},{"NomBarreau":"DIJON","avNom":"APPAIX","avPrenom":"Sophie","cbRaisonSociale":"APPAIX SOPHIE","cbSiretSiren":"790731319","cbAdresse1":"3 Boulevard de Brosses","cbAdresse2":"","cbCp":"21000","cbVille":"DIJON","spLibelle1":"","spLibelle2":"","acDateSerment":"","coordinates":[5.0385019,47.3250816]},{"NomBarreau":"DIJON","avNom":"ARMESSEN","avPrenom":"Jean-Pierre","cbRaisonSociale":"ARMESSEN & JACQUES AVOCATS ","cbSiretSiren":"884401340","cbAdresse1":"60 rue Devosge","cbAdresse2":"","cbCp":"21000","cbVille":"DIJON","spLibelle1":"","spLibelle2":"","acDateSerment":"","coordinates":[5.0393429,47.3265522]},{"NomBarreau":"DIJON","avNom":"ARNAUD","avPrenom":"Anne Leonie","cbRaisonSociale":"ARNAUD ANNE-LEONIE","cbSiretSiren":"451657944","cbAdresse1":"25 Boulevard de Brosses","cbAdresse2":"","cbCp":"21000","cbVille":"DIJON","spLibelle1":"","spLibelle2":"","acDateSerment":"","coordinates":[5.0348097,47.3238664]},{"NomBarreau":"DIJON","avNom":"AUDARD","avPrenom":"Morgane","cbRaisonSociale":"AUDARD ET ASSOCIES","cbSiretSiren":"394248397","cbAdresse1":"11 Boulevard Voltaire","cbAdresse2":"L'ASTORIA","cbCp":"21000","cbVille":"DIJON","spLibelle1":"","spLibelle2":"","acDateSerment":"","coordinates":[5.0517773,47.3184622]},{"NomBarreau":"DIJON","avNom":"AUDARD","avPrenom":"Patrick","cbRaisonSociale":"AUDARD ET ASSOCIES","cbSiretSiren":"394248397","cbAdresse1":"11 Boulevard Voltaire","cbAdresse2":"L'ASTORIA","cbCp":"21000","cbVille":"DIJON","spLibelle1":"","spLibelle2":"","acDateSerment":"","coordinates":[5.0517773,47.3184622]},{"NomBarreau":"DIJON","avNom":"AUGE","avPrenom":"Pauline","cbRaisonSociale":"AUGE PAULINE","cbSiretSiren":"799754734","cbAdresse1":"21 Avenue Albert Camus","cbAdresse2":"BP 56605","cbCp":"21066","cbVille":"DIJON","spLibelle1":"","spLibelle2":"","acDateSerment":"","coordinates":[5.0469007,47.3533568]},{"NomBarreau":"DIJON","avNom":"BACHELET","avPrenom":"Mathilde","cbRaisonSociale":"BACHELET MATHILDE","cbSiretSiren":"804176717","cbAdresse1":"2 rue de Mirande","cbAdresse2":"","cbCp":"21000","cbVille":"DIJON","spLibelle1":"","spLibelle2":"","acDateSerment":"","coordinates":[5.049537,47.318739]},{"NomBarreau":"DIJON","avNom":"BAH","avPrenom":"Oumar","cbRaisonSociale":"BAH OUMAR","cbSiretSiren":"908394950","cbAdresse1":"1 C Boulevard de Champagne","cbAdresse2":"Tour Elithis ( 5ème étage)","cbCp":"21000","cbVille":"DIJON","spLibelle1":"","spLibelle2":"","acDateSerment":"","coordinates":[5.0524708,47.3290356]},{"NomBarreau":"DIJON","avNom":"BALDINI","avPrenom":"Delphine","cbRaisonSociale":"ROUSSEAU BALDINI PUJOL AVOCATS","cbSiretSiren":"911002079","cbAdresse1":"17 PLACE BOSSUET","cbAdresse2":"","cbCp":"21000","cbVille":"DIJON","spLibelle1":"","spLibelle2":"","acDateSerment":"","coordinates":[5.036997,47.3205056]},{"NomBarreau":"DIJON","avNom":"BALIMA","avPrenom":"Romuald","cbRaisonSociale":"BALIMA ROMUALD","cbSiretSiren":"893214445","cbAdresse1":"2 Avenue Garibaldi","cbAdresse2":"","cbCp":"21000","cbVille":"DIJON","spLibelle1":"","spLibelle2":"","acDateSerment":"","coordinates":[5.0441423,47.3274078]},{"NomBarreau":"DIJON","avNom":"BALLORIN","avPrenom":"Christophe","cbRaisonSociale":"BALLORIN-BAUDRY","cbSiretSiren":"447709353","cbAdresse1":"8 rue Paul Verlaine","cbAdresse2":"AMPHYPOLIS","cbCp":"21000","cbVille":"DIJON","spLibelle1":"Droit commercial, des affaires et de la concurrence","spLibelle2":"Droit des sociétés","acDateSerment":"","coordinates":[5.0449642,47.3526772]},{"NomBarreau":"DIJON","avNom":"BARBA","avPrenom":"Alexandre","cbRaisonSociale":"BARBA ALEXANDRE","cbSiretSiren":"834841496","cbAdresse1":"7 avenue Jean Bertin","cbAdresse2":"","cbCp":"21000","cbVille":"DIJON","spLibelle1":"","spLibelle2":"","acDateSerment":"","coordinates":[5.0425009,47.3557718]},{"NomBarreau":"DIJON","avNom":"BARBEROUSSE","avPrenom":"Natacha","cbRaisonSociale":"BARBEROUSSE NATACHA","cbSiretSiren":"403788581","cbAdresse1":"14 rue Jules Violle","cbAdresse2":"","cbCp":"21000","cbVille":"DIJON","spLibelle1":"Droit public","spLibelle2":"","acDateSerment":"","coordinates":[5.0559742,47.3204758]},{"NomBarreau":"DIJON","avNom":"BARDEL","avPrenom":"Agnès","cbRaisonSociale":"AGNES BARDEL","cbSiretSiren":"882666324","cbAdresse1":"6 boulevard Clemenceau","cbAdresse2":"","cbCp":"21000","cbVille":"DIJON","spLibelle1":"","spLibelle2":"","acDateSerment":"","coordinates":[5.0472052,47.3270749]},{"NomBarreau":"DIJON","avNom":"BARRE","avPrenom":"Charlotte","cbRaisonSociale":"FIDAL","cbSiretSiren":"525031522","cbAdresse1":"2 B Avenue de Marbotte","cbAdresse2":"MARBOTTE PLAZZA","cbCp":"21070","cbVille":"DIJON","spLibelle1":"","spLibelle2":"","acDateSerment":"","coordinates":[5.0522376,47.3309846]},{"NomBarreau":"DIJON","avNom":"BATAILLARD","avPrenom":"Catherine","cbRaisonSociale":"BATAILLARD CATHERINE","cbSiretSiren":"343900007","cbAdresse1":"9 rue Jean-Baptiste Lallemand","cbAdresse2":"","cbCp":"21000","cbVille":"DIJON","spLibelle1":"","spLibelle2":"","acDateSerment":"","coordinates":[5.0473147,47.3253813]},{"NomBarreau":"DIJON","avNom":"BAVOUX","avPrenom":"Stéphanie","cbRaisonSociale":"JURISTES ASSOCIES BFC","cbSiretSiren":"417883196","cbAdresse1":"10 rue Jean Giono","cbAdresse2":"Immeuble Antarès","cbCp":"21000","cbVille":"DIJON","spLibelle1":"","spLibelle2":"","acDateSerment":"","coordinates":[5.0506449,47.3531278]},{"NomBarreau":"DIJON","avNom":"BECHE","avPrenom":"Pierrick","cbRaisonSociale":"PIERRICK BECHE - CABINET D'AVOCATS","cbSiretSiren":"879943371","cbAdresse1":"2 rue de Mirande","cbAdresse2":"","cbCp":"21000","cbVille":"DIJON","spLibelle1":"Droit du travail","spLibelle2":"","acDateSerment":"","coordinates":[5.049537,47.318739]},{"NomBarreau":"DIJON","avNom":"BEKHEDDA","avPrenom":"Sophia","cbRaisonSociale":"BEKHEDDA SOPHIA","cbSiretSiren":"790734917","cbAdresse1":"7 Boulevard Rembrandt","cbAdresse2":"Immeuble Apogée C","cbCp":"21000","cbVille":"DIJON","spLibelle1":"","spLibelle2":"","acDateSerment":"","coordinates":[5.0465918,47.3484305]},{"NomBarreau":"DIJON","avNom":"BELLEVILLE","avPrenom":"Sophie","cbRaisonSociale":"BELLEVILLE SOPHIE","cbSiretSiren":"400532529","cbAdresse1":"9 rue Jean Renaud","cbAdresse2":"","cbCp":"21000","cbVille":"DIJON","spLibelle1":"","spLibelle2":"","acDateSerment":"","coordinates":[5.0359712,47.324052]},{"NomBarreau":"DIJON","avNom":"BEN HADJ YOUNES","avPrenom":"Sana","cbRaisonSociale":"BEN HADJ YOUNES SANA","cbSiretSiren":"805377876","cbAdresse1":"3 Boulevard de Brosses","cbAdresse2":"","cbCp":"21000","cbVille":"DIJON","spLibelle1":"","spLibelle2":"","acDateSerment":"","coordinates":[5.0385019,47.3250816]},{"NomBarreau":"DIJON","avNom":"BENEDETTI","avPrenom":"Charlotte","cbRaisonSociale":"BENEDETTI CHARLOTTE","cbSiretSiren":"880638846","cbAdresse1":"1 C boulevard de Champagne","cbAdresse2":"Tour Elithis - 5ème étage","cbCp":"21000","cbVille":"DIJON","spLibelle1":"","spLibelle2":"","acDateSerment":"","coordinates":[5.0524708,47.3290356]},{"NomBarreau":"DIJON","avNom":"BERNARD","avPrenom":"François-Xavier","cbRaisonSociale":"CABINET D'AVOCATS PORTALIS ASSOCIES - CAPA","cbSiretSiren":"420943102","cbAdresse1":"13 rue Marguerite Yourcenar","cbAdresse2":"","cbCp":"21000","cbVille":"DIJON","spLibelle1":"","spLibelle2":"","acDateSerment":"","coordinates":[5.0578736,47.3511979]},{"NomBarreau":"DIJON","avNom":"BERTHAT","avPrenom":"Vincent","cbRaisonSociale":"BERTHAT VINCENT","cbSiretSiren":"778208827","cbAdresse1":"40 Rue Chaudronnerie","cbAdresse2":"","cbCp":"21000","cbVille":"DIJON","spLibelle1":"","spLibelle2":"","acDateSerment":"","coordinates":[5.0446744,47.3228093]},{"NomBarreau":"DIJON","avNom":"BERTHELON","avPrenom":"Marine","cbRaisonSociale":"BERTHELON MARINE","cbSiretSiren":"822946646","cbAdresse1":"10 Boulevard Thiers","cbAdresse2":"","cbCp":"21000","cbVille":"DIJON","spLibelle1":"","spLibelle2":"","acDateSerment":"","coordinates":[5.0465759,47.3256299]},{"NomBarreau":"DIJON","avNom":"BIGARNET","avPrenom":"Valentin","cbRaisonSociale":"BIGARNET VALENTIN","cbSiretSiren":"880998307","cbAdresse1":"33 Rue Marceau","cbAdresse2":"","cbCp":"21000","cbVille":"DIJON","spLibelle1":"","spLibelle2":"","acDateSerment":"","coordinates":[5.0467494,47.3291408]},{"NomBarreau":"DIJON","avNom":"BILLARD","avPrenom":"Pierre Henry","cbRaisonSociale":"PIERRE HENRY BILLARD AVOCAT","cbSiretSiren":"824257174","cbAdresse1":"25 Boulevard de Brosses","cbAdresse2":"","cbCp":"21000","cbVille":"DIJON","spLibelle1":"","spLibelle2":"","acDateSerment":"","coordinates":[5.0348097,47.3238664]},{"NomBarreau":"DIJON","avNom":"BLIGNY","avPrenom":"Julie","cbRaisonSociale":"BLIGNY JULIE","cbSiretSiren":"413725540","cbAdresse1":"8 TER Boulevard Clemenceau","cbAdresse2":"","cbCp":"21000","cbVille":"DIJON","spLibelle1":"","spLibelle2":"","acDateSerment":"","coordinates":[5.0478765,47.3271407]},{"NomBarreau":"DIJON","avNom":"BONANDRINI","avPrenom":"Brigitte","cbRaisonSociale":"BRIGITTE BONANDRINI","cbSiretSiren":"349496562","cbAdresse1":"15 Place Grangier","cbAdresse2":"5 ème étage","cbCp":"21000","cbVille":"DIJON","spLibelle1":"","spLibelle2":"","acDateSerment":"","coordinates":[5.0367391,47.3232313]},{"NomBarreau":"DIJON","avNom":"BOUCHARD-STECH","avPrenom":"Sophie","cbRaisonSociale":"BOUCHARD - TRESSE","cbSiretSiren":"531622744","cbAdresse1":"62 rue Chabot Charny","cbAdresse2":"","cbCp":"21000","cbVille":"DIJON","spLibelle1":"Droit de la propriété intellectuelle","spLibelle2":"","acDateSerment":"","coordinates":[5.0433558,47.3180273]},{"NomBarreau":"DIJON","avNom":"BOUGHLITA","avPrenom":"Sabira","cbRaisonSociale":"BOUGHLITA SABIRA","cbSiretSiren":"492676788","cbAdresse1":"5 Rue de Mulhouse","cbAdresse2":"","cbCp":"21000","cbVille":"DIJON","spLibelle1":"","spLibelle2":"","acDateSerment":"","coordinates":[5.0495977,47.3254735]},{"NomBarreau":"DIJON","avNom":"BOUROTTE","avPrenom":"Michael","cbRaisonSociale":"VG CONSEIL","cbSiretSiren":"443877436","cbAdresse1":"10 rue Jean Giono","cbAdresse2":"Immeuble \"Le Neptune\"","cbCp":"21000","cbVille":"DIJON","spLibelle1":"","spLibelle2":"","acDateSerment":"","coordinates":[5.0506449,47.3531278]},{"NomBarreau":"DIJON","avNom":"BOURTOURAULT","avPrenom":"Rémy","cbRaisonSociale":"BOURTOURAULT REMY","cbSiretSiren":"337796767","cbAdresse1":"10 Boulevard Thiers","cbAdresse2":"","cbCp":"21000","cbVille":"DIJON","spLibelle1":"","spLibelle2":"","acDateSerment":"","coordinates":[5.0465759,47.3256299]},{"NomBarreau":"DIJON","avNom":"BOYE","avPrenom":"Emilie","cbRaisonSociale":"BOYE EMILIE","cbSiretSiren":"825286271","cbAdresse1":"13 rue Marguerite Yourcenar","cbAdresse2":"","cbCp":"21000","cbVille":"DIJON","spLibelle1":"","spLibelle2":"","acDateSerment":"","coordinates":[5.0578736,47.3511979]},{"NomBarreau":"DIJON","avNom":"BRIGAND","avPrenom":"Emilie","cbRaisonSociale":"BRIGAND EMILIE","cbSiretSiren":"845033778","cbAdresse1":"35 Rue Louis de Broglie","cbAdresse2":"","cbCp":"21000","cbVille":"DIJON","spLibelle1":"","spLibelle2":"","acDateSerment":"","coordinates":[5.0439573,47.357511]},{"NomBarreau":"DIJON","avNom":"BROCHERIEUX","avPrenom":"Jean-Michel","cbRaisonSociale":"BROCHERIEUX - GUERRIN-MAINGON","cbSiretSiren":"310005731","cbAdresse1":"14 BIS rue de la Poste","cbAdresse2":"","cbCp":"21000","cbVille":"DIJON","spLibelle1":"Droit de la sécurité sociale et de la protection sociale","spLibelle2":"Droit du travail","acDateSerment":"","coordinates":[5.0355195,47.3235188]},{"NomBarreau":"DIJON","avNom":"BROCHERIEUX","avPrenom":"Paul","cbRaisonSociale":"BROCHERIEUX PAUL","cbSiretSiren":"817680283","cbAdresse1":"14 BIS Rue de la Poste","cbAdresse2":"","cbCp":"21000","cbVille":"DIJON","spLibelle1":"","spLibelle2":"","acDateSerment":"","coordinates":[5.0355195,47.3235188]},{"NomBarreau":"DIJON","avNom":"BROUILLARD","avPrenom":"Pauline","cbRaisonSociale":"BROUILLARD PAULINE","cbSiretSiren":"818140832","cbAdresse1":"14 Rue Vauban","cbAdresse2":"","cbCp":"21000","cbVille":"DIJON","spLibelle1":"","spLibelle2":"","acDateSerment":"","coordinates":[5.0403317,47.3201404]},{"NomBarreau":"DIJON","avNom":"BRUGIERE","avPrenom":"Corinne","cbRaisonSociale":"CHATEAU PHILIPPE","cbSiretSiren":"399882554","cbAdresse1":"36 avenue de Langres","cbAdresse2":"Cour Saint Eloi","cbCp":"21000","cbVille":"DIJON","spLibelle1":"","spLibelle2":"","acDateSerment":"","coordinates":[5.0454415,47.3451948]},{"NomBarreau":"DIJON","avNom":"BRULTET","avPrenom":"Arnaud","cbRaisonSociale":"BRULTET AVOCAT","cbSiretSiren":"821444536","cbAdresse1":"48 Boulevard de la Marne","cbAdresse2":"","cbCp":"21000","cbVille":"DIJON","spLibelle1":"","spLibelle2":"","acDateSerment":"","coordinates":[5.0524716,47.3267961]},{"NomBarreau":"DIJON","avNom":"BUET","avPrenom":"Dominique","cbRaisonSociale":"BUET DOMINIQUE","cbSiretSiren":"388880692","cbAdresse1":"2 B Avenue de Marbotte","cbAdresse2":"Marbotte Plaza","cbCp":"21000","cbVille":"DIJON","spLibelle1":"Droit des sociétés","spLibelle2":"Droit fiscal et droit douanier","acDateSerment":"","coordinates":[5.0522376,47.3309846]},{"NomBarreau":"DIJON","avNom":"BURNIER","avPrenom":"Joffrey","cbRaisonSociale":"BURNIER JOFFREY","cbSiretSiren":"509795399","cbAdresse1":"11 rue Monge","cbAdresse2":"","cbCp":"21000","cbVille":"DIJON","spLibelle1":"","spLibelle2":"","acDateSerment":"","coordinates":[5.0356806,47.319604]},{"NomBarreau":"DIJON","avNom":"BUSCH","avPrenom":"Camille","cbRaisonSociale":"JURISTES ASSOCIES BFC","cbSiretSiren":"417883196","cbAdresse1":"10 rue Jean Giono","cbAdresse2":"Immeuble Antarès","cbCp":"21000","cbVille":"DIJON","spLibelle1":"","spLibelle2":"","acDateSerment":"","coordinates":[5.0506449,47.3531278]},{"NomBarreau":"DIJON","avNom":"CABANNES","avPrenom":"David ","cbRaisonSociale":"CABANNES DAVID","cbSiretSiren":"847905379","cbAdresse1":"3 Bd de Brosses","cbAdresse2":"","cbCp":"21000","cbVille":"DIJON","spLibelle1":"","spLibelle2":"","acDateSerment":"","coordinates":[5.0385019,47.3250816]},{"NomBarreau":"DIJON","avNom":"CABOT","avPrenom":"Marina","cbRaisonSociale":"CABOT MARINA","cbSiretSiren":"825356314","cbAdresse1":"1 Bd Georges Clemenceau","cbAdresse2":"","cbCp":"21000","cbVille":"DIJON","spLibelle1":"","spLibelle2":"","acDateSerment":"","coordinates":[5.0469481,47.3272272]},{"NomBarreau":"DIJON","avNom":"CAILLE","avPrenom":"Antonin","cbRaisonSociale":"CAILLE ANTONIN","cbSiretSiren":"909423543","cbAdresse1":"14 rue Jules Violle","cbAdresse2":"","cbCp":"21000","cbVille":"DIJON","spLibelle1":"","spLibelle2":"","acDateSerment":"","coordinates":[5.0559742,47.3204758]},{"NomBarreau":"DIJON","avNom":"CAMPANAUD","avPrenom":"Emilie","cbRaisonSociale":"CAMPANAUD EMILIE","cbSiretSiren":"502277858","cbAdresse1":"15 place Grangier","cbAdresse2":"","cbCp":"21000","cbVille":"DIJON","spLibelle1":"","spLibelle2":"","acDateSerment":"","coordinates":[5.0367391,47.3232313]},{"NomBarreau":"DIJON","avNom":"CAPELLE","avPrenom":"Justine","cbRaisonSociale":"CAPELLE JUSTINE","cbSiretSiren":"825150113","cbAdresse1":"12 Boulevard Clemenceau","cbAdresse2":"","cbCp":"21000","cbVille":"DIJON","spLibelle1":"","spLibelle2":"","acDateSerment":"","coordinates":[5.0484296,47.3274981]},{"NomBarreau":"DIJON","avNom":"CASAGRANDE","avPrenom":"Léa","cbRaisonSociale":"FIDAL","cbSiretSiren":"525031522","cbAdresse1":"2 B Avenue de Marbotte","cbAdresse2":"MARBOTTE PLAZZA","cbCp":"21070","cbVille":"DIJON","spLibelle1":"","spLibelle2":"","acDateSerment":"","coordinates":[5.0522376,47.3309846]},{"NomBarreau":"DIJON","avNom":"CASSEVILLE","avPrenom":"Marie","cbRaisonSociale":"CASSEVILLE MARIE","cbSiretSiren":"818237612","cbAdresse1":"3 Boulevard de Brosses","cbAdresse2":"","cbCp":"21000","cbVille":"DIJON","spLibelle1":"","spLibelle2":"","acDateSerment":"","coordinates":[5.0385019,47.3250816]},{"NomBarreau":"DIJON","avNom":"CAVIN-CHATELAIN","avPrenom":"Emilie","cbRaisonSociale":"CAVIN-CHATELAIN EMILIE","cbSiretSiren":"502352537","cbAdresse1":"4 Bd  Georges Clemenceau","cbAdresse2":"","cbCp":"21000","cbVille":"DIJON","spLibelle1":"","spLibelle2":"","acDateSerment":"","coordinates":[5.0468887,47.3268981]},{"NomBarreau":"DIJON","avNom":"CHAGUE-GERBAY","avPrenom":"Marie","cbRaisonSociale":"CHAGUE-GERBAY MARIE","cbSiretSiren":"509816872","cbAdresse1":"4 boulevard Georges Clemenceau","cbAdresse2":"","cbCp":"21000","cbVille":"DIJON","spLibelle1":"","spLibelle2":"","acDateSerment":"","coordinates":[5.0468887,47.3268981]},{"NomBarreau":"DIJON","avNom":"CHAMPLOIX","avPrenom":"Sylvain","cbRaisonSociale":"CHAMPLOIX SYLVAIN","cbSiretSiren":"440446045","cbAdresse1":"3 Boulevard de Brosses","cbAdresse2":"","cbCp":"21000","cbVille":"DIJON","spLibelle1":"","spLibelle2":"","acDateSerment":"","coordinates":[5.0385019,47.3250816]},{"NomBarreau":"DIJON","avNom":"CHARLIER","avPrenom":"Emmanuelle","cbRaisonSociale":"CHARLIER EMMANUELLE","cbSiretSiren":"801040767","cbAdresse1":"13 rue Marguerite Yourcenar","cbAdresse2":"","cbCp":"21000","cbVille":"DIJON","spLibelle1":"","spLibelle2":"","acDateSerment":"","coordinates":[5.0578736,47.3511979]},{"NomBarreau":"DIJON","avNom":"CHARLOPIN","avPrenom":"Laurent","cbRaisonSociale":"CHARLOPIN LAURENT","cbSiretSiren":"411074198","cbAdresse1":"27 Boulevard Thiers","cbAdresse2":"","cbCp":"21000","cbVille":"DIJON","spLibelle1":"","spLibelle2":"","acDateSerment":"","coordinates":[5.0486755,47.3244049]},{"NomBarreau":"DIJON","avNom":"CHATEAU","avPrenom":"Philippe","cbRaisonSociale":"CHATEAU PHILIPPE","cbSiretSiren":"399882554","cbAdresse1":"36 avenue de Langres","cbAdresse2":"Cour Saint Eloi","cbCp":"21000","cbVille":"DIJON","spLibelle1":"","spLibelle2":"","acDateSerment":"","coordinates":[5.0454415,47.3451948]},{"NomBarreau":"DIJON","avNom":"CHATELAIN","avPrenom":"Olivier","cbRaisonSociale":"PATRIAT ET ASSOCIES","cbSiretSiren":"808659007","cbAdresse1":"37 Rue Elsa Triolet","cbAdresse2":"","cbCp":"21000","cbVille":"DIJON","spLibelle1":"","spLibelle2":"","acDateSerment":"","coordinates":[5.051561,47.3656822]},{"NomBarreau":"DIJON","avNom":"CHATRIOT","avPrenom":"Christophe","cbRaisonSociale":"MAJNONI D'INTIGNANO-BUHAGIAR-JEANNIARD-PIZZOLATO-CHATRIOT","cbSiretSiren":"378898639","cbAdresse1":"29 C rue de Talant","cbAdresse2":"","cbCp":"21000","cbVille":"DIJON","spLibelle1":"","spLibelle2":"","acDateSerment":"","coordinates":[5.0238223,47.3287888]},{"NomBarreau":"DIJON","avNom":"CHAUMARD","avPrenom":"Jean-Hugues","cbRaisonSociale":"CHAUMARD TOURAILLE","cbSiretSiren":"312843501","cbAdresse1":"7 Place Auguste Dubois","cbAdresse2":"","cbCp":"21000","cbVille":"DIJON","spLibelle1":"","spLibelle2":"","acDateSerment":"","coordinates":[5.032708,47.3251977]},{"NomBarreau":"DIJON","avNom":"CHAVY","avPrenom":"Bérénice","cbRaisonSociale":"CHAVY BERENICE","cbSiretSiren":"831440532","cbAdresse1":"3 Bd de Brosses","cbAdresse2":"","cbCp":"21000","cbVille":"DIJON","spLibelle1":"","spLibelle2":"","acDateSerment":"","coordinates":[5.0385019,47.3250816]},{"NomBarreau":"DIJON","avNom":"CHOVONZIAK","avPrenom":"Carole","cbRaisonSociale":"JURISTES ASSOCIES BFC","cbSiretSiren":"417883196","cbAdresse1":"10 rue Jean Giono","cbAdresse2":"Immeuble Antarès","cbCp":"21000","cbVille":"DIJON","spLibelle1":"","spLibelle2":"","acDateSerment":"","coordinates":[5.0506449,47.3531278]},{"NomBarreau":"DIJON","avNom":"CIAUDO","avPrenom":"Alexandre","cbRaisonSociale":"THEMIS AVOCATS & ASSOCIES ","cbSiretSiren":"922057914","cbAdresse1":"7 Rue Michel Servet","cbAdresse2":"","cbCp":"21000","cbVille":"DIJON","spLibelle1":"","spLibelle2":"","acDateSerment":"","coordinates":[5.0352336,47.3248921]},{"NomBarreau":"DIJON","avNom":"CLEMANG","avPrenom":"Dominique","cbRaisonSociale":"CLEMANG","cbSiretSiren":"819207382","cbAdresse1":"5 Rue Heudelet","cbAdresse2":"","cbCp":"21000","cbVille":"DIJON","spLibelle1":"","spLibelle2":"","acDateSerment":"","coordinates":[5.0484883,47.3250983]},{"NomBarreau":"DIJON","avNom":"CLUZEAU","avPrenom":"Romain","cbRaisonSociale":"RCH","cbSiretSiren":"","cbAdresse1":"21 avenue Albert Camus","cbAdresse2":"","cbCp":"21000","cbVille":"DIJON","spLibelle1":"Droit de la sécurité sociale et de la protection sociale","spLibelle2":"Droit du travail","acDateSerment":"","coordinates":[5.0469007,47.3533568]},{"NomBarreau":"DIJON","avNom":"COLAS MICHIELS","avPrenom":"Anne-Sophie","cbRaisonSociale":"COLAS MICHIELS ANNE-SOPHIE","cbSiretSiren":"792428948","cbAdresse1":"37 Rue Elsa Triolet","cbAdresse2":"","cbCp":"21000","cbVille":"DIJON","spLibelle1":"","spLibelle2":"","acDateSerment":"","coordinates":[5.051561,47.3656822]},{"NomBarreau":"DIJON","avNom":"COLOMES","avPrenom":"Olivia","cbRaisonSociale":"COLOMES OLIVIA","cbSiretSiren":"439280694","cbAdresse1":"78 rue Jean-Jacques Rousseau","cbAdresse2":"","cbCp":"21000","cbVille":"DIJON","spLibelle1":"","spLibelle2":"","acDateSerment":"","coordinates":[5.044265,47.3231898]},{"NomBarreau":"DIJON","avNom":"CONVERSET","avPrenom":"Antoine","cbRaisonSociale":"AGIS","cbSiretSiren":"822848487","cbAdresse1":"9 Boulevard Rembrandt","cbAdresse2":"","cbCp":"21000","cbVille":"DIJON","spLibelle1":"","spLibelle2":"","acDateSerment":"","coordinates":[5.0466594,47.3486437]},{"NomBarreau":"DIJON","avNom":"CORNELOUP","avPrenom":"Vincent","cbRaisonSociale":"SARL ADAES AVOCATS","cbSiretSiren":"900426602","cbAdresse1":"13 rue du Temple","cbAdresse2":"","cbCp":"21000","cbVille":"DIJON","spLibelle1":"Droit public","spLibelle2":"","acDateSerment":"","coordinates":[5.0359574,47.3253591]},{"NomBarreau":"DIJON","avNom":"COSKUN","avPrenom":"Ahmet","cbRaisonSociale":"COSKUN AVOCATS","cbSiretSiren":"904883089","cbAdresse1":"12 rue du Colonel Victor Marchand","cbAdresse2":"","cbCp":"21000","cbVille":"DIJON","spLibelle1":"","spLibelle2":"","acDateSerment":"","coordinates":[5.0362828,47.3270212]},{"NomBarreau":"DIJON","avNom":"COUET","avPrenom":"Charlotte","cbRaisonSociale":"COUET CHARLOTTE","cbSiretSiren":"909152274","cbAdresse1":"35 Rue Vannerie","cbAdresse2":"","cbCp":"21000","cbVille":"DIJON","spLibelle1":"","spLibelle2":"","acDateSerment":"","coordinates":[5.0458051,47.3239028]},{"NomBarreau":"DIJON","avNom":"COULON","avPrenom":"Lucille","cbRaisonSociale":"COULON LUCILLE","cbSiretSiren":"847799269","cbAdresse1":"21 Avenue Albert Camus","cbAdresse2":"","cbCp":"21000","cbVille":"DIJON","spLibelle1":"","spLibelle2":"","acDateSerment":"","coordinates":[5.0469007,47.3533568]},{"NomBarreau":"DIJON","avNom":"DAMY","avPrenom":"Laurent","cbRaisonSociale":"DAMY LAURENT","cbSiretSiren":"400627436","cbAdresse1":"6 rue Saint-John Perse","cbAdresse2":"","cbCp":"21000","cbVille":"DIJON","spLibelle1":"","spLibelle2":"","acDateSerment":"","coordinates":[5.0513746,47.3524802]},{"NomBarreau":"DIJON","avNom":"DE BUSTAMANTE","avPrenom":"Dominique-Arnold","cbRaisonSociale":"BUSTAMANTE (DE) DOMINIQUE","cbSiretSiren":"350920237","cbAdresse1":"14 BIS rue de la Poste","cbAdresse2":"","cbCp":"21000","cbVille":"DIJON","spLibelle1":"","spLibelle2":"","acDateSerment":"","coordinates":[5.0355195,47.3235188]},{"NomBarreau":"DIJON","avNom":"DE MAGNEVAL","avPrenom":"Ladice","cbRaisonSociale":"LADICE AVOCATS","cbSiretSiren":"887800027","cbAdresse1":"7 boulevard Clemenceau","cbAdresse2":"","cbCp":"21000","cbVille":"DIJON","spLibelle1":"","spLibelle2":"","acDateSerment":"","coordinates":[5.0475267,47.3274809]},{"NomBarreau":"DIJON","avNom":"DE MARCH","avPrenom":"Barbara","cbRaisonSociale":"DE MARCH-ROY BARBARA","cbSiretSiren":"417663234","cbAdresse1":"9 rue Jean Renaud","cbAdresse2":"","cbCp":"21000","cbVille":"DIJON","spLibelle1":"","spLibelle2":"","acDateSerment":"","coordinates":[5.0359712,47.324052]},{"NomBarreau":"DIJON","avNom":"DE VOGUœE","avPrenom":"Claire","cbRaisonSociale":"MENDEL - VOGUE ET ASSOCIES","cbSiretSiren":"817427446","cbAdresse1":"14 BIS Rue de la Poste","cbAdresse2":"","cbCp":"21000","cbVille":"DIJON","spLibelle1":"","spLibelle2":"","acDateSerment":"","coordinates":[5.0355195,47.3235188]},{"NomBarreau":"DIJON","avNom":"DEGUINES-FRAPPAT","avPrenom":"Marie-Gaelle","cbRaisonSociale":"DEGUINES- FRAPPAT MARIE-GAELLE","cbSiretSiren":"480197110","cbAdresse1":"26 A boulevard de la Marne","cbAdresse2":"","cbCp":"21000","cbVille":"DIJON","spLibelle1":"","spLibelle2":"","acDateSerment":"","coordinates":[5.0494042,47.3294127]},{"NomBarreau":"DIJON","avNom":"DELAVICTOIRE","avPrenom":"Isabelle-Marie","cbRaisonSociale":"GAVIGNET ET ASSOCIES","cbSiretSiren":"789551793","cbAdresse1":"8 Rue Marceau","cbAdresse2":"","cbCp":"21000","cbVille":"DIJON","spLibelle1":"","spLibelle2":"","acDateSerment":"","coordinates":[5.0456794,47.3280718]},{"NomBarreau":"DIJON","avNom":"DELHAYE","avPrenom":"Florence","cbRaisonSociale":"DELHAYE FLORENCE","cbSiretSiren":"834257404","cbAdresse1":"1 boulevard Georges Clemenceau","cbAdresse2":"","cbCp":"21000","cbVille":"DIJON","spLibelle1":"","spLibelle2":"","acDateSerment":"","coordinates":[5.0469481,47.3272272]},{"NomBarreau":"DIJON","avNom":"DELIRY","avPrenom":"Jérome","cbRaisonSociale":"JOUFFROY & FILEAS AVOCATS","cbSiretSiren":"488344870","cbAdresse1":"14 rue Jean de Cirey","cbAdresse2":"","cbCp":"21000","cbVille":"DIJON","spLibelle1":"","spLibelle2":"","acDateSerment":"","coordinates":[5.0489059,47.3265656]},{"NomBarreau":"DIJON","avNom":"DELOGE-MAGAUD","avPrenom":"Catherine","cbRaisonSociale":"DELOGE-MAGAUD CATHERINE","cbSiretSiren":"418031399","cbAdresse1":"14 Rue Jean Giono","cbAdresse2":"","cbCp":"21000","cbVille":"DIJON","spLibelle1":"","spLibelle2":"","acDateSerment":"","coordinates":[5.0516874,47.353523]},{"NomBarreau":"DIJON","avNom":"DESCOURS","avPrenom":"Florence","cbRaisonSociale":"DESCOURS FLORENCE","cbSiretSiren":"840081186","cbAdresse1":"2 rue de Mirande","cbAdresse2":"","cbCp":"21000","cbVille":"DIJON","spLibelle1":"","spLibelle2":"","acDateSerment":"","coordinates":[5.049537,47.318739]},{"NomBarreau":"DIJON","avNom":"DJAMBAZOVA","avPrenom":"Miléna","cbRaisonSociale":"MERIENNE ET ASSOCIES ","cbSiretSiren":"501860522","cbAdresse1":"4 A Rue Marguerite Yourcenar","cbAdresse2":"","cbCp":"21000","cbVille":"DIJON","spLibelle1":"","spLibelle2":"","acDateSerment":"","coordinates":[5.0578736,47.3511979]},{"NomBarreau":"DIJON","avNom":"DOUMERG","avPrenom":"Eric","cbRaisonSociale":"JURISTES ASSOCIES BFC","cbSiretSiren":"417883196","cbAdresse1":"10 rue Jean Giono","cbAdresse2":"Immeuble Antarès","cbCp":"21000","cbVille":"DIJON","spLibelle1":"","spLibelle2":"","acDateSerment":"","coordinates":[5.0506449,47.3531278]},{"NomBarreau":"DIJON","avNom":"DROUHOT","avPrenom":"Nathalie","cbRaisonSociale":"DROUHOT NATHALIE","cbSiretSiren":"401862149","cbAdresse1":"3 rue de Mulhouse","cbAdresse2":"","cbCp":"21000","cbVille":"DIJON","spLibelle1":"","spLibelle2":"","acDateSerment":"","coordinates":[5.0495977,47.3254735]},{"NomBarreau":"DIJON","avNom":"DUBAELE","avPrenom":"Isabelle","cbRaisonSociale":"DUBAELE ISABELLE","cbSiretSiren":"448101253","cbAdresse1":"19 avenue Albert Camus","cbAdresse2":"","cbCp":"21000","cbVille":"DIJON","spLibelle1":"","spLibelle2":"","acDateSerment":"","coordinates":[5.0471205,47.3531998]},{"NomBarreau":"DIJON","avNom":"DUBAR","avPrenom":"Mallorie","cbRaisonSociale":"DUBAR MALLORIE","cbSiretSiren":"890927205","cbAdresse1":"10 Boulevard Thiers","cbAdresse2":"","cbCp":"21000","cbVille":"DIJON","spLibelle1":"","spLibelle2":"","acDateSerment":"","coordinates":[5.0465759,47.3256299]},{"NomBarreau":"DIJON","avNom":"DUCHARME","avPrenom":"François","cbRaisonSociale":"DUCHARME","cbSiretSiren":"482507696","cbAdresse1":"9 rue Jean Renaud","cbAdresse2":"","cbCp":"21000","cbVille":"DIJON","spLibelle1":"","spLibelle2":"","acDateSerment":"","coordinates":[5.0359712,47.324052]},{"NomBarreau":"DIJON","avNom":"DUFRESNES","avPrenom":"Audrey","cbRaisonSociale":"DUFRESNES AUDREY","cbSiretSiren":"538629171","cbAdresse1":"12 rue Montigny","cbAdresse2":"","cbCp":"21000","cbVille":"DIJON","spLibelle1":"","spLibelle2":"","acDateSerment":"","coordinates":[5.0371295,47.3255568]},{"NomBarreau":"DIJON","avNom":"DUMONT","avPrenom":"Muriel","cbRaisonSociale":"DUMONT MURIEL","cbSiretSiren":"329111330","cbAdresse1":"34 D boulevard de la Marne","cbAdresse2":"","cbCp":"21000","cbVille":"DIJON","spLibelle1":"","spLibelle2":"","acDateSerment":"","coordinates":[5.0494042,47.3294127]},{"NomBarreau":"DIJON","avNom":"DUVAL","avPrenom":"Stephen","cbRaisonSociale":"FD AVOCATS","cbSiretSiren":"884950916","cbAdresse1":"14 B rue du Chapeau Rouge","cbAdresse2":"","cbCp":"21000","cbVille":"DIJON","spLibelle1":"","spLibelle2":"","acDateSerment":"","coordinates":[5.0367241,47.3217428]},{"NomBarreau":"DIJON","avNom":"EL MAHI","avPrenom":"Mohamed","cbRaisonSociale":"CHAUMONT-CHATTELEYN-ALLAM-EL MAHI","cbSiretSiren":"509766945","cbAdresse1":"7 Bd Rembrandt","cbAdresse2":"Immeuble Apogée C","cbCp":"21000","cbVille":"DIJON","spLibelle1":"","spLibelle2":"","acDateSerment":"","coordinates":[5.0465918,47.3484305]},{"NomBarreau":"DIJON","avNom":"ESPADA","avPrenom":"Karine","cbRaisonSociale":"ESPADA KARINE","cbSiretSiren":"788802775","cbAdresse1":"11 rue de Tivoli","cbAdresse2":"","cbCp":"21000","cbVille":"DIJON","spLibelle1":"","spLibelle2":"","acDateSerment":"","coordinates":[5.042028,47.3168446]},{"NomBarreau":"DIJON","avNom":"ESPERANDIEU","avPrenom":"Mathilde","cbRaisonSociale":"ESPERANDIEU MATHILDE","cbSiretSiren":"847867736","cbAdresse1":"4 Rue Claus Sluter","cbAdresse2":"","cbCp":"21000","cbVille":"DIJON","spLibelle1":"","spLibelle2":"","acDateSerment":"","coordinates":[5.0454627,47.3274668]},{"NomBarreau":"DIJON","avNom":"ESTEVE","avPrenom":"Samuel","cbRaisonSociale":"ESTEVE GOULLERET NICOLLE & ASSOCIES ","cbSiretSiren":"789760238","cbAdresse1":"3 Bd de Brosses","cbAdresse2":"","cbCp":"21000","cbVille":"DIJON","spLibelle1":"","spLibelle2":"","acDateSerment":"","coordinates":[5.0385019,47.3250816]},{"NomBarreau":"DIJON","avNom":"FAIVRE","avPrenom":"Alexis","cbRaisonSociale":"FAIVRE ALEXIS","cbSiretSiren":"881269708","cbAdresse1":"7 avenue Jean Bertin","cbAdresse2":"","cbCp":"21000","cbVille":"DIJON","spLibelle1":"","spLibelle2":"","acDateSerment":"","coordinates":[5.0425009,47.3557718]},{"NomBarreau":"DIJON","avNom":"FAUQUE","avPrenom":"Jérome","cbRaisonSociale":"JOUFFROY & FILEAS AVOCATS","cbSiretSiren":"488344870","cbAdresse1":"14 rue Jean de Cirey","cbAdresse2":"","cbCp":"21000","cbVille":"DIJON","spLibelle1":"","spLibelle2":"","acDateSerment":"","coordinates":[5.0489059,47.3265656]},{"NomBarreau":"DIJON","avNom":"FAURE","avPrenom":"Jean-Baptiste","cbRaisonSociale":"FAURE JEAN-BAPTISTE","cbSiretSiren":"893162560","cbAdresse1":"21 Avenue Albert Camus","cbAdresse2":"","cbCp":"21066","cbVille":"DIJON","spLibelle1":"","spLibelle2":"","acDateSerment":"","coordinates":[5.0469007,47.3533568]},{"NomBarreau":"DIJON","avNom":"FAYARD","avPrenom":"Christian","cbRaisonSociale":"FAYARD CHRISTIAN","cbSiretSiren":"314622895","cbAdresse1":"3 boulevard de Brosses","cbAdresse2":"","cbCp":"21000","cbVille":"DIJON","spLibelle1":"Droit commercial, des affaires et de la concurrence","spLibelle2":"Droit du travail","acDateSerment":"","coordinates":[5.0385019,47.3250816]},{"NomBarreau":"DIJON","avNom":"FIORESE","avPrenom":"Thierry","cbRaisonSociale":"FIORESE THIERRY","cbSiretSiren":"488076902","cbAdresse1":"22 boulevard de Brosses","cbAdresse2":"","cbCp":"21000","cbVille":"DIJON","spLibelle1":"","spLibelle2":"","acDateSerment":"","coordinates":[5.0355493,47.3243545]},{"NomBarreau":"DIJON","avNom":"FIRLEY","avPrenom":"Loic","cbRaisonSociale":"FIRLEY LOAC","cbSiretSiren":"847825916","cbAdresse1":"4 Rue Jeanne Barret","cbAdresse2":"Parc Valmy","cbCp":"21066","cbVille":"DIJON","spLibelle1":"","spLibelle2":"","acDateSerment":"","coordinates":[5.0499509,47.3662751]},{"NomBarreau":"DIJON","avNom":"FLAHAUT","avPrenom":"Aurélie","cbRaisonSociale":"LLAMAS ET ASSOCIES","cbSiretSiren":"439536327","cbAdresse1":"12 boulevard Clemenceau","cbAdresse2":"","cbCp":"21000","cbVille":"DIJON","spLibelle1":"","spLibelle2":"","acDateSerment":"","coordinates":[5.0484296,47.3274981]},{"NomBarreau":"DIJON","avNom":"FORZINETTI","avPrenom":"Pascal","cbRaisonSociale":"FORZINETTI PASCAL","cbSiretSiren":"809176019","cbAdresse1":"15 Bis Boulevard Thiers","cbAdresse2":"","cbCp":"21000","cbVille":"DIJON","spLibelle1":"","spLibelle2":"","acDateSerment":"","coordinates":[5.047507,47.3246747]},{"NomBarreau":"DIJON","avNom":"FOUCHARD","avPrenom":"David","cbRaisonSociale":"CABINET D'AVOCATS PORTALIS ASSOCIES - CAPA","cbSiretSiren":"420943102","cbAdresse1":"13 rue Marguerite Yourcenar","cbAdresse2":"","cbCp":"21000","cbVille":"DIJON","spLibelle1":"","spLibelle2":"","acDateSerment":"","coordinates":[5.0578736,47.3511979]},{"NomBarreau":"DIJON","avNom":"FOUCHER","avPrenom":"Sarah","cbRaisonSociale":"FOUCHER SARAH","cbSiretSiren":"834809618","cbAdresse1":"14 BIS Rue de la Poste","cbAdresse2":"","cbCp":"21000","cbVille":"DIJON","spLibelle1":"","spLibelle2":"","acDateSerment":"","coordinates":[5.0355195,47.3235188]},{"NomBarreau":"DIJON","avNom":"FOURNIER","avPrenom":"Eloise","cbRaisonSociale":"FOURNIER ELOISE","cbSiretSiren":"482510815","cbAdresse1":"7 rue Hernoux","cbAdresse2":"","cbCp":"21000","cbVille":"DIJON","spLibelle1":"","spLibelle2":"","acDateSerment":"","coordinates":[5.0409254,47.3192723]},{"NomBarreau":"DIJON","avNom":"FREREJACQUES","avPrenom":"Ghislain","cbRaisonSociale":"FD AVOCATS","cbSiretSiren":"884950916","cbAdresse1":"14 B rue du Chapeau Rouge","cbAdresse2":"","cbCp":"21000","cbVille":"DIJON","spLibelle1":"","spLibelle2":"","acDateSerment":"","coordinates":[5.0367241,47.3217428]},{"NomBarreau":"DIJON","avNom":"FUSINA","avPrenom":"Nadège","cbRaisonSociale":"ETIK-AVOCATS","cbSiretSiren":"911995330","cbAdresse1":"49 Rue de Montchapet","cbAdresse2":"","cbCp":"21000","cbVille":"DIJON","spLibelle1":"","spLibelle2":"","acDateSerment":"","coordinates":[5.0316939,47.3306732]},{"NomBarreau":"DIJON","avNom":"GARCIA","avPrenom":"Hirminia","cbRaisonSociale":"GARCIA HIRMINIA","cbSiretSiren":"509840260","cbAdresse1":"6 Rue Claus Sluter","cbAdresse2":"Résidence Carré Lumière","cbCp":"21000","cbVille":"DIJON","spLibelle1":"","spLibelle2":"","acDateSerment":"","coordinates":[5.045508,47.3275685]},{"NomBarreau":"DIJON","avNom":"GARON","avPrenom":"Géraldine","cbRaisonSociale":"GARON GERALDINE","cbSiretSiren":"519659908","cbAdresse1":"6 Petite rue de Pouilly","cbAdresse2":"","cbCp":"21000","cbVille":"DIJON","spLibelle1":"","spLibelle2":"","acDateSerment":"","coordinates":[5.0446938,47.327867]},{"NomBarreau":"DIJON","avNom":"GAT","avPrenom":"Anne-Cécile","cbRaisonSociale":"GAT ANNE-CECILE","cbSiretSiren":"519645204","cbAdresse1":"4 boulevard Georges Clemenceau","cbAdresse2":"","cbCp":"21000","cbVille":"DIJON","spLibelle1":"","spLibelle2":"","acDateSerment":"","coordinates":[5.0468887,47.3268981]},{"NomBarreau":"DIJON","avNom":"GAUDILLIERE","avPrenom":"Corine","cbRaisonSociale":"GAUDILLIERE CORINE","cbSiretSiren":"417662228","cbAdresse1":"19 Avenue Albert Camus","cbAdresse2":"","cbCp":"21000","cbVille":"DIJON","spLibelle1":"","spLibelle2":"","acDateSerment":"","coordinates":[5.0471205,47.3531998]},{"NomBarreau":"DIJON","avNom":"GAUPILLAT","avPrenom":"Mathilde","cbRaisonSociale":"MATHILDE GAUPILLAT","cbSiretSiren":"421492000","cbAdresse1":"8 F rue Jeanne Barret","cbAdresse2":"Parc Valmy","cbCp":"21000","cbVille":"DIJON","spLibelle1":"Droit de la sécurité sociale et de la protection sociale","spLibelle2":"Droit du travail","acDateSerment":"","coordinates":[5.050527,47.3669296]},{"NomBarreau":"DIJON","avNom":"GAVIGNET","avPrenom":"Jean-Baptiste","cbRaisonSociale":"GAVIGNET ET ASSOCIES","cbSiretSiren":"789551793","cbAdresse1":"8 Rue Marceau","cbAdresse2":"","cbCp":"21000","cbVille":"DIJON","spLibelle1":"","spLibelle2":"","acDateSerment":"","coordinates":[5.0456794,47.3280718]},{"NomBarreau":"DIJON","avNom":"GESSAT","avPrenom":"Alice","cbRaisonSociale":"GESSAT ALICE","cbSiretSiren":"539567834","cbAdresse1":"6 rue Claus Sluter","cbAdresse2":"","cbCp":"21000","cbVille":"DIJON","spLibelle1":"","spLibelle2":"","acDateSerment":"","coordinates":[5.045508,47.3275685]},{"NomBarreau":"DIJON","avNom":"GIBEY","avPrenom":"Laurie","cbRaisonSociale":"LAURIE GIBEY","cbSiretSiren":"799724950","cbAdresse1":"2 Rue Bouhier","cbAdresse2":"","cbCp":"21000","cbVille":"DIJON","spLibelle1":"","spLibelle2":"","acDateSerment":"","coordinates":[5.0416053,47.3205772]},{"NomBarreau":"DIJON","avNom":"GOKPINAR","avPrenom":"Sevil","cbRaisonSociale":"AGIS","cbSiretSiren":"822848487","cbAdresse1":"9 Boulevard Rembrandt","cbAdresse2":"","cbCp":"21000","cbVille":"DIJON","spLibelle1":"","spLibelle2":"","acDateSerment":"","coordinates":[5.0466594,47.3486437]},{"NomBarreau":"DIJON","avNom":"GOULLERET","avPrenom":"Elsa","cbRaisonSociale":"ESTEVE GOULLERET NICOLLE & ASSOCIES ","cbSiretSiren":"789760238","cbAdresse1":"3 Bd de Brosses","cbAdresse2":"","cbCp":"21000","cbVille":"DIJON","spLibelle1":"Droit du travail","spLibelle2":"","acDateSerment":"","coordinates":[5.0385019,47.3250816]},{"NomBarreau":"DIJON","avNom":"GOURINAT","avPrenom":"David","cbRaisonSociale":"GOURINAT DAVID","cbSiretSiren":"753487685","cbAdresse1":"25 boulevard de Brosses","cbAdresse2":"","cbCp":"21000","cbVille":"DIJON","spLibelle1":"","spLibelle2":"","acDateSerment":"","coordinates":[5.0348097,47.3238664]},{"NomBarreau":"DIJON","avNom":"GRENIER","avPrenom":"Mathieu","cbRaisonSociale":"GRENIER MATHIEU","cbSiretSiren":"521294074","cbAdresse1":"3 Bis rue Paul Cabet","cbAdresse2":"","cbCp":"21000","cbVille":"DIJON","spLibelle1":"","spLibelle2":"","acDateSerment":"","coordinates":[5.0489037,47.3217132]},{"NomBarreau":"DIJON","avNom":"GRENIER","avPrenom":"Mathilde","cbRaisonSociale":"GRENIER MATHILDE","cbSiretSiren":"422864181","cbAdresse1":"7 boulevard de la Tremouille","cbAdresse2":"","cbCp":"21000","cbVille":"DIJON","spLibelle1":"Droit public","spLibelle2":"","acDateSerment":"","coordinates":[5.0427535,47.326091]},{"NomBarreau":"DIJON","avNom":"GRILLOT","avPrenom":"Camille","cbRaisonSociale":"GRILLOT  CAMILLE","cbSiretSiren":"909541047","cbAdresse1":"3 Bd de Brosses","cbAdresse2":"","cbCp":"21000","cbVille":"DIJON","spLibelle1":"","spLibelle2":"","acDateSerment":"","coordinates":[5.0385019,47.3250816]},{"NomBarreau":"DIJON","avNom":"GRIMPRET","avPrenom":"Jean-Baptiste","cbRaisonSociale":"FIDAL","cbSiretSiren":"525031522","cbAdresse1":"2 B Avenue de Marbotte","cbAdresse2":"MARBOTTE PLAZZA","cbCp":"21070","cbVille":"DIJON","spLibelle1":"","spLibelle2":"","acDateSerment":"","coordinates":[5.0522376,47.3309846]},{"NomBarreau":"DIJON","avNom":"GROSJEAN","avPrenom":"Valérie","cbRaisonSociale":"VG CONSEIL","cbSiretSiren":"443877436","cbAdresse1":"10 rue Jean Giono","cbAdresse2":"Immeuble \"Le Neptune\"","cbCp":"21000","cbVille":"DIJON","spLibelle1":"Droit fiscal et droit douanier","spLibelle2":"","acDateSerment":"","coordinates":[5.0506449,47.3531278]},{"NomBarreau":"DIJON","avNom":"GUENOT","avPrenom":"Emmanuel","cbRaisonSociale":"GUENOT EMMANUEL","cbSiretSiren":"488597246","cbAdresse1":"37 Rue Elsa Triolet","cbAdresse2":"Parc Valmy","cbCp":"21000","cbVille":"DIJON","spLibelle1":"","spLibelle2":"","acDateSerment":"","coordinates":[5.051561,47.3656822]},{"NomBarreau":"DIJON","avNom":"GUERRIN-MAINGON","avPrenom":"Sylvaine","cbRaisonSociale":"BROCHERIEUX - GUERRIN-MAINGON","cbSiretSiren":"310005731","cbAdresse1":"14 BIS rue de la Poste","cbAdresse2":"","cbCp":"21000","cbVille":"DIJON","spLibelle1":"Droit immobilier","spLibelle2":"","acDateSerment":"","coordinates":[5.0355195,47.3235188]},{"NomBarreau":"DIJON","avNom":"GUœL","avPrenom":"Burcu","cbRaisonSociale":"GUœL BURCU","cbSiretSiren":"893046250","cbAdresse1":"7 avenue Jean Bertin","cbAdresse2":"","cbCp":"21000","cbVille":"DIJON","spLibelle1":"","spLibelle2":"","acDateSerment":"","coordinates":[5.0425009,47.3557718]},{"NomBarreau":"DIJON","avNom":"HEBMANN","avPrenom":"Juliette","cbRaisonSociale":"THEMIS AVOCATS & ASSOCIES ","cbSiretSiren":"922057914","cbAdresse1":"7 Rue Michel Servet","cbAdresse2":"","cbCp":"21000","cbVille":"DIJON","spLibelle1":"","spLibelle2":"","acDateSerment":"","coordinates":[5.0352336,47.3248921]},{"NomBarreau":"DIJON","avNom":"HENRIOT","avPrenom":"Anne-Sophie","cbRaisonSociale":"HENRIOT ANNE-SOPHIE","cbSiretSiren":"502886963","cbAdresse1":"8 rue Paul Verlaine","cbAdresse2":"","cbCp":"21000","cbVille":"DIJON","spLibelle1":"","spLibelle2":"","acDateSerment":"","coordinates":[5.0449642,47.3526772]},{"NomBarreau":"DIJON","avNom":"HUMEL","avPrenom":"Cyrille","cbRaisonSociale":"HUMEL CYRILLE","cbSiretSiren":"791500705","cbAdresse1":"19 Avenue Albert Camus","cbAdresse2":"","cbCp":"21000","cbVille":"DIJON","spLibelle1":"","spLibelle2":"","acDateSerment":"","coordinates":[5.0471205,47.3531998]},{"NomBarreau":"DIJON","avNom":"JACOB","avPrenom":"Sonia","cbRaisonSociale":"JACOB SONIA","cbSiretSiren":"441194297","cbAdresse1":"26 A boulevard de la Marne","cbAdresse2":"","cbCp":"21000","cbVille":"DIJON","spLibelle1":"Droit de la famille, des personnes et de leur patrimoine","spLibelle2":"Droit pénal","acDateSerment":"","coordinates":[5.0494042,47.3294127]},{"NomBarreau":"DIJON","avNom":"JACQUEMIN","avPrenom":"Léa","cbRaisonSociale":"JACQUEMIN LEA","cbSiretSiren":"824964456","cbAdresse1":"4 Rue Docteur Maret","cbAdresse2":"","cbCp":"21000","cbVille":"DIJON","spLibelle1":"","spLibelle2":"","acDateSerment":"","coordinates":[5.034583,47.3227212]},{"NomBarreau":"DIJON","avNom":"JACQUENET-POILLOT","avPrenom":"Jean-Baptiste","cbRaisonSociale":"DE JURE AVOCATS","cbSiretSiren":"844597120","cbAdresse1":"3 Bis Rue Paul Cabet","cbAdresse2":"","cbCp":"21000","cbVille":"DIJON","spLibelle1":"","spLibelle2":"","acDateSerment":"","coordinates":[5.0489037,47.3217132]},{"NomBarreau":"DIJON","avNom":"JACQUES","avPrenom":"Emeline","cbRaisonSociale":"ARMESSEN & JACQUES AVOCATS ","cbSiretSiren":"884401340","cbAdresse1":"60 rue Devosge","cbAdresse2":"","cbCp":"21000","cbVille":"DIJON","spLibelle1":"","spLibelle2":"","acDateSerment":"","coordinates":[5.0393429,47.3265522]},{"NomBarreau":"DIJON","avNom":"JANIER","avPrenom":"Alexis","cbRaisonSociale":"JANIER & SPINA","cbSiretSiren":"914778949","cbAdresse1":"78 Rue Jean Jacques Rousseau","cbAdresse2":"","cbCp":"21000","cbVille":"DIJON","spLibelle1":"","spLibelle2":"","acDateSerment":"","coordinates":[5.044265,47.3231898]},{"NomBarreau":"DIJON","avNom":"JEAUGEY","avPrenom":"Arnaud","cbRaisonSociale":"BJT","cbSiretSiren":"484307624","cbAdresse1":"1 C Boulevard de Champagne","cbAdresse2":"Tour Elithis ( 5ème étage)","cbCp":"21000","cbVille":"DIJON","spLibelle1":"","spLibelle2":"","acDateSerment":"","coordinates":[5.0524708,47.3290356]},{"NomBarreau":"DIJON","avNom":"JOLET","avPrenom":"Ingrid","cbRaisonSociale":"JOLET INGRID","cbSiretSiren":"882106578","cbAdresse1":"22 boulevard de Brosses","cbAdresse2":"","cbCp":"21000","cbVille":"DIJON","spLibelle1":"","spLibelle2":"","acDateSerment":"","coordinates":[5.0355493,47.3243545]},{"NomBarreau":"DIJON","avNom":"KLEPPING","avPrenom":"Marie-Christine","cbRaisonSociale":"KLEPPING MARIE-CHRISTINE","cbSiretSiren":"332269331","cbAdresse1":"14 Rue Vauban","cbAdresse2":"","cbCp":"21000","cbVille":"DIJON","spLibelle1":"Droit de la famille, des personnes et de leur patrimoine","spLibelle2":"Droit pénal","acDateSerment":"","coordinates":[5.0403317,47.3201404]},{"NomBarreau":"DIJON","avNom":"KOVAC","avPrenom":"Fabien","cbRaisonSociale":"DGK AVOCATS ASSOCIES","cbSiretSiren":"437766405","cbAdresse1":"7 avenue Jean Bertin","cbAdresse2":"","cbCp":"21000","cbVille":"DIJON","spLibelle1":"Droit du travail","spLibelle2":"","acDateSerment":"","coordinates":[5.0425009,47.3557718]},{"NomBarreau":"DIJON","avNom":"LABBE","avPrenom":"Marie-Aude","cbRaisonSociale":"LABBE MARIE-AUDE","cbSiretSiren":"509666871","cbAdresse1":"9 rue Jean Renaud","cbAdresse2":"","cbCp":"21000","cbVille":"DIJON","spLibelle1":"","spLibelle2":"","acDateSerment":"","coordinates":[5.0359712,47.324052]},{"NomBarreau":"DIJON","avNom":"LAMBERT","avPrenom":"Emmanuel","cbRaisonSociale":"LAMBERT EMMANUEL","cbSiretSiren":"513927905","cbAdresse1":"3 Bd de Brosses","cbAdresse2":"","cbCp":"21000","cbVille":"DIJON","spLibelle1":"","spLibelle2":"","acDateSerment":"","coordinates":[5.0385019,47.3250816]},{"NomBarreau":"DIJON","avNom":"LAMBERT","avPrenom":"Simon","cbRaisonSociale":"LANCELIN ET LAMBERT","cbSiretSiren":"441084514","cbAdresse1":"4 rue Docteur Maret","cbAdresse2":"Résidence Darcy","cbCp":"21000","cbVille":"DIJON","spLibelle1":"","spLibelle2":"","acDateSerment":"","coordinates":[5.034583,47.3227212]},{"NomBarreau":"DIJON","avNom":"LANCELIN","avPrenom":"Claire","cbRaisonSociale":"LANCELIN ET LAMBERT","cbSiretSiren":"441084514","cbAdresse1":"4 rue Docteur Maret","cbAdresse2":"Résidence Darcy","cbCp":"21000","cbVille":"DIJON","spLibelle1":"","spLibelle2":"","acDateSerment":"","coordinates":[5.034583,47.3227212]},{"NomBarreau":"DIJON","avNom":"LANGLOIS","avPrenom":"Elise","cbRaisonSociale":"CABINET D'AVOCATS PORTALIS ASSOCIES - CAPA","cbSiretSiren":"420943102","cbAdresse1":"13 rue Marguerite Yourcenar","cbAdresse2":"","cbCp":"21000","cbVille":"DIJON","spLibelle1":"","spLibelle2":"","acDateSerment":"","coordinates":[5.0578736,47.3511979]},{"NomBarreau":"DIJON","avNom":"LE BLEVEC","avPrenom":"Anaelle","cbRaisonSociale":"LE BLEVEC ANAELLE","cbSiretSiren":"878634807","cbAdresse1":"4 rue Docteur Maret","cbAdresse2":"Résidence Darcy","cbCp":"21000","cbVille":"DIJON","spLibelle1":"","spLibelle2":"","acDateSerment":"","coordinates":[5.034583,47.3227212]},{"NomBarreau":"DIJON","avNom":"LECLERC","avPrenom":"Caroline","cbRaisonSociale":"DGK AVOCATS ASSOCIES","cbSiretSiren":"437766405","cbAdresse1":"7 avenue Jean Bertin","cbAdresse2":"","cbCp":"21000","cbVille":"DIJON","spLibelle1":"","spLibelle2":"","acDateSerment":"","coordinates":[5.0425009,47.3557718]},{"NomBarreau":"DIJON","avNom":"LEGENTIL","avPrenom":"Louis","cbRaisonSociale":"LEGENTIL LOUIS","cbSiretSiren":"809157811","cbAdresse1":"13 rue du Palais","cbAdresse2":"","cbCp":"21000","cbVille":"DIJON","spLibelle1":"","spLibelle2":"","acDateSerment":"","coordinates":[5.0422504,47.3200933]},{"NomBarreau":"DIJON","avNom":"LEJEUNE","avPrenom":"Aurélie","cbRaisonSociale":"FIDAL","cbSiretSiren":"525031522","cbAdresse1":"2 B Avenue de Marbotte","cbAdresse2":"MARBOTTE PLAZZA","cbCp":"21070","cbVille":"DIJON","spLibelle1":"","spLibelle2":"","acDateSerment":"","coordinates":[5.0522376,47.3309846]},{"NomBarreau":"DIJON","avNom":"LENEUF","avPrenom":"Sophie","cbRaisonSociale":"LENEUF SOPHIE","cbSiretSiren":"831447115","cbAdresse1":"7 Avenue Jean Bertin","cbAdresse2":"","cbCp":"21000","cbVille":"DIJON","spLibelle1":"","spLibelle2":"","acDateSerment":"","coordinates":[5.0425009,47.3557718]},{"NomBarreau":"DIJON","avNom":"LEPERT - DE COURVILLE","avPrenom":"Nathalie","cbRaisonSociale":"LEPERT NATHALIE","cbSiretSiren":"340079391","cbAdresse1":"77 Rue de Corcelles","cbAdresse2":"","cbCp":"21000","cbVille":"DIJON","spLibelle1":"","spLibelle2":"","acDateSerment":"","coordinates":[4.9949978,47.3095716]},{"NomBarreau":"DIJON","avNom":"LERAT","avPrenom":"Béatrice","cbRaisonSociale":"LERAT AVOCAT","cbSiretSiren":"445052376","cbAdresse1":"6 rue Saint John Perse","cbAdresse2":"","cbCp":"21000","cbVille":"DIJON","spLibelle1":"","spLibelle2":"","acDateSerment":"","coordinates":[5.0513746,47.3524802]},{"NomBarreau":"DIJON","avNom":"LHERITIER","avPrenom":"Florence","cbRaisonSociale":"LHERITIER FLORENCE","cbSiretSiren":"344223847","cbAdresse1":"3 Bd de Brosses","cbAdresse2":"","cbCp":"21000","cbVille":"DIJON","spLibelle1":"","spLibelle2":"","acDateSerment":"","coordinates":[5.0385019,47.3250816]},{"NomBarreau":"DIJON","avNom":"LLAMAS","avPrenom":"Félipe","cbRaisonSociale":"LLAMAS ET ASSOCIES","cbSiretSiren":"439536327","cbAdresse1":"12 boulevard Clemenceau","cbAdresse2":"","cbCp":"21000","cbVille":"DIJON","spLibelle1":"Droit de la sécurité sociale et de la protection sociale","spLibelle2":"Droit du travail","acDateSerment":"","coordinates":[5.0484296,47.3274981]},{"NomBarreau":"DIJON","avNom":"LOISELET","avPrenom":"Martin","cbRaisonSociale":"LOISELET MARTIN","cbSiretSiren":"825158090","cbAdresse1":"21 Avenue Albert Camus","cbAdresse2":"BP 56605","cbCp":"21066","cbVille":"DIJON","spLibelle1":"Droit du travail","spLibelle2":"","acDateSerment":"","coordinates":[5.0469007,47.3533568]},{"NomBarreau":"DIJON","avNom":"LUKEC","avPrenom":"Anne-Lise","cbRaisonSociale":"LUKEC ANNE-LISE","cbSiretSiren":"484544648","cbAdresse1":"4 rue Claus Sluter","cbAdresse2":"","cbCp":"21000","cbVille":"DIJON","spLibelle1":"","spLibelle2":"","acDateSerment":"","coordinates":[5.0454627,47.3274668]},{"NomBarreau":"DIJON","avNom":"MANHOULI","avPrenom":"Karima","cbRaisonSociale":"MANHOULI KARIMA","cbSiretSiren":"502910946","cbAdresse1":"15 Place Grangier","cbAdresse2":"","cbCp":"21000","cbVille":"DIJON","spLibelle1":"","spLibelle2":"","acDateSerment":"","coordinates":[5.0367391,47.3232313]},{"NomBarreau":"DIJON","avNom":"MARCHAND","avPrenom":"Elise","cbRaisonSociale":"ELISE MARCHAND","cbSiretSiren":"844306639","cbAdresse1":"27 Rue de Mulhouse","cbAdresse2":"Résidence \"ATHENA\"","cbCp":"21000","cbVille":"DIJON","spLibelle1":"","spLibelle2":"","acDateSerment":"","coordinates":[5.0488405,47.3257631]},{"NomBarreau":"DIJON","avNom":"MARTIN","avPrenom":"Jennifer","cbRaisonSociale":"MARTIN JENNIFER","cbSiretSiren":"502255540","cbAdresse1":"25 Boulevard de Brosses","cbAdresse2":"","cbCp":"21000","cbVille":"DIJON","spLibelle1":"","spLibelle2":"","acDateSerment":"","coordinates":[5.0348097,47.3238664]},{"NomBarreau":"DIJON","avNom":"MASSENOT","avPrenom":"Gaelle","cbRaisonSociale":"MASSENOT GAELLE","cbSiretSiren":"798041349","cbAdresse1":"6 Rue de l' Ecole de Droit","cbAdresse2":"","cbCp":"21000","cbVille":"DIJON","spLibelle1":"","spLibelle2":"","acDateSerment":"","coordinates":[5.0425453,47.3193891]},{"NomBarreau":"DIJON","avNom":"MATHIEU","avPrenom":"Clémence","cbRaisonSociale":"ADIDA ET ASSOCIES","cbSiretSiren":"778563130","cbAdresse1":"35 Rue Vannerie","cbAdresse2":"","cbCp":"21000","cbVille":"DIJON","spLibelle1":"","spLibelle2":"","acDateSerment":"","coordinates":[5.0458051,47.3239028]},{"NomBarreau":"DIJON","avNom":"MAUSSION","avPrenom":"Stéphane","cbRaisonSociale":"MAUSSION","cbSiretSiren":"808799969","cbAdresse1":"50 Rue de Talant","cbAdresse2":"","cbCp":"21000","cbVille":"DIJON","spLibelle1":"Droit immobilier","spLibelle2":"","acDateSerment":"","coordinates":[5.0229306,47.3288375]},{"NomBarreau":"DIJON","avNom":"MEHDAOUI","avPrenom":"Abdellah","cbRaisonSociale":"MEHDAOUI ABDELLAH","cbSiretSiren":"400929311","cbAdresse1":"10 Avenue Foch","cbAdresse2":"Immeuble MAZARIN - LBA Centre d'Affaires","cbCp":"21000","cbVille":"DIJON","spLibelle1":"","spLibelle2":"","acDateSerment":"","coordinates":[5.0306341,47.3236632]},{"NomBarreau":"DIJON","avNom":"MENDEL","avPrenom":"Cédric","cbRaisonSociale":"MENDEL - VOGUE ET ASSOCIES","cbSiretSiren":"817427446","cbAdresse1":"14 BIS Rue de la Poste","cbAdresse2":"","cbCp":"21000","cbVille":"DIJON","spLibelle1":"","spLibelle2":"","acDateSerment":"","coordinates":[5.0355195,47.3235188]},{"NomBarreau":"DIJON","avNom":"MENETRIER","avPrenom":"Thomas","cbRaisonSociale":"MENETRIER THOMAS","cbSiretSiren":"908996788","cbAdresse1":"4 A Rue Marguerite Yourcenar","cbAdresse2":"","cbCp":"21000","cbVille":"DIJON","spLibelle1":"","spLibelle2":"","acDateSerment":"","coordinates":[5.0578736,47.3511979]},{"NomBarreau":"DIJON","avNom":"MERIENNE","avPrenom":"Jean-François","cbRaisonSociale":"MERIENNE ET ASSOCIES ","cbSiretSiren":"501860522","cbAdresse1":"4 A Rue Marguerite Yourcenar","cbAdresse2":"","cbCp":"21000","cbVille":"DIJON","spLibelle1":"","spLibelle2":"","acDateSerment":"","coordinates":[5.0578736,47.3511979]},{"NomBarreau":"DIJON","avNom":"MESNARD-ROUAUX","avPrenom":"Juliette","cbRaisonSociale":"MESNARD ROUAUX JULIETTE","cbSiretSiren":"400329520","cbAdresse1":"10 Boulevard Thiers","cbAdresse2":"","cbCp":"21000","cbVille":"DIJON","spLibelle1":"","spLibelle2":"","acDateSerment":"","coordinates":[5.0465759,47.3256299]},{"NomBarreau":"DIJON","avNom":"MILLOT","avPrenom":"Yvan","cbRaisonSociale":"FIDAL","cbSiretSiren":"525031522","cbAdresse1":"2 B Avenue de Marbotte","cbAdresse2":"MARBOTTE PLAZZA","cbCp":"21070","cbVille":"DIJON","spLibelle1":"","spLibelle2":"","acDateSerment":"","coordinates":[5.0522376,47.3309846]},{"NomBarreau":"DIJON","avNom":"MINEL-PERNEL","avPrenom":"Nathalie","cbRaisonSociale":"MINEL-PERNEL NATHALIE","cbSiretSiren":"404120446","cbAdresse1":"14 Rue Jules Violle","cbAdresse2":"","cbCp":"21000","cbVille":"DIJON","spLibelle1":"","spLibelle2":"","acDateSerment":"","coordinates":[5.0559742,47.3204758]},{"NomBarreau":"DIJON","avNom":"MISSET","avPrenom":"Alexandre","cbRaisonSociale":"MISSET ALEXANDRE","cbSiretSiren":"401795695","cbAdresse1":"4 Boulevard Clemenceau","cbAdresse2":"","cbCp":"21000","cbVille":"DIJON","spLibelle1":"","spLibelle2":"","acDateSerment":"","coordinates":[5.0468887,47.3268981]},{"NomBarreau":"DIJON","avNom":"MOREL","avPrenom":"Jean-Philippe","cbRaisonSociale":"MOREL JEAN-PHILIPPE","cbSiretSiren":"428264535","cbAdresse1":"2 Avenue Garibaldi","cbAdresse2":"","cbCp":"21000","cbVille":"DIJON","spLibelle1":"","spLibelle2":"","acDateSerment":"","coordinates":[5.0441423,47.3274078]},{"NomBarreau":"DIJON","avNom":"MULLOT-THIEBAUD","avPrenom":"Aurore","cbRaisonSociale":"MULLOT-THIEBAUD AURORE","cbSiretSiren":"802187237","cbAdresse1":"4 rue Docteur Maret","cbAdresse2":"Résidence Darcy","cbCp":"21000","cbVille":"DIJON","spLibelle1":"","spLibelle2":"","acDateSerment":"","coordinates":[5.034583,47.3227212]},{"NomBarreau":"DIJON","avNom":"NARDIN","avPrenom":"Benoit","cbRaisonSociale":"JURISTES ASSOCIES BFC","cbSiretSiren":"417883196","cbAdresse1":"10 rue Jean Giono","cbAdresse2":"Immeuble Antarès","cbCp":"21000","cbVille":"DIJON","spLibelle1":"","spLibelle2":"","acDateSerment":"","coordinates":[5.0506449,47.3531278]},{"NomBarreau":"DIJON","avNom":"NERAUD","avPrenom":"Gauthier","cbRaisonSociale":"GAUTHIER NERAUD","cbSiretSiren":"451691810","cbAdresse1":"5 rue Sambin","cbAdresse2":"","cbCp":"21000","cbVille":"DIJON","spLibelle1":"Droit public","spLibelle2":"","acDateSerment":"","coordinates":[5.03964,47.3261782]},{"NomBarreau":"DIJON","avNom":"NEVERS","avPrenom":"Thibaud","cbRaisonSociale":"NEVERS THIBAUD","cbSiretSiren":"847903952","cbAdresse1":"21 Avenue Albert Camus","cbAdresse2":"","cbCp":"21000","cbVille":"DIJON","spLibelle1":"","spLibelle2":"","acDateSerment":"","coordinates":[5.0469007,47.3533568]},{"NomBarreau":"DIJON","avNom":"NICOLLE","avPrenom":"Bruno","cbRaisonSociale":"ESTEVE GOULLERET NICOLLE & ASSOCIES ","cbSiretSiren":"789760238","cbAdresse1":"3 Bd de Brosses","cbAdresse2":"","cbCp":"21000","cbVille":"DIJON","spLibelle1":"Droit public","spLibelle2":"","acDateSerment":"","coordinates":[5.0385019,47.3250816]},{"NomBarreau":"DIJON","avNom":"NOBLET","avPrenom":"Charlène","cbRaisonSociale":"NOBLET CHARLENE","cbSiretSiren":"852806140","cbAdresse1":"3 boulevard de Brosses","cbAdresse2":"","cbCp":"21000","cbVille":"DIJON","spLibelle1":"","spLibelle2":"","acDateSerment":"","coordinates":[5.0385019,47.3250816]},{"NomBarreau":"DIJON","avNom":"NOURANI","avPrenom":"Lylia","cbRaisonSociale":"ARGON-POLETTE-NOURANI- APPAIX AVOCATS ASSOCIES","cbSiretSiren":"804601268","cbAdresse1":"6 Boulevard Clemenceau","cbAdresse2":"","cbCp":"21000","cbVille":"DIJON","spLibelle1":"","spLibelle2":"","acDateSerment":"","coordinates":[5.0472052,47.3270749]},{"NomBarreau":"DIJON","avNom":"NUNES","avPrenom":"Virginie","cbRaisonSociale":"NUNES VIRGINIE","cbSiretSiren":"487488652","cbAdresse1":"25 Boulevard de Brosses","cbAdresse2":"","cbCp":"21000","cbVille":"DIJON","spLibelle1":"","spLibelle2":"","acDateSerment":"","coordinates":[5.0348097,47.3238664]},{"NomBarreau":"DIJON","avNom":"ORTHLIEB","avPrenom":"Cécile","cbRaisonSociale":"ORTHLIEB CECILE","cbSiretSiren":"825253578","cbAdresse1":"2 rue Bouhier","cbAdresse2":"","cbCp":"21000","cbVille":"DIJON","spLibelle1":"","spLibelle2":"","acDateSerment":"","coordinates":[5.0416053,47.3205772]},{"NomBarreau":"DIJON","avNom":"PAINDAVOINE","avPrenom":"Inès","cbRaisonSociale":"MENDEL - VOGUE ET ASSOCIES","cbSiretSiren":"817427446","cbAdresse1":"14 BIS Rue de la Poste","cbAdresse2":"","cbCp":"21000","cbVille":"DIJON","spLibelle1":"","spLibelle2":"","acDateSerment":"","coordinates":[5.0355195,47.3235188]},{"NomBarreau":"DIJON","avNom":"PALIE","avPrenom":"Sylvie","cbRaisonSociale":"PALIE SYLVIE","cbSiretSiren":"402951222","cbAdresse1":"8 boulevard Thiers","cbAdresse2":"","cbCp":"21000","cbVille":"DIJON","spLibelle1":"Droit des sociétés","spLibelle2":"Droit fiscal et droit douanier","acDateSerment":"","coordinates":[5.0464659,47.3257112]},{"NomBarreau":"DIJON","avNom":"PANIER","avPrenom":"Nicolas","cbRaisonSociale":"PANIER NICOLAS","cbSiretSiren":"751789348","cbAdresse1":"1 BIS RUE DE MULHOUSE","cbAdresse2":"","cbCp":"21000","cbVille":"DIJON","spLibelle1":"","spLibelle2":"","acDateSerment":"","coordinates":[5.0495977,47.3254735]},{"NomBarreau":"DIJON","avNom":"PARENTY-BAUT","avPrenom":"Véronique","cbRaisonSociale":"ADIDA ET ASSOCIES","cbSiretSiren":"778563130","cbAdresse1":"35 Rue Vannerie","cbAdresse2":"","cbCp":"21000","cbVille":"DIJON","spLibelle1":"Procédure d'appel","spLibelle2":"","acDateSerment":"","coordinates":[5.0458051,47.3239028]},{"NomBarreau":"DIJON","avNom":"PARROD","avPrenom":"Sabine","cbRaisonSociale":"SABINE PARROD","cbSiretSiren":"808996961","cbAdresse1":"14 Place des Ducs de Bourgogne","cbAdresse2":"","cbCp":"21000","cbVille":"DIJON","spLibelle1":"Droit de la famille, des personnes et de leur patrimoine","spLibelle2":"","acDateSerment":"","coordinates":[5.0426763,47.3222685]},{"NomBarreau":"DIJON","avNom":"PASCAUD","avPrenom":"Didier","cbRaisonSociale":"PASCAUD DIDIER","cbSiretSiren":"310970959","cbAdresse1":"14 rue Vauban","cbAdresse2":"","cbCp":"21000","cbVille":"DIJON","spLibelle1":"Droit du travail","spLibelle2":"Droit pénal","acDateSerment":"","coordinates":[5.0403317,47.3201404]},{"NomBarreau":"DIJON","avNom":"PATRIAT","avPrenom":"Silvère","cbRaisonSociale":"PATRIAT ET ASSOCIES","cbSiretSiren":"808659007","cbAdresse1":"37 Rue Elsa Triolet","cbAdresse2":"","cbCp":"21000","cbVille":"DIJON","spLibelle1":"","spLibelle2":"","acDateSerment":"","coordinates":[5.051561,47.3656822]},{"NomBarreau":"DIJON","avNom":"PAULIN-SEGUIRE","avPrenom":"Nagy","cbRaisonSociale":"PAULIN SEGUIRE NAGY","cbSiretSiren":"353781065","cbAdresse1":"3 BIS rue Paul Cabet","cbAdresse2":"","cbCp":"21000","cbVille":"DIJON","spLibelle1":"","spLibelle2":"","acDateSerment":"","coordinates":[5.0489037,47.3217132]},{"NomBarreau":"DIJON","avNom":"PERIA","avPrenom":"Clémence","cbRaisonSociale":"LLAMAS ET ASSOCIES","cbSiretSiren":"439536327","cbAdresse1":"12 boulevard Clemenceau","cbAdresse2":"","cbCp":"21000","cbVille":"DIJON","spLibelle1":"Droit du travail","spLibelle2":"","acDateSerment":"","coordinates":[5.0484296,47.3274981]},{"NomBarreau":"DIJON","avNom":"PERRIN","avPrenom":"Maxence ","cbRaisonSociale":"PERRIN MAXENCE","cbSiretSiren":"753459775","cbAdresse1":"5 Rond Point de la Nation","cbAdresse2":"","cbCp":"21000","cbVille":"DIJON","spLibelle1":"","spLibelle2":"","acDateSerment":"","coordinates":[5.044732,47.3469624]},{"NomBarreau":"DIJON","avNom":"PETIT","avPrenom":"Franck","cbRaisonSociale":"PETIT FRANCK","cbSiretSiren":"440594174","cbAdresse1":"2 rue Bouhier","cbAdresse2":"","cbCp":"21000","cbVille":"DIJON","spLibelle1":"","spLibelle2":"","acDateSerment":"","coordinates":[5.0416053,47.3205772]},{"NomBarreau":"DIJON","avNom":"PICHON","avPrenom":"Charles","cbRaisonSociale":"PICHON CHARLES","cbSiretSiren":"834272551","cbAdresse1":"3 Bd de Brosses","cbAdresse2":"","cbCp":"21000","cbVille":"DIJON","spLibelle1":"","spLibelle2":"","acDateSerment":"","coordinates":[5.0385019,47.3250816]},{"NomBarreau":"DIJON","avNom":"PICHON","avPrenom":"Julie ","cbRaisonSociale":"PICHON JULIE","cbSiretSiren":"531113900","cbAdresse1":"14 Bis Rue de la Poste","cbAdresse2":"","cbCp":"21000","cbVille":"DIJON","spLibelle1":"","spLibelle2":"","acDateSerment":"","coordinates":[5.0355195,47.3235188]},{"NomBarreau":"DIJON","avNom":"PIZZOLATO","avPrenom":"Céline","cbRaisonSociale":"MAJNONI D'INTIGNANO-BUHAGIAR-JEANNIARD-PIZZOLATO-CHATRIOT","cbSiretSiren":"378898639","cbAdresse1":"29 C rue de Talant","cbAdresse2":"","cbCp":"21000","cbVille":"DIJON","spLibelle1":"","spLibelle2":"","acDateSerment":"","coordinates":[5.0238223,47.3287888]},{"NomBarreau":"DIJON","avNom":"PLOUARD","avPrenom":"Angelique","cbRaisonSociale":"PLOUARD ANGELIQUE","cbSiretSiren":"790428502","cbAdresse1":"12 Rue de Gray","cbAdresse2":"","cbCp":"21000","cbVille":"DIJON","spLibelle1":"","spLibelle2":"","acDateSerment":"","coordinates":[5.0526142,47.3227299]},{"NomBarreau":"DIJON","avNom":"POLETTE","avPrenom":"Claude","cbRaisonSociale":"ARGON-POLETTE-NOURANI- APPAIX AVOCATS ASSOCIES","cbSiretSiren":"804601268","cbAdresse1":"6 Boulevard Clemenceau","cbAdresse2":"","cbCp":"21000","cbVille":"DIJON","spLibelle1":"","spLibelle2":"","acDateSerment":"","coordinates":[5.0472052,47.3270749]},{"NomBarreau":"DIJON","avNom":"PRAT-PEYROU","avPrenom":"Sandrine","cbRaisonSociale":"PRAT SANDRINE","cbSiretSiren":"399906304","cbAdresse1":"4 Boulevard Clemenceau","cbAdresse2":"","cbCp":"21000","cbVille":"DIJON","spLibelle1":"","spLibelle2":"","acDateSerment":"","coordinates":[5.0468887,47.3268981]},{"NomBarreau":"DIJON","avNom":"PROFUMO","avPrenom":"Hervé","cbRaisonSociale":"PROFUMO HERVE ET PROFUMO SYLVAIN","cbSiretSiren":"403676604","cbAdresse1":"19 Avenue Albert Camus","cbAdresse2":"","cbCp":"21000","cbVille":"DIJON","spLibelle1":"Droit commercial, des affaires et de la concurrence","spLibelle2":"","acDateSerment":"","coordinates":[5.0471205,47.3531998]},{"NomBarreau":"DIJON","avNom":"PROFUMO","avPrenom":"Sylvain","cbRaisonSociale":"PROFUMO HERVE ET PROFUMO SYLVAIN","cbSiretSiren":"403676604","cbAdresse1":"19 Avenue Albert Camus","cbAdresse2":"","cbCp":"21000","cbVille":"DIJON","spLibelle1":"","spLibelle2":"","acDateSerment":"","coordinates":[5.0471205,47.3531998]},{"NomBarreau":"DIJON","avNom":"PUIG","avPrenom":"Clémence ","cbRaisonSociale":"CPA","cbSiretSiren":"","cbAdresse1":"21 avenue Albert Camus","cbAdresse2":"","cbCp":"21000","cbVille":"DIJON","spLibelle1":"Droit du travail","spLibelle2":"","acDateSerment":"","coordinates":[5.0469007,47.3533568]},{"NomBarreau":"DIJON","avNom":"PUJOL","avPrenom":"Virginie","cbRaisonSociale":"ROUSSEAU BALDINI PUJOL AVOCATS","cbSiretSiren":"911002079","cbAdresse1":"17 PLACE BOSSUET","cbAdresse2":"","cbCp":"21000","cbVille":"DIJON","spLibelle1":"","spLibelle2":"","acDateSerment":"","coordinates":[5.036997,47.3205056]},{"NomBarreau":"DIJON","avNom":"RAIMBAULT","avPrenom":"Marie","cbRaisonSociale":"SOULARD-RAIMBAULT","cbSiretSiren":"813404944","cbAdresse1":"6 rue Hernoux","cbAdresse2":"","cbCp":"21000","cbVille":"DIJON","spLibelle1":"Droit du travail","spLibelle2":"","acDateSerment":"","coordinates":[5.040888,47.3193453]},{"NomBarreau":"DIJON","avNom":"RAYER","avPrenom":"Anne","cbRaisonSociale":"RAYER ANNE","cbSiretSiren":"798894531","cbAdresse1":"13 Rue Marguerite Yourcenar","cbAdresse2":"","cbCp":"21000","cbVille":"DIJON","spLibelle1":"","spLibelle2":"","acDateSerment":"","coordinates":[5.0578736,47.3511979]},{"NomBarreau":"DIJON","avNom":"RENAULT-LE-HIR","avPrenom":"Isabelle","cbRaisonSociale":"RENAULT LE HIR ISABELLE","cbSiretSiren":"332014521","cbAdresse1":"6 rue Claus Sluter","cbAdresse2":"CARRE LUMIERE","cbCp":"21000","cbVille":"DIJON","spLibelle1":"","spLibelle2":"","acDateSerment":"","coordinates":[5.045508,47.3275685]},{"NomBarreau":"DIJON","avNom":"RENOUX","avPrenom":"Lucie","cbRaisonSociale":"DGK AVOCATS ASSOCIES","cbSiretSiren":"437766405","cbAdresse1":"7 avenue Jean Bertin","cbAdresse2":"","cbCp":"21000","cbVille":"DIJON","spLibelle1":"","spLibelle2":"","acDateSerment":"","coordinates":[5.0425009,47.3557718]},{"NomBarreau":"DIJON","avNom":"RETAILLEAU","avPrenom":"Isabelle","cbRaisonSociale":"ISABELLE RETAILLEAU","cbSiretSiren":"410968986","cbAdresse1":"60 rue Devosge","cbAdresse2":"","cbCp":"21000","cbVille":"DIJON","spLibelle1":"","spLibelle2":"","acDateSerment":"","coordinates":[5.0393429,47.3265522]},{"NomBarreau":"DIJON","avNom":"RICHARDOT","avPrenom":"Pauline ","cbRaisonSociale":"RICHARDOT  PAULINE","cbSiretSiren":"845033745","cbAdresse1":"35 Rue Louis de Broglie","cbAdresse2":"","cbCp":"21000","cbVille":"DIJON","spLibelle1":"","spLibelle2":"","acDateSerment":"","coordinates":[5.0439573,47.357511]},{"NomBarreau":"DIJON","avNom":"RIGAUDIERE","avPrenom":"Lorraine","cbRaisonSociale":"RIGAUDIERE LORRAINE","cbSiretSiren":"503849754","cbAdresse1":"3 Rue Louis de Broglie","cbAdresse2":"","cbCp":"21000","cbVille":"DIJON","spLibelle1":"","spLibelle2":"","acDateSerment":"","coordinates":[5.0412441,47.3558174]},{"NomBarreau":"DIJON","avNom":"RIGNAULT","avPrenom":"Nathalie","cbRaisonSociale":"MERIENNE ET ASSOCIES ","cbSiretSiren":"501860522","cbAdresse1":"4 A Rue Marguerite Yourcenar","cbAdresse2":"","cbCp":"21000","cbVille":"DIJON","spLibelle1":"Droit du travail","spLibelle2":"","acDateSerment":"","coordinates":[5.0578736,47.3511979]},{"NomBarreau":"DIJON","avNom":"RIMAIRE","avPrenom":"Estelle","cbRaisonSociale":"RIMAIRE ESTELLE","cbSiretSiren":"847825817","cbAdresse1":"14 place des Ducs de Bourgogne","cbAdresse2":"","cbCp":"21000","cbVille":"DIJON","spLibelle1":"","spLibelle2":"","acDateSerment":"","coordinates":[5.0426763,47.3222685]},{"NomBarreau":"DIJON","avNom":"RIQUET MICHEL","avPrenom":"Adrienne","cbRaisonSociale":"RIQUET-MICHEL ADRIENNE","cbSiretSiren":"833607914","cbAdresse1":"29 rue de Talant","cbAdresse2":"","cbCp":"21000","cbVille":"DIJON","spLibelle1":"","spLibelle2":"","acDateSerment":"","coordinates":[5.0259965,47.3280551]},{"NomBarreau":"DIJON","avNom":"ROCARD","avPrenom":"Cécile","cbRaisonSociale":"ROCARD CECILE","cbSiretSiren":"400199386","cbAdresse1":"7 Place Auguste Dubois","cbAdresse2":"","cbCp":"21000","cbVille":"DIJON","spLibelle1":"","spLibelle2":"","acDateSerment":"","coordinates":[5.032708,47.3251977]},{"NomBarreau":"DIJON","avNom":"RODRIGUEZ-MARTINEZ","avPrenom":"Jose Andres","cbRaisonSociale":"RODRIGUEZ-MARTINEZ JOSE ANDRES","cbSiretSiren":"417946878","cbAdresse1":"3 Boulevard de Brosses","cbAdresse2":"","cbCp":"21000","cbVille":"DIJON","spLibelle1":"","spLibelle2":"","acDateSerment":"","coordinates":[5.0385019,47.3250816]},{"NomBarreau":"DIJON","avNom":"ROLET","avPrenom":"Elise","cbRaisonSociale":"ROLET ELISE","cbSiretSiren":"893214437","cbAdresse1":"14 Rue Vauban","cbAdresse2":"","cbCp":"21000","cbVille":"DIJON","spLibelle1":"","spLibelle2":"","acDateSerment":"","coordinates":[5.0403317,47.3201404]},{"NomBarreau":"DIJON","avNom":"ROQUES","avPrenom":"Aurélie","cbRaisonSociale":"ROQUES AURELIE","cbSiretSiren":"487844342","cbAdresse1":"6 rue Claus Sluter","cbAdresse2":"","cbCp":"21000","cbVille":"DIJON","spLibelle1":"","spLibelle2":"","acDateSerment":"","coordinates":[5.045508,47.3275685]},{"NomBarreau":"DIJON","avNom":"ROSSIGNOL","avPrenom":"Bénédicte","cbRaisonSociale":"ROSSIGNOL BENEDICTE","cbSiretSiren":"385099221","cbAdresse1":"2 avenue Garibaldi","cbAdresse2":"","cbCp":"21000","cbVille":"DIJON","spLibelle1":"","spLibelle2":"","acDateSerment":"","coordinates":[5.0441423,47.3274078]},{"NomBarreau":"DIJON","avNom":"ROTHDIENER","avPrenom":"Gaetan","cbRaisonSociale":"ROTHDIENER GAETAN","cbSiretSiren":"821606126","cbAdresse1":"7 rue Buffon","cbAdresse2":"","cbCp":"21000","cbVille":"DIJON","spLibelle1":"","spLibelle2":"","acDateSerment":"","coordinates":[5.0452783,47.3200586]},{"NomBarreau":"DIJON","avNom":"ROUX","avPrenom":"Corentin","cbRaisonSociale":"ROUX CORENTIN","cbSiretSiren":"847663341","cbAdresse1":"1 C Boulevard de Champagne","cbAdresse2":"Tour Elithis ( 5ème étage)","cbCp":"21000","cbVille":"DIJON","spLibelle1":"","spLibelle2":"","acDateSerment":"","coordinates":[5.0524708,47.3290356]},{"NomBarreau":"DIJON","avNom":"RUTHER","avPrenom":"Eric","cbRaisonSociale":"RUTHER ERIC","cbSiretSiren":"353781305","cbAdresse1":"15 Boulevard Thiers","cbAdresse2":"","cbCp":"21000","cbVille":"DIJON","spLibelle1":"","spLibelle2":"","acDateSerment":"","coordinates":[5.0474486,47.3253018]},{"NomBarreau":"DIJON","avNom":"RUTHER","avPrenom":"Lucie","cbRaisonSociale":"RUTHER LUCIE","cbSiretSiren":"818265043","cbAdresse1":"15 Boulevard Thiers","cbAdresse2":"","cbCp":"21000","cbVille":"DIJON","spLibelle1":"","spLibelle2":"","acDateSerment":"","coordinates":[5.0474486,47.3253018]},{"NomBarreau":"DIJON","avNom":"SABATIER-SEIGNOLE","avPrenom":"Anne-Laure","cbRaisonSociale":"SABATIER-PERNELLE","cbSiretSiren":"844705020","cbAdresse1":"14 place des Ducs de Bourgogne","cbAdresse2":"","cbCp":"21000","cbVille":"DIJON","spLibelle1":"","spLibelle2":"","acDateSerment":"","coordinates":[5.0426763,47.3222685]},{"NomBarreau":"DIJON","avNom":"SABBAH","avPrenom":"Jeoffrey","cbRaisonSociale":"FIDAL","cbSiretSiren":"525031522","cbAdresse1":"2 B Avenue de Marbotte","cbAdresse2":"MARBOTTE PLAZZA","cbCp":"21070","cbVille":"DIJON","spLibelle1":"","spLibelle2":"","acDateSerment":"","coordinates":[5.0522376,47.3309846]},{"NomBarreau":"DIJON","avNom":"SANDY","avPrenom":"Jaron","cbRaisonSociale":"JOUFFROY & FILEAS AVOCATS","cbSiretSiren":"488344870","cbAdresse1":"14 rue Jean de Cirey","cbAdresse2":"","cbCp":"21000","cbVille":"DIJON","spLibelle1":"","spLibelle2":"","acDateSerment":"","coordinates":[5.0489059,47.3265656]},{"NomBarreau":"DIJON","avNom":"SARCE","avPrenom":"Karine","cbRaisonSociale":"SARCE KARINE","cbSiretSiren":"421682873","cbAdresse1":"49 Rue de Montchapet","cbAdresse2":"","cbCp":"21000","cbVille":"DIJON","spLibelle1":"","spLibelle2":"","acDateSerment":"","coordinates":[5.0316939,47.3306732]},{"NomBarreau":"DIJON","avNom":"SCHMITT","avPrenom":"Jean-Philippe","cbRaisonSociale":"SCHMITT JEAN-PHILIPPE","cbSiretSiren":"421757998","cbAdresse1":"1 Bd Georges Clemenceau","cbAdresse2":"","cbCp":"21000","cbVille":"DIJON","spLibelle1":"Droit du travail","spLibelle2":"","acDateSerment":"","coordinates":[5.0469481,47.3272272]},{"NomBarreau":"DIJON","avNom":"SI HASSEN","avPrenom":"Myriam","cbRaisonSociale":"SI HASSEN MYRIAM","cbSiretSiren":"528911712","cbAdresse1":"6 Petite rue de Pouilly","cbAdresse2":"","cbCp":"21000","cbVille":"DIJON","spLibelle1":"","spLibelle2":"","acDateSerment":"","coordinates":[5.0446938,47.327867]},{"NomBarreau":"DIJON","avNom":"SIMARD","avPrenom":"Jean-Philippe","cbRaisonSociale":"MAGDELAINE AVOCATS ASSOCIES","cbSiretSiren":"411142904","cbAdresse1":"1 Boulevard Thiers","cbAdresse2":"","cbCp":"21000","cbVille":"DIJON","spLibelle1":"","spLibelle2":"","acDateSerment":"","coordinates":[5.0464543,47.3260308]},{"NomBarreau":"DIJON","avNom":"SIX","avPrenom":"Pauline","cbRaisonSociale":"SIX PAULINE","cbSiretSiren":"827591074","cbAdresse1":"12 Bd Georges Clemenceau","cbAdresse2":"","cbCp":"21000","cbVille":"DIJON","spLibelle1":"","spLibelle2":"","acDateSerment":"","coordinates":[5.0484296,47.3274981]},{"NomBarreau":"DIJON","avNom":"SOLARY","avPrenom":"Sarah","cbRaisonSociale":"MENDEL - VOGUE ET ASSOCIES","cbSiretSiren":"817427446","cbAdresse1":"14 BIS Rue de la Poste","cbAdresse2":"","cbCp":"21000","cbVille":"DIJON","spLibelle1":"","spLibelle2":"","acDateSerment":"","coordinates":[5.0355195,47.3235188]},{"NomBarreau":"DIJON","avNom":"SOTTY","avPrenom":"Bruno","cbRaisonSociale":"SOTTY","cbSiretSiren":"399384718","cbAdresse1":"27 rue de Mulhouse","cbAdresse2":"","cbCp":"21000","cbVille":"DIJON","spLibelle1":"","spLibelle2":"","acDateSerment":"","coordinates":[5.0488405,47.3257631]},{"NomBarreau":"DIJON","avNom":"SOULARD","avPrenom":"Florent","cbRaisonSociale":"SOULARD-RAIMBAULT","cbSiretSiren":"813404944","cbAdresse1":"6 rue Hernoux","cbAdresse2":"","cbCp":"21000","cbVille":"DIJON","spLibelle1":"Procédure d'appel","spLibelle2":"","acDateSerment":"","coordinates":[5.040888,47.3193453]},{"NomBarreau":"DIJON","avNom":"SPINA","avPrenom":"Arthur","cbRaisonSociale":"JANIER & SPINA","cbSiretSiren":"914778949","cbAdresse1":"78 Rue Jean Jacques Rousseau","cbAdresse2":"","cbCp":"21000","cbVille":"DIJON","spLibelle1":"","spLibelle2":"","acDateSerment":"","coordinates":[5.044265,47.3231898]},{"NomBarreau":"DIJON","avNom":"STANKIEWICZ","avPrenom":"Charlotte","cbRaisonSociale":"STANKIEWICZ CHARLOTTE","cbSiretSiren":"834379034","cbAdresse1":"7 avenue Jean Bertin","cbAdresse2":"","cbCp":"21000","cbVille":"DIJON","spLibelle1":"","spLibelle2":"","acDateSerment":"","coordinates":[5.0425009,47.3557718]},{"NomBarreau":"DIJON","avNom":"TAUZIN","avPrenom":"Emmanuel","cbRaisonSociale":"TAUZIN EMMANUEL","cbSiretSiren":"530297464","cbAdresse1":"15 Place Grangier","cbAdresse2":"","cbCp":"21000","cbVille":"DIJON","spLibelle1":"","spLibelle2":"","acDateSerment":"","coordinates":[5.0367391,47.3232313]},{"NomBarreau":"DIJON","avNom":"TEILLAUD","avPrenom":"Clémence","cbRaisonSociale":"TEILLAUD CLEMENCE","cbSiretSiren":"825150766","cbAdresse1":"4 rue Jeanne Barret","cbAdresse2":"Parc Valmy","cbCp":"21066","cbVille":"DIJON","spLibelle1":"","spLibelle2":"","acDateSerment":"","coordinates":[5.0499509,47.3662751]},{"NomBarreau":"DIJON","avNom":"TELENGA","avPrenom":"Frédéric","cbRaisonSociale":"BJT","cbSiretSiren":"484307624","cbAdresse1":"1 C Boulevard de Champagne","cbAdresse2":"Tour Elithis ( 5ème étage)","cbCp":"21000","cbVille":"DIJON","spLibelle1":"","spLibelle2":"","acDateSerment":"","coordinates":[5.0524708,47.3290356]},{"NomBarreau":"DIJON","avNom":"THOMAS","avPrenom":"Fabienne","cbRaisonSociale":"MAGDELAINE AVOCATS ASSOCIES","cbSiretSiren":"411142904","cbAdresse1":"1 Boulevard Thiers","cbAdresse2":"","cbCp":"21000","cbVille":"DIJON","spLibelle1":"","spLibelle2":"","acDateSerment":"","coordinates":[5.0464543,47.3260308]},{"NomBarreau":"DIJON","avNom":"TISSIER","avPrenom":"Delphine","cbRaisonSociale":"PATRIAT ET ASSOCIES","cbSiretSiren":"808659007","cbAdresse1":"37 Rue Elsa Triolet","cbAdresse2":"","cbCp":"21000","cbVille":"DIJON","spLibelle1":"","spLibelle2":"","acDateSerment":"","coordinates":[5.051561,47.3656822]},{"NomBarreau":"DIJON","avNom":"TODESCO","avPrenom":"Claire","cbRaisonSociale":"TODESCO CLAIRE","cbSiretSiren":"909315202","cbAdresse1":"14 BIS Rue de la Poste","cbAdresse2":"","cbCp":"21000","cbVille":"DIJON","spLibelle1":"","spLibelle2":"","acDateSerment":"","coordinates":[5.0355195,47.3235188]},{"NomBarreau":"DIJON","avNom":"TOURAILLE","avPrenom":"Emmanuel","cbRaisonSociale":"CHAUMARD TOURAILLE","cbSiretSiren":"312843501","cbAdresse1":"7 Place Auguste Dubois","cbAdresse2":"","cbCp":"21000","cbVille":"DIJON","spLibelle1":"","spLibelle2":"","acDateSerment":"","coordinates":[5.032708,47.3251977]},{"NomBarreau":"DIJON","avNom":"TRESSE","avPrenom":"Michèle","cbRaisonSociale":"BOUCHARD - TRESSE","cbSiretSiren":"531622744","cbAdresse1":"62 rue Chabot Charny","cbAdresse2":"","cbCp":"21000","cbVille":"DIJON","spLibelle1":"","spLibelle2":"","acDateSerment":"","coordinates":[5.0433558,47.3180273]},{"NomBarreau":"DIJON","avNom":"TRONCIN","avPrenom":"Marie-Christine","cbRaisonSociale":"MC TRONCIN","cbSiretSiren":"821249638","cbAdresse1":"34 D boulevard de la Marne","cbAdresse2":"","cbCp":"21000","cbVille":"DIJON","spLibelle1":"","spLibelle2":"","acDateSerment":"","coordinates":[5.0494042,47.3294127]},{"NomBarreau":"DIJON","avNom":"TRUCHY","avPrenom":"Anthony","cbRaisonSociale":"TRUCHY ANTHONY","cbSiretSiren":"799524525","cbAdresse1":"13 rue du Palais","cbAdresse2":"","cbCp":"21000","cbVille":"DIJON","spLibelle1":"","spLibelle2":"","acDateSerment":"","coordinates":[5.0422504,47.3200933]},{"NomBarreau":"DIJON","avNom":"TUPINIER","avPrenom":"Alexis","cbRaisonSociale":"TUPINIER ALEXIS","cbSiretSiren":"809006638","cbAdresse1":"12 rue Montigny","cbAdresse2":"","cbCp":"21000","cbVille":"DIJON","spLibelle1":"","spLibelle2":"","acDateSerment":"","coordinates":[5.0371295,47.3255568]},{"NomBarreau":"DIJON","avNom":"UBERSCHLAG","avPrenom":"Adrien","cbRaisonSociale":"UBERSCHLAG ADRIEN","cbSiretSiren":"817778343","cbAdresse1":"1 boulevard Thiers","cbAdresse2":"","cbCp":"21000","cbVille":"DIJON","spLibelle1":"","spLibelle2":"","acDateSerment":"","coordinates":[5.0464543,47.3260308]},{"NomBarreau":"DIJON","avNom":"VENTALON","avPrenom":"Lucille","cbRaisonSociale":"VENTALON LUCILLE","cbSiretSiren":"880430921","cbAdresse1":"4 A Rue Marguerite Yourcenar","cbAdresse2":"","cbCp":"21000","cbVille":"DIJON","spLibelle1":"","spLibelle2":"","acDateSerment":"","coordinates":[5.0578736,47.3511979]},{"NomBarreau":"DIJON","avNom":"VIAIN-LALOUETTE","avPrenom":"Bruno","cbRaisonSociale":"JURISTES ASSOCIES BFC","cbSiretSiren":"417883196","cbAdresse1":"10 rue Jean Giono","cbAdresse2":"Immeuble Antarès","cbCp":"21000","cbVille":"DIJON","spLibelle1":"","spLibelle2":"","acDateSerment":"","coordinates":[5.0506449,47.3531278]},{"NomBarreau":"DIJON","avNom":"VIRLOGEUX","avPrenom":"Aurelie","cbRaisonSociale":"VIRLOGEUX AURELIE","cbSiretSiren":"532808649","cbAdresse1":"7 avenue Jean Bertin","cbAdresse2":"","cbCp":"21000","cbVille":"DIJON","spLibelle1":"","spLibelle2":"","acDateSerment":"","coordinates":[5.0425009,47.3557718]},{"NomBarreau":"DIJON","avNom":"WALLE","avPrenom":"Anais","cbRaisonSociale":"WALLE ANAAS","cbSiretSiren":"847825767","cbAdresse1":"21 Avenue Albert Camus","cbAdresse2":"","cbCp":"21000","cbVille":"DIJON","spLibelle1":"","spLibelle2":"","acDateSerment":"","coordinates":[5.0469007,47.3533568]},{"NomBarreau":"DIJON","avNom":"XAVIER-BONNEAU","avPrenom":"Fanny","cbRaisonSociale":"XAVIER-BONNEAU FANNY","cbSiretSiren":"509323853","cbAdresse1":"1 B rue de Mulhouse","cbAdresse2":"5éme étage","cbCp":"21000","cbVille":"DIJON","spLibelle1":"","spLibelle2":"","acDateSerment":"","coordinates":[5.0495977,47.3254735]}]