[{"NomBarreau":"SEINE-SAINT-DENIS","avNom":"AMIRECHE","avPrenom":"Farida","cbRaisonSociale":"AMIRECHE","cbSiretSiren":"503695835","cbAdresse1":"4 Rue Marcelin Berthelot","cbAdresse2":"","cbCp":"93700","cbVille":"DRANCY","spLibelle1":"","spLibelle2":"","acDateSerment":"","coordinates":[2.4460091,48.9198744]},{"NomBarreau":"SEINE-SAINT-DENIS","avNom":"BENHAMOUDA","avPrenom":"Mehdi","cbRaisonSociale":"BENHAMOUDA","cbSiretSiren":"822357711","cbAdresse1":"4 Avenue Henri Barbusse","cbAdresse2":"","cbCp":"93700","cbVille":"DRANCY","spLibelle1":"","spLibelle2":"","acDateSerment":"","coordinates":[2.4593528,48.9233985]},{"NomBarreau":"SEINE-SAINT-DENIS","avNom":"BOAMAH","avPrenom":"Barbara","cbRaisonSociale":"L&B","cbSiretSiren":"","cbAdresse1":"4 Rue de la Haute Borne","cbAdresse2":"","cbCp":"93700","cbVille":"DRANCY","spLibelle1":"","spLibelle2":"","acDateSerment":"","coordinates":[2.4465654,48.9223878]},{"NomBarreau":"SEINE-SAINT-DENIS","avNom":"BOUST","avPrenom":"Floriane","cbRaisonSociale":"GARLIN BOUST MAHI","cbSiretSiren":"380396952","cbAdresse1":"9 Rue Roger Salengro","cbAdresse2":"","cbCp":"93700","cbVille":"DRANCY","spLibelle1":"","spLibelle2":"","acDateSerment":"","coordinates":[2.4407056,48.9209768]},{"NomBarreau":"SEINE-SAINT-DENIS","avNom":"DEBY","avPrenom":"Luc Robert","cbRaisonSociale":"DEBY","cbSiretSiren":"389000597","cbAdresse1":"79 Rue Roger Salengro","cbAdresse2":"","cbCp":"93700","cbVille":"DRANCY","spLibelle1":"","spLibelle2":"","acDateSerment":"","coordinates":[2.4378014,48.9194058]},{"NomBarreau":"SEINE-SAINT-DENIS","avNom":"GAGEY","avPrenom":"Diane","cbRaisonSociale":"GAGEY","cbSiretSiren":"908949233","cbAdresse1":"4 Rue de la Haute Borne","cbAdresse2":"","cbCp":"93700","cbVille":"DRANCY","spLibelle1":"","spLibelle2":"","acDateSerment":"","coordinates":[2.4465654,48.9223878]},{"NomBarreau":"SEINE-SAINT-DENIS","avNom":"GARLIN","avPrenom":"Nathalie","cbRaisonSociale":"GARLIN BOUST MAHI","cbSiretSiren":"380396952","cbAdresse1":"9 Rue Roger Salengro","cbAdresse2":"","cbCp":"93700","cbVille":"DRANCY","spLibelle1":"","spLibelle2":"","acDateSerment":"","coordinates":[2.4407056,48.9209768]},{"NomBarreau":"SEINE-SAINT-DENIS","avNom":"LAUDE","avPrenom":"Caroline","cbRaisonSociale":"L&B","cbSiretSiren":"","cbAdresse1":"4 Rue de la Haute Borne","cbAdresse2":"","cbCp":"93700","cbVille":"DRANCY","spLibelle1":"","spLibelle2":"","acDateSerment":"","coordinates":[2.4465654,48.9223878]},{"NomBarreau":"SEINE-SAINT-DENIS","avNom":"MAHI","avPrenom":"Samira","cbRaisonSociale":"GARLIN BOUST MAHI","cbSiretSiren":"380396952","cbAdresse1":"9 Rue Roger Salengro","cbAdresse2":"","cbCp":"93700","cbVille":"DRANCY","spLibelle1":"","spLibelle2":"","acDateSerment":"","coordinates":[2.4407056,48.9209768]}]