[{"NomBarreau":"VAL D'OISE","avNom":"ALLAIN","avPrenom":"Thierry","cbRaisonSociale":"ALLAIN THIERRY","cbSiretSiren":"344518352","cbAdresse1":"1, Rue de Malleville","cbAdresse2":"","cbCp":"95880","cbVille":"ENGHIEN LES BAINS","spLibelle1":"","spLibelle2":"","acDateSerment":"","coordinates":[2.3080819,48.9693639]},{"NomBarreau":"VAL D'OISE","avNom":"AOUIMEUR","avPrenom":"Assia","cbRaisonSociale":"AOUIMEUR ASSIA","cbSiretSiren":"897776530","cbAdresse1":"1 Bis Boulevard COTTE","cbAdresse2":"","cbCp":"95880","cbVille":"ENGHIEN LES BAINS","spLibelle1":"","spLibelle2":"","acDateSerment":"","coordinates":[2.3060047,48.9685497]},{"NomBarreau":"VAL D'OISE","avNom":"BALZARINI-NOACHOVITCH","avPrenom":"Sébastien","cbRaisonSociale":"NOACHOVITCH & ASSOCIE ","cbSiretSiren":"","cbAdresse1":"12 Bis Boulevard d'Ormesson","cbAdresse2":"","cbCp":"95880","cbVille":"ENGHIEN LES BAINS","spLibelle1":"","spLibelle2":"","acDateSerment":"","coordinates":[2.3096546,48.9706788]},{"NomBarreau":"VAL D'OISE","avNom":"BEAUMONT-SERDA","avPrenom":"Emmanuelle","cbRaisonSociale":"BEAUMONT-SERDA EMMANUELLE","cbSiretSiren":"438370009","cbAdresse1":"32 rue de Mora","cbAdresse2":"","cbCp":"95880","cbVille":"ENGHIEN LES BAINS","spLibelle1":"","spLibelle2":"","acDateSerment":"","coordinates":[2.305866,48.9711963]},{"NomBarreau":"VAL D'OISE","avNom":"DE BATZ","avPrenom":"Agathe","cbRaisonSociale":"DE BATZ AGATHE","cbSiretSiren":"908575947","cbAdresse1":"12 bis boulevard d'Ormesson","cbAdresse2":"","cbCp":"95880","cbVille":"ENGHIEN LES BAINS","spLibelle1":"","spLibelle2":"","acDateSerment":"","coordinates":[2.3096546,48.9706788]},{"NomBarreau":"VAL D'OISE","avNom":"DELPLA","avPrenom":"Christophe","cbRaisonSociale":"CHRISTOPHE DELPLA AUDE LAPALU ","cbSiretSiren":"514077999","cbAdresse1":"20 Rue Pasteur","cbAdresse2":"","cbCp":"95880","cbVille":"ENGHIEN LES BAINS","spLibelle1":"","spLibelle2":"","acDateSerment":"","coordinates":[2.3096733,48.9667572]},{"NomBarreau":"VAL D'OISE","avNom":"DUMONT SOLEIL","avPrenom":"Eva","cbRaisonSociale":"DUMONT SOLEIL EVA","cbSiretSiren":"833182967","cbAdresse1":"32 rue de Mora","cbAdresse2":"","cbCp":"95880","cbVille":"ENGHIEN LES BAINS","spLibelle1":"","spLibelle2":"","acDateSerment":"","coordinates":[2.305866,48.9711963]},{"NomBarreau":"VAL D'OISE","avNom":"ESTEVE","avPrenom":"Jean-Paul","cbRaisonSociale":"ESTEVE JEAN-PAUL","cbSiretSiren":"393193917","cbAdresse1":"37 Bis Boulevard du Lac","cbAdresse2":"","cbCp":"95880","cbVille":"ENGHIEN LES BAINS","spLibelle1":"","spLibelle2":"","acDateSerment":"","coordinates":[2.298694,48.967313]},{"NomBarreau":"VAL D'OISE","avNom":"HAMDOUNE-SAIDI","avPrenom":"Nadia","cbRaisonSociale":"HAMDOUNE-SAIDI NADIA","cbSiretSiren":"795254283","cbAdresse1":"28 rue de Malleville","cbAdresse2":"","cbCp":"95880","cbVille":"ENGHIEN LES BAINS","spLibelle1":"","spLibelle2":"","acDateSerment":"","coordinates":[2.3068843,48.9686362]},{"NomBarreau":"VAL D'OISE","avNom":"LAGUZET","avPrenom":"Hélène","cbRaisonSociale":"LAGUZET HELENE","cbSiretSiren":"454013327","cbAdresse1":"1 Bis Boulevard COTTE","cbAdresse2":"","cbCp":"95880","cbVille":"ENGHIEN LES BAINS","spLibelle1":"","spLibelle2":"","acDateSerment":"","coordinates":[2.3060047,48.9685497]},{"NomBarreau":"VAL D'OISE","avNom":"LAHIANI","avPrenom":"Saléha","cbRaisonSociale":"LAHIANI SALEHA","cbSiretSiren":"504033754","cbAdresse1":"30 Rue Pasteur","cbAdresse2":"BP 50038","cbCp":"95880","cbVille":"ENGHIEN LES BAINS","spLibelle1":"","spLibelle2":"","acDateSerment":"","coordinates":[2.3096733,48.9667572]},{"NomBarreau":"VAL D'OISE","avNom":"LAPALU","avPrenom":"Aude-Françoise","cbRaisonSociale":"CHRISTOPHE DELPLA AUDE LAPALU ","cbSiretSiren":"514077999","cbAdresse1":"20 Rue Pasteur","cbAdresse2":"","cbCp":"95880","cbVille":"ENGHIEN LES BAINS","spLibelle1":"","spLibelle2":"","acDateSerment":"","coordinates":[2.3096733,48.9667572]},{"NomBarreau":"VAL D'OISE","avNom":"LITIM","avPrenom":"Oussama","cbRaisonSociale":"LITIM OUSSAMA","cbSiretSiren":"904473923","cbAdresse1":"28 rue de Malleville","cbAdresse2":"","cbCp":"95880","cbVille":"ENGHIEN LES BAINS","spLibelle1":"","spLibelle2":"","acDateSerment":"","coordinates":[2.3068843,48.9686362]},{"NomBarreau":"VAL D'OISE","avNom":"MACHTOU","avPrenom":"Béatrice","cbRaisonSociale":"MACHTOU BEATRICE","cbSiretSiren":"344736657","cbAdresse1":"1 Rue de Malleville","cbAdresse2":"","cbCp":"95880","cbVille":"ENGHIEN LES BAINS","spLibelle1":"","spLibelle2":"","acDateSerment":"","coordinates":[2.3080819,48.9693639]},{"NomBarreau":"VAL D'OISE","avNom":"NALLAN-POULBASSIA","avPrenom":"Julienne","cbRaisonSociale":"NALLAN-POULBASSIA JULIENNE","cbSiretSiren":"908592389","cbAdresse1":"32 Rue de Mora","cbAdresse2":"","cbCp":"95880","cbVille":"ENGHIEN LES BAINS","spLibelle1":"","spLibelle2":"","acDateSerment":"","coordinates":[2.305866,48.9711963]},{"NomBarreau":"VAL D'OISE","avNom":"OBADIA","avPrenom":"Valérie","cbRaisonSociale":"OBADIA VALERIE","cbSiretSiren":"393263868","cbAdresse1":"1 Rue de Malleville","cbAdresse2":"","cbCp":"95880","cbVille":"ENGHIEN LES BAINS","spLibelle1":"","spLibelle2":"","acDateSerment":"","coordinates":[2.3080819,48.9693639]},{"NomBarreau":"VAL D'OISE","avNom":"PANNAGAS","avPrenom":"Swéta","cbRaisonSociale":"PLUME DE PHOENIX","cbSiretSiren":"898844733","cbAdresse1":"3 Rue Blanche","cbAdresse2":"","cbCp":"95880","cbVille":"ENGHIEN LES BAINS","spLibelle1":"Droit du dommage corporel","spLibelle2":"","acDateSerment":"","coordinates":[2.3095726,48.9724428]},{"NomBarreau":"VAL D'OISE","avNom":"PATERNEL","avPrenom":"Rémi","cbRaisonSociale":"PATERNEL REMI","cbSiretSiren":"818480097","cbAdresse1":"20 Rue Pasteur","cbAdresse2":"BP 22","cbCp":"95880","cbVille":"ENGHIEN LES BAINS","spLibelle1":"","spLibelle2":"","acDateSerment":"","coordinates":[2.3096733,48.9667572]},{"NomBarreau":"VAL D'OISE","avNom":"THOMAS","avPrenom":"Jonathan","cbRaisonSociale":"THOMAS JONATHAN","cbSiretSiren":"798621090","cbAdresse1":"32 Rue de Mora","cbAdresse2":"","cbCp":"95880","cbVille":"ENGHIEN LES BAINS","spLibelle1":"","spLibelle2":"","acDateSerment":"","coordinates":[2.305866,48.9711963]},{"NomBarreau":"VAL D'OISE","avNom":"YESIL","avPrenom":"Thomas","cbRaisonSociale":"YESIL THOMAS","cbSiretSiren":"820878650","cbAdresse1":"20 Rue Pasteur","cbAdresse2":"","cbCp":"95880","cbVille":"ENGHIEN LES BAINS","spLibelle1":"","spLibelle2":"","acDateSerment":"","coordinates":[2.3096733,48.9667572]}]