[{"NomBarreau":"EPINAL","avNom":"ABELLAN","avPrenom":"Marie-Christiane","cbRaisonSociale":"ABELLAN-MONTAUT","cbSiretSiren":"445049695","cbAdresse1":"3 Place Foch","cbAdresse2":"","cbCp":"88000","cbVille":"EPINAL","spLibelle1":"","spLibelle2":"","acDateSerment":"","coordinates":[6.4483805,48.172939]},{"NomBarreau":"EPINAL","avNom":"ANGELOT","avPrenom":"Céline","cbRaisonSociale":"AUDIT-CONSEIL-DEFENSE","cbSiretSiren":"759800816","cbAdresse1":"7 rue Roland Thiery","cbAdresse2":"ZAC de la Roche","cbCp":"88000","cbVille":"EPINAL","spLibelle1":"","spLibelle2":"","acDateSerment":"","coordinates":[6.4701983,48.1834814]},{"NomBarreau":"EPINAL","avNom":"AQUINO","avPrenom":"Emeline","cbRaisonSociale":"AQUINO - MATZINGER","cbSiretSiren":"887510576","cbAdresse1":"7 Quai Louis Lapicque","cbAdresse2":"","cbCp":"88000","cbVille":"EPINAL","spLibelle1":"","spLibelle2":"","acDateSerment":"","coordinates":[6.4472118,48.1734784]},{"NomBarreau":"EPINAL","avNom":"AYADI","avPrenom":"Farida","cbRaisonSociale":"EST AVOCATS","cbSiretSiren":"790843437","cbAdresse1":"7 rue Gambetta","cbAdresse2":"","cbCp":"88000","cbVille":"EPINAL","spLibelle1":"","spLibelle2":"","acDateSerment":"","coordinates":[6.4244248,48.248513]},{"NomBarreau":"EPINAL","avNom":"BEGEL","avPrenom":"Alain","cbRaisonSociale":"BGBJ","cbSiretSiren":"908185473","cbAdresse1":"11-13 place Edmond Henry","cbAdresse2":"","cbCp":"88000","cbVille":"EPINAL","spLibelle1":"Droit immobilier","spLibelle2":"","acDateSerment":"","coordinates":[6.4511745,48.1747055]},{"NomBarreau":"EPINAL","avNom":"BELLO","avPrenom":"Mathilde","cbRaisonSociale":"BELLO","cbSiretSiren":"817973555","cbAdresse1":"6 rue du Boudiou","cbAdresse2":"","cbCp":"88000","cbVille":"EPINAL","spLibelle1":"","spLibelle2":"","acDateSerment":"","coordinates":[6.4469749,48.1744553]},{"NomBarreau":"EPINAL","avNom":"BERNARD","avPrenom":"Dorothée","cbRaisonSociale":"BGBJ","cbSiretSiren":"908185473","cbAdresse1":"11-13 place Edmond Henry","cbAdresse2":"","cbCp":"88000","cbVille":"EPINAL","spLibelle1":"","spLibelle2":"","acDateSerment":"","coordinates":[6.4511745,48.1747055]},{"NomBarreau":"EPINAL","avNom":"BONNET","avPrenom":"Sébastien","cbRaisonSociale":"LORRAINE DEFENSE & CONSEIL","cbSiretSiren":"509260030","cbAdresse1":"39 rue de la Chipotte","cbAdresse2":"","cbCp":"88000","cbVille":"EPINAL","spLibelle1":"","spLibelle2":"","acDateSerment":"","coordinates":[6.4478453,48.1777696]},{"NomBarreau":"EPINAL","avNom":"BOURDEAUX","avPrenom":"Laurence","cbRaisonSociale":"BOURDEAUX-MARCHETTI","cbSiretSiren":"794284083","cbAdresse1":"2 rue Paul Doumer","cbAdresse2":"","cbCp":"88000","cbVille":"EPINAL","spLibelle1":"","spLibelle2":"","acDateSerment":"","coordinates":[6.446727,48.1765634]},{"NomBarreau":"EPINAL","avNom":"COLLOT","avPrenom":"David","cbRaisonSociale":"LORRAINE DEFENSE & CONSEIL","cbSiretSiren":"509260030","cbAdresse1":"39 rue de la Chipotte","cbAdresse2":"","cbCp":"88000","cbVille":"EPINAL","spLibelle1":"","spLibelle2":"","acDateSerment":"","coordinates":[6.4478453,48.1777696]},{"NomBarreau":"EPINAL","avNom":"COULON","avPrenom":"Julien","cbRaisonSociale":"GARTNER ET ASSOCIES","cbSiretSiren":"852509470","cbAdresse1":"33 RUE DE LA PREFECTURE","cbAdresse2":"","cbCp":"88000","cbVille":"EPINAL","spLibelle1":"","spLibelle2":"","acDateSerment":"","coordinates":[6.4499978,48.1699682]},{"NomBarreau":"EPINAL","avNom":"CUNY","avPrenom":"Thibaut","cbRaisonSociale":"AUDIT-CONSEIL-DEFENSE","cbSiretSiren":"759800816","cbAdresse1":"7 rue Roland Thiery","cbAdresse2":"ZAC de la Roche","cbCp":"88000","cbVille":"EPINAL","spLibelle1":"Droit public","spLibelle2":"","acDateSerment":"","coordinates":[6.4701983,48.1834814]},{"NomBarreau":"EPINAL","avNom":"DANEL-MONNIER","avPrenom":"Magali","cbRaisonSociale":"MDM AVOCATS","cbSiretSiren":"877524991","cbAdresse1":"20 ALLEE DES BLANCHES CROIX","cbAdresse2":"","cbCp":"88000","cbVille":"EPINAL","spLibelle1":"","spLibelle2":"","acDateSerment":"","coordinates":[6.4657176,48.1865642]},{"NomBarreau":"EPINAL","avNom":"DEFORGE","avPrenom":"Arnaud","cbRaisonSociale":"DEFORGE","cbSiretSiren":"489054346","cbAdresse1":"98 rue des Soupirs","cbAdresse2":"","cbCp":"88000","cbVille":"EPINAL","spLibelle1":"","spLibelle2":"","acDateSerment":"","coordinates":[6.457312,48.1655504]},{"NomBarreau":"EPINAL","avNom":"DEGRYSE","avPrenom":"Joris","cbRaisonSociale":"DEGRYSE JORIS","cbSiretSiren":"880732300","cbAdresse1":"14 Place des Vosges","cbAdresse2":"","cbCp":"88000","cbVille":"EPINAL","spLibelle1":"","spLibelle2":"","acDateSerment":"","coordinates":[6.4499754,48.1743843]},{"NomBarreau":"EPINAL","avNom":"FOUNES","avPrenom":"Béatrice","cbRaisonSociale":"FOUNES-PERRIN","cbSiretSiren":"450020375","cbAdresse1":"7 RUE LORMONT","cbAdresse2":"","cbCp":"88000","cbVille":"EPINAL","spLibelle1":"","spLibelle2":"","acDateSerment":"","coordinates":[6.4510726,48.175577]},{"NomBarreau":"EPINAL","avNom":"GAUTHIER","avPrenom":"Cyrille","cbRaisonSociale":"GAUTHIER","cbSiretSiren":"529385692","cbAdresse1":"13 rue de la Chipotte","cbAdresse2":"","cbCp":"88000","cbVille":"EPINAL","spLibelle1":"","spLibelle2":"","acDateSerment":"","coordinates":[6.4483443,48.1758713]},{"NomBarreau":"EPINAL","avNom":"GEHIN","avPrenom":"Jean","cbRaisonSociale":"G2A","cbSiretSiren":"838065753","cbAdresse1":"23 PLACE JEANNE D'ARC","cbAdresse2":"","cbCp":"88000","cbVille":"EPINAL","spLibelle1":"Droit public","spLibelle2":"","acDateSerment":"","coordinates":[6.4468148,48.1778563]},{"NomBarreau":"EPINAL","avNom":"GERARDIN","avPrenom":"Renaud","cbRaisonSociale":"G2A","cbSiretSiren":"838065753","cbAdresse1":"23 PLACE JEANNE D'ARC","cbAdresse2":"","cbCp":"88000","cbVille":"EPINAL","spLibelle1":"","spLibelle2":"","acDateSerment":"","coordinates":[6.4468148,48.1778563]},{"NomBarreau":"EPINAL","avNom":"GERRIET","avPrenom":"Virginie","cbRaisonSociale":"CHOPIN AVOCATS","cbSiretSiren":"501913776","cbAdresse1":"5 Rue Chopin","cbAdresse2":"","cbCp":"88000","cbVille":"EPINAL","spLibelle1":"","spLibelle2":"","acDateSerment":"","coordinates":[6.4495208,48.1743465]},{"NomBarreau":"EPINAL","avNom":"GIURANNA","avPrenom":"Stéphane","cbRaisonSociale":"GIURANNA & IOGNA-PRAT","cbSiretSiren":"829862465","cbAdresse1":"Rue Ernest Renan","cbAdresse2":"Centre d'Affaires Les Tuileries","cbCp":"88000","cbVille":"EPINAL","spLibelle1":"Droit pénal","spLibelle2":"","acDateSerment":"","coordinates":[6.4646068,48.1868428]},{"NomBarreau":"EPINAL","avNom":"GRECO","avPrenom":"Emilia","cbRaisonSociale":"GRECO","cbSiretSiren":"444815773","cbAdresse1":"3 place Foch","cbAdresse2":"","cbCp":"88000","cbVille":"EPINAL","spLibelle1":"","spLibelle2":"","acDateSerment":"","coordinates":[6.4483805,48.172939]},{"NomBarreau":"EPINAL","avNom":"GUIDOT","avPrenom":"Violaine","cbRaisonSociale":"BGBJ","cbSiretSiren":"908185473","cbAdresse1":"11-13 place Edmond Henry","cbAdresse2":"","cbCp":"88000","cbVille":"EPINAL","spLibelle1":"","spLibelle2":"","acDateSerment":"","coordinates":[6.4511745,48.1747055]},{"NomBarreau":"EPINAL","avNom":"HARBIL-BONNE","avPrenom":"Aurélie","cbRaisonSociale":"HARBIL-BONNE AURELIE","cbSiretSiren":"880565429","cbAdresse1":"11-13 place Edmond Henry","cbAdresse2":"","cbCp":"88000","cbVille":"EPINAL","spLibelle1":"","spLibelle2":"","acDateSerment":"","coordinates":[6.4511745,48.1747055]},{"NomBarreau":"EPINAL","avNom":"HARQUET","avPrenom":"Florian","cbRaisonSociale":"HARQUET","cbSiretSiren":"403790355","cbAdresse1":"6 rue du Boudiou","cbAdresse2":"","cbCp":"88000","cbVille":"EPINAL","spLibelle1":"","spLibelle2":"","acDateSerment":"","coordinates":[6.4469749,48.1744553]},{"NomBarreau":"EPINAL","avNom":"HAUMESSER","avPrenom":"Isabelle","cbRaisonSociale":"HAUMESSER","cbSiretSiren":"802932962","cbAdresse1":"Rue Ernest Renan","cbAdresse2":"Centre d'Affaires Les Tuileries","cbCp":"88000","cbVille":"EPINAL","spLibelle1":"","spLibelle2":"","acDateSerment":"","coordinates":[6.4646068,48.1868428]},{"NomBarreau":"EPINAL","avNom":"HENRY","avPrenom":"Juliane","cbRaisonSociale":"HENRY JULIANE","cbSiretSiren":"839134160","cbAdresse1":"20 ALLEE DES BLANCHES CROIX","cbAdresse2":"","cbCp":"88000","cbVille":"EPINAL","spLibelle1":"","spLibelle2":"","acDateSerment":"","coordinates":[6.4657176,48.1865642]},{"NomBarreau":"EPINAL","avNom":"IOGNA-PRAT","avPrenom":"Laure","cbRaisonSociale":"GIURANNA & IOGNA-PRAT","cbSiretSiren":"829862465","cbAdresse1":"Rue Ernest Renan","cbAdresse2":"Centre d'Affaires Les Tuileries","cbCp":"88000","cbVille":"EPINAL","spLibelle1":"","spLibelle2":"","acDateSerment":"","coordinates":[6.4646068,48.1868428]},{"NomBarreau":"EPINAL","avNom":"JEANDON","avPrenom":"Benoit","cbRaisonSociale":"GARTNER ET ASSOCIES","cbSiretSiren":"852509470","cbAdresse1":"33 RUE DE LA PREFECTURE","cbAdresse2":"","cbCp":"88000","cbVille":"EPINAL","spLibelle1":"","spLibelle2":"","acDateSerment":"","coordinates":[6.4499978,48.1699682]},{"NomBarreau":"EPINAL","avNom":"JURD","avPrenom":"Manon","cbRaisonSociale":"JURD MANON","cbSiretSiren":"909546178","cbAdresse1":"39 rue de la Chipotte","cbAdresse2":"","cbCp":"88000","cbVille":"EPINAL","spLibelle1":"","spLibelle2":"","acDateSerment":"","coordinates":[6.4478453,48.1777696]},{"NomBarreau":"EPINAL","avNom":"JUREK","avPrenom":"Bartlomiej","cbRaisonSociale":"BGBJ","cbSiretSiren":"908185473","cbAdresse1":"11-13 place Edmond Henry","cbAdresse2":"","cbCp":"88000","cbVille":"EPINAL","spLibelle1":"","spLibelle2":"","acDateSerment":"","coordinates":[6.4511745,48.1747055]},{"NomBarreau":"EPINAL","avNom":"KIHL","avPrenom":"Francis","cbRaisonSociale":"LORRAINE DEFENSE & CONSEIL","cbSiretSiren":"509260030","cbAdresse1":"39 rue de la Chipotte","cbAdresse2":"","cbCp":"88000","cbVille":"EPINAL","spLibelle1":"Droit immobilier","spLibelle2":"","acDateSerment":"","coordinates":[6.4478453,48.1777696]},{"NomBarreau":"EPINAL","avNom":"KIHL-FURQUAND","avPrenom":"Hélène","cbRaisonSociale":"LORRAINE DEFENSE & CONSEIL","cbSiretSiren":"509260030","cbAdresse1":"39 rue de la Chipotte","cbAdresse2":"","cbCp":"88000","cbVille":"EPINAL","spLibelle1":"Droit de la famille, des personnes et de leur patrimoine","spLibelle2":"Droit immobilier","acDateSerment":"","coordinates":[6.4478453,48.1777696]},{"NomBarreau":"EPINAL","avNom":"KOCABEY","avPrenom":"Rojde","cbRaisonSociale":"KOCABEY","cbSiretSiren":"790988877","cbAdresse1":"1 rue du Chapitre","cbAdresse2":"","cbCp":"88000","cbVille":"EPINAL","spLibelle1":"","spLibelle2":"","acDateSerment":"","coordinates":[6.4509809,48.1737916]},{"NomBarreau":"EPINAL","avNom":"KREBS","avPrenom":"Valérie","cbRaisonSociale":"KREBS","cbSiretSiren":"419214622","cbAdresse1":"3 Place Foch","cbAdresse2":"","cbCp":"88000","cbVille":"EPINAL","spLibelle1":"","spLibelle2":"","acDateSerment":"","coordinates":[6.4483805,48.172939]},{"NomBarreau":"EPINAL","avNom":"LAGARDETTE","avPrenom":"Gary","cbRaisonSociale":"LAGARDETTE","cbSiretSiren":"792062978","cbAdresse1":"1 rue du Chapitre","cbAdresse2":"","cbCp":"88000","cbVille":"EPINAL","spLibelle1":"","spLibelle2":"","acDateSerment":"","coordinates":[6.4509809,48.1737916]},{"NomBarreau":"EPINAL","avNom":"LEUVREY","avPrenom":"Sylvie","cbRaisonSociale":"WELZER","cbSiretSiren":"509399101","cbAdresse1":"14 Place des Vosges","cbAdresse2":"","cbCp":"88000","cbVille":"EPINAL","spLibelle1":"","spLibelle2":"","acDateSerment":"","coordinates":[6.4499754,48.1743843]},{"NomBarreau":"EPINAL","avNom":"MANGIN","avPrenom":"Charlène","cbRaisonSociale":"AUDIT-CONSEIL-DEFENSE","cbSiretSiren":"759800816","cbAdresse1":"7 rue Roland Thiery","cbAdresse2":"ZAC de la Roche","cbCp":"88000","cbVille":"EPINAL","spLibelle1":"","spLibelle2":"","acDateSerment":"","coordinates":[6.4701983,48.1834814]},{"NomBarreau":"EPINAL","avNom":"MARCHETTI","avPrenom":"Adeline","cbRaisonSociale":"BOURDEAUX-MARCHETTI","cbSiretSiren":"794284083","cbAdresse1":"2 rue Paul Doumer","cbAdresse2":"","cbCp":"88000","cbVille":"EPINAL","spLibelle1":"","spLibelle2":"","acDateSerment":"","coordinates":[6.446727,48.1765634]},{"NomBarreau":"EPINAL","avNom":"MATZINGER","avPrenom":"Marie","cbRaisonSociale":"AQUINO - MATZINGER","cbSiretSiren":"887510576","cbAdresse1":"7 Quai Louis Lapicque","cbAdresse2":"","cbCp":"88000","cbVille":"EPINAL","spLibelle1":"","spLibelle2":"","acDateSerment":"","coordinates":[6.4472118,48.1734784]},{"NomBarreau":"EPINAL","avNom":"MONTAUT","avPrenom":"Hervé","cbRaisonSociale":"AUDIT-CONSEIL-DEFENSE","cbSiretSiren":"759800816","cbAdresse1":"7 rue Roland Thiery","cbAdresse2":"ZAC de la Roche","cbCp":"88000","cbVille":"EPINAL","spLibelle1":"Droit du travail","spLibelle2":"","acDateSerment":"","coordinates":[6.4701983,48.1834814]},{"NomBarreau":"EPINAL","avNom":"MORATI","avPrenom":"Bernadette","cbRaisonSociale":"MORATI","cbSiretSiren":"312066194","cbAdresse1":"11 rue Jean de la Fontaine","cbAdresse2":"","cbCp":"88000","cbVille":"EPINAL","spLibelle1":"Droit des sociétés","spLibelle2":"Droit fiscal et droit douanier","acDateSerment":"","coordinates":[6.4606778,48.1737324]},{"NomBarreau":"EPINAL","avNom":"MORTET","avPrenom":"Laurent","cbRaisonSociale":"BGBJ","cbSiretSiren":"908185473","cbAdresse1":"11-13 place Edmond Henry","cbAdresse2":"","cbCp":"88000","cbVille":"EPINAL","spLibelle1":"","spLibelle2":"","acDateSerment":"","coordinates":[6.4511745,48.1747055]},{"NomBarreau":"EPINAL","avNom":"NAJEAN","avPrenom":"Solène","cbRaisonSociale":"NAJEAN","cbSiretSiren":"791237720","cbAdresse1":"12 Rue Georges de la Tour","cbAdresse2":"","cbCp":"88000","cbVille":"EPINAL","spLibelle1":"","spLibelle2":"","acDateSerment":"","coordinates":[6.4462702,48.1734786]},{"NomBarreau":"EPINAL","avNom":"OLIVIER","avPrenom":"Charline","cbRaisonSociale":"OLIVIER CHARLINE","cbSiretSiren":"893324442","cbAdresse1":"39 rue de la Chipotte","cbAdresse2":"","cbCp":"88000","cbVille":"EPINAL","spLibelle1":"","spLibelle2":"","acDateSerment":"","coordinates":[6.4478453,48.1777696]},{"NomBarreau":"EPINAL","avNom":"PARTOUCHE","avPrenom":"Marion","cbRaisonSociale":"PARTOUCHE","cbSiretSiren":"429583263","cbAdresse1":"3 place Foch","cbAdresse2":"","cbCp":"88000","cbVille":"EPINAL","spLibelle1":"","spLibelle2":"","acDateSerment":"","coordinates":[6.4483805,48.172939]},{"NomBarreau":"EPINAL","avNom":"PERRIN","avPrenom":"Aude","cbRaisonSociale":"FOUNES-PERRIN","cbSiretSiren":"450020375","cbAdresse1":"7 RUE LORMONT","cbAdresse2":"","cbCp":"88000","cbVille":"EPINAL","spLibelle1":"","spLibelle2":"","acDateSerment":"","coordinates":[6.4510726,48.175577]},{"NomBarreau":"EPINAL","avNom":"PICOCHE","avPrenom":"Stéphanie","cbRaisonSociale":"PICOCHE","cbSiretSiren":"420839979","cbAdresse1":"4 quai des Bons Enfants","cbAdresse2":"","cbCp":"88000","cbVille":"EPINAL","spLibelle1":"","spLibelle2":"","acDateSerment":"","coordinates":[6.4455972,48.1757344]},{"NomBarreau":"EPINAL","avNom":"SAINT-DIZIER","avPrenom":"Johann","cbRaisonSociale":"SAINT-DIZIER JOHANN","cbSiretSiren":"909655219","cbAdresse1":"13 rue de la Chipotte","cbAdresse2":"","cbCp":"88000","cbVille":"EPINAL","spLibelle1":"","spLibelle2":"","acDateSerment":"","coordinates":[6.4483443,48.1758713]},{"NomBarreau":"EPINAL","avNom":"SAMPIETRO","avPrenom":"Aurélie","cbRaisonSociale":"CHOPIN AVOCATS","cbSiretSiren":"501913776","cbAdresse1":"5 Rue Chopin","cbAdresse2":"","cbCp":"88000","cbVille":"EPINAL","spLibelle1":"","spLibelle2":"","acDateSerment":"","coordinates":[6.4495208,48.1743465]},{"NomBarreau":"EPINAL","avNom":"SESTER","avPrenom":"Philippe","cbRaisonSociale":"AUDIT-CONSEIL-DEFENSE","cbSiretSiren":"759800816","cbAdresse1":"7 rue Roland Thiery","cbAdresse2":"ZAC de la Roche","cbCp":"88000","cbVille":"EPINAL","spLibelle1":"Droit des sociétés","spLibelle2":"","acDateSerment":"","coordinates":[6.4701983,48.1834814]},{"NomBarreau":"EPINAL","avNom":"STEPHAN","avPrenom":"Rémi","cbRaisonSociale":"WELZER","cbSiretSiren":"509399101","cbAdresse1":"14 Place des Vosges","cbAdresse2":"","cbCp":"88000","cbVille":"EPINAL","spLibelle1":"","spLibelle2":"","acDateSerment":"","coordinates":[6.4499754,48.1743843]},{"NomBarreau":"EPINAL","avNom":"TEKEBENG LELE","avPrenom":"Télesphore","cbRaisonSociale":"TEKEBENG LELE TELESPHORE","cbSiretSiren":"880829783","cbAdresse1":"7 rue Gambetta","cbAdresse2":"","cbCp":"88000","cbVille":"EPINAL","spLibelle1":"","spLibelle2":"","acDateSerment":"","coordinates":[6.4244248,48.248513]},{"NomBarreau":"EPINAL","avNom":"VALLAS","avPrenom":"François","cbRaisonSociale":"VALLAS","cbSiretSiren":"503138026","cbAdresse1":"3 place des Vosges","cbAdresse2":"","cbCp":"88000","cbVille":"EPINAL","spLibelle1":"","spLibelle2":"","acDateSerment":"","coordinates":[6.4500259,48.1748123]},{"NomBarreau":"EPINAL","avNom":"VIRY","avPrenom":"Stéphane","cbRaisonSociale":"LORRAINE DEFENSE & CONSEIL","cbSiretSiren":"509260030","cbAdresse1":"39 rue de la Chipotte","cbAdresse2":"","cbCp":"88000","cbVille":"EPINAL","spLibelle1":"","spLibelle2":"","acDateSerment":"","coordinates":[6.4478453,48.1777696]},{"NomBarreau":"EPINAL","avNom":"WATBOT","avPrenom":"Jean-Marc","cbRaisonSociale":"CHOPIN AVOCATS","cbSiretSiren":"501913776","cbAdresse1":"5 Rue Chopin","cbAdresse2":"","cbCp":"88000","cbVille":"EPINAL","spLibelle1":"","spLibelle2":"","acDateSerment":"","coordinates":[6.4495208,48.1743465]},{"NomBarreau":"EPINAL","avNom":"WELZER","avPrenom":"Gérard","cbRaisonSociale":"WELZER","cbSiretSiren":"509399101","cbAdresse1":"14 Place des Vosges","cbAdresse2":"","cbCp":"88000","cbVille":"EPINAL","spLibelle1":"","spLibelle2":"","acDateSerment":"","coordinates":[6.4499754,48.1743843]},{"NomBarreau":"EPINAL","avNom":"ZOUBEIDI DEFERT","avPrenom":"Yanis","cbRaisonSociale":"GARTNER ET ASSOCIES","cbSiretSiren":"852509470","cbAdresse1":"33 RUE DE LA PREFECTURE","cbAdresse2":"","cbCp":"88000","cbVille":"EPINAL","spLibelle1":"","spLibelle2":"","acDateSerment":"","coordinates":[6.4499978,48.1699682]}]