[{"NomBarreau":"ESSONNE","avNom":"BRIOLIN","avPrenom":"Raoul","cbRaisonSociale":"BRIOLIN RAOUL","cbSiretSiren":"319666947","cbAdresse1":"3 Rue du Village","cbAdresse2":"BP 117","cbCp":"91004","cbVille":"EVRY-COURCOURONNES","spLibelle1":"","spLibelle2":"","acDateSerment":"","coordinates":[2.447037,48.6312701]},{"NomBarreau":"ESSONNE","avNom":"KARASU","avPrenom":"Deniz","cbRaisonSociale":"KARASU DENIZ","cbSiretSiren":"523166239","cbAdresse1":"52 Boulevard de l'Yerres","cbAdresse2":"Carré Haussmann","cbCp":"91000","cbVille":"EVRY-COURCOURONNES","spLibelle1":"","spLibelle2":"","acDateSerment":"","coordinates":[2.4261349,48.6208646]},{"NomBarreau":"ESSONNE","avNom":"PAPY","avPrenom":"Patricia","cbRaisonSociale":"PAPY PATRICIA","cbSiretSiren":"380855304","cbAdresse1":"4 Boulevard de l'Europe","cbAdresse2":"Immeuble AZUR","cbCp":"91000","cbVille":"EVRY-COURCOURONNES","spLibelle1":"","spLibelle2":"","acDateSerment":"","coordinates":[2.4309705,48.6308242]},{"NomBarreau":"ESSONNE","avNom":"ROBLES","avPrenom":"Cécile","cbRaisonSociale":"ROBLES CECILE","cbSiretSiren":"825222839","cbAdresse1":"8 Rue Montespan","cbAdresse2":"","cbCp":"91000","cbVille":"EVRY-COURCOURONNES","spLibelle1":"","spLibelle2":"","acDateSerment":"","coordinates":[2.437053,48.6338495]},{"NomBarreau":"ESSONNE","avNom":"SKOULIS","avPrenom":"Barbara","cbRaisonSociale":"SKOULIS BARBARA","cbSiretSiren":"788812170","cbAdresse1":"5 Boulevard de l'Europe","cbAdresse2":"","cbCp":"91000","cbVille":"EVRY-COURCOURONNES","spLibelle1":"","spLibelle2":"","acDateSerment":"","coordinates":[2.4352978,48.6316759]},{"NomBarreau":"ESSONNE","avNom":"TAUVEL","avPrenom":"Françoise","cbRaisonSociale":"TAUVEL FRANCOISE","cbSiretSiren":"334714839","cbAdresse1":"4 Boulevard de l'Europe","cbAdresse2":"Immeuble Azur","cbCp":"91033","cbVille":"EVRY-COURCOURONNES","spLibelle1":"Droit de la propriété intellectuelle","spLibelle2":"","acDateSerment":"","coordinates":[2.4309705,48.6308242]}]