[{"NomBarreau":"FONTAINEBLEAU","avNom":"ALFONSI","avPrenom":"Cécile","cbRaisonSociale":"SAULNIER - NARDEUX - MALAGUTTI","cbSiretSiren":"316417146","cbAdresse1":"182 rue Grande","cbAdresse2":"","cbCp":"77300","cbVille":"FONTAINEBLEAU","spLibelle1":"","spLibelle2":"","acDateSerment":"","coordinates":[2.7048528,48.4105085]},{"NomBarreau":"FONTAINEBLEAU","avNom":"BARATEIG","avPrenom":"Anne-Christine","cbRaisonSociale":"B&B  AVOCAT","cbSiretSiren":"821301629","cbAdresse1":"238 rue Grande","cbAdresse2":"BP 13","cbCp":"77300","cbVille":"FONTAINEBLEAU","spLibelle1":"","spLibelle2":"","acDateSerment":"","coordinates":[2.7048528,48.4105085]},{"NomBarreau":"FONTAINEBLEAU","avNom":"BERNEY","avPrenom":"Anne","cbRaisonSociale":"BERNEY","cbSiretSiren":"321520512","cbAdresse1":"19 rue Aristide Briand","cbAdresse2":"","cbCp":"77300","cbVille":"FONTAINEBLEAU","spLibelle1":"","spLibelle2":"","acDateSerment":"","coordinates":[2.7101142,48.4124615]},{"NomBarreau":"FONTAINEBLEAU","avNom":"BORTOLOTTI","avPrenom":"Jean-Marc","cbRaisonSociale":"DBCJ AVOCATS","cbSiretSiren":"322441924","cbAdresse1":"196 RUE GRANDE","cbAdresse2":"","cbCp":"77300","cbVille":"FONTAINEBLEAU","spLibelle1":"","spLibelle2":"","acDateSerment":"","coordinates":[2.7048528,48.4105085]},{"NomBarreau":"FONTAINEBLEAU","avNom":"BOUAZIZ","avPrenom":"David","cbRaisonSociale":"BOUAZIZ DAVID","cbSiretSiren":"","cbAdresse1":"72 rue Saint Merry","cbAdresse2":"","cbCp":"77300","cbVille":"FONTAINEBLEAU","spLibelle1":"","spLibelle2":"","acDateSerment":"","coordinates":[2.695823102930057,48.40627805]},{"NomBarreau":"FONTAINEBLEAU","avNom":"CERAUDO","avPrenom":"Lucie","cbRaisonSociale":"CERAUDO","cbSiretSiren":"535189344","cbAdresse1":"192 rue Grande","cbAdresse2":"","cbCp":"77300","cbVille":"FONTAINEBLEAU","spLibelle1":"","spLibelle2":"","acDateSerment":"","coordinates":[2.7048528,48.4105085]},{"NomBarreau":"FONTAINEBLEAU","avNom":"COMBES","avPrenom":"Patrick","cbRaisonSociale":"DBCJ AVOCATS","cbSiretSiren":"322441924","cbAdresse1":"196 RUE GRANDE","cbAdresse2":"","cbCp":"77300","cbVille":"FONTAINEBLEAU","spLibelle1":"","spLibelle2":"","acDateSerment":"","coordinates":[2.7048528,48.4105085]},{"NomBarreau":"FONTAINEBLEAU","avNom":"COTE-ZERBIB","avPrenom":"Sophie","cbRaisonSociale":"COTE-ZERBIB","cbSiretSiren":"398625970","cbAdresse1":"88 BIS rue Aristide Briand","cbAdresse2":"","cbCp":"77300","cbVille":"FONTAINEBLEAU","spLibelle1":"","spLibelle2":"","acDateSerment":"","coordinates":[2.7101142,48.4124615]},{"NomBarreau":"FONTAINEBLEAU","avNom":"CROUZILLES","avPrenom":"Claire","cbRaisonSociale":"CROUZILLES CLAIRE","cbSiretSiren":"814351821","cbAdresse1":"192 rue Grande","cbAdresse2":"","cbCp":"77300","cbVille":"FONTAINEBLEAU","spLibelle1":"","spLibelle2":"","acDateSerment":"","coordinates":[2.7048528,48.4105085]},{"NomBarreau":"FONTAINEBLEAU","avNom":"DE BOURBON-BUSSET DE BOISANGER","avPrenom":"Isabelle","cbRaisonSociale":"BOURBON- BUSSET - BOISANGER","cbSiretSiren":"381114875","cbAdresse1":"161 rue Grande","cbAdresse2":"","cbCp":"77300","cbVille":"FONTAINEBLEAU","spLibelle1":"","spLibelle2":"","acDateSerment":"","coordinates":[2.704359846080307,48.40983105]},{"NomBarreau":"FONTAINEBLEAU","avNom":"DJAZIRI","avPrenom":"Mounia","cbRaisonSociale":"DJAZIRI","cbSiretSiren":"794252221","cbAdresse1":"72 rue St Merry","cbAdresse2":"","cbCp":"77300","cbVille":"FONTAINEBLEAU","spLibelle1":"","spLibelle2":"","acDateSerment":"","coordinates":[2.695823102930057,48.40627805]},{"NomBarreau":"FONTAINEBLEAU","avNom":"DUMONT","avPrenom":"Bernard","cbRaisonSociale":"DUMONT","cbSiretSiren":"309945590","cbAdresse1":"34 RUE GRANDE","cbAdresse2":"","cbCp":"77300","cbVille":"FONTAINEBLEAU","spLibelle1":"","spLibelle2":"","acDateSerment":"","coordinates":[2.7048528,48.4105085]},{"NomBarreau":"FONTAINEBLEAU","avNom":"GABRIELLI","avPrenom":"Katherine","cbRaisonSociale":"GABRIELLI","cbSiretSiren":"351142179","cbAdresse1":"180 rue Grande","cbAdresse2":"","cbCp":"77300","cbVille":"FONTAINEBLEAU","spLibelle1":"","spLibelle2":"","acDateSerment":"","coordinates":[2.7048528,48.4105085]},{"NomBarreau":"FONTAINEBLEAU","avNom":"GIRARD","avPrenom":"Delphine","cbRaisonSociale":"GIRARD","cbSiretSiren":"810874339","cbAdresse1":"52 rue d'Avon","cbAdresse2":"","cbCp":"77300","cbVille":"FONTAINEBLEAU","spLibelle1":"","spLibelle2":"","acDateSerment":"","coordinates":[2.704538,48.407436]},{"NomBarreau":"FONTAINEBLEAU","avNom":"GUYOT","avPrenom":"Aline","cbRaisonSociale":"GUYOT","cbSiretSiren":"539106476","cbAdresse1":"161 rue Grande","cbAdresse2":"","cbCp":"77300","cbVille":"FONTAINEBLEAU","spLibelle1":"","spLibelle2":"","acDateSerment":"","coordinates":[2.704359846080307,48.40983105]},{"NomBarreau":"FONTAINEBLEAU","avNom":"HUBER","avPrenom":"Brigitte","cbRaisonSociale":"TAXLENS","cbSiretSiren":"502207848","cbAdresse1":"187 rue Grande","cbAdresse2":"","cbCp":"77300","cbVille":"FONTAINEBLEAU","spLibelle1":"","spLibelle2":"","acDateSerment":"","coordinates":[2.7048528,48.4105085]},{"NomBarreau":"FONTAINEBLEAU","avNom":"JACQUOT","avPrenom":"Mélanie","cbRaisonSociale":"DBCJ AVOCATS","cbSiretSiren":"322441924","cbAdresse1":"196 RUE GRANDE","cbAdresse2":"","cbCp":"77300","cbVille":"FONTAINEBLEAU","spLibelle1":"","spLibelle2":"","acDateSerment":"","coordinates":[2.7048528,48.4105085]},{"NomBarreau":"FONTAINEBLEAU","avNom":"KONG","avPrenom":"Tévy","cbRaisonSociale":"KONG TEVY","cbSiretSiren":"","cbAdresse1":"72 rue St Merry","cbAdresse2":"","cbCp":"77300","cbVille":"FONTAINEBLEAU","spLibelle1":"","spLibelle2":"","acDateSerment":"","coordinates":[2.695823102930057,48.40627805]},{"NomBarreau":"FONTAINEBLEAU","avNom":"LABETOULE","avPrenom":"Angélique","cbRaisonSociale":"DBCJ AVOCATS","cbSiretSiren":"322441924","cbAdresse1":"196 RUE GRANDE","cbAdresse2":"","cbCp":"77300","cbVille":"FONTAINEBLEAU","spLibelle1":"","spLibelle2":"","acDateSerment":"","coordinates":[2.7048528,48.4105085]},{"NomBarreau":"FONTAINEBLEAU","avNom":"LE MEN","avPrenom":"Gaelle","cbRaisonSociale":"BOUAZIZ - SERRA - AYALA - BONLIEU - LE MEN - AYOUN","cbSiretSiren":"304438849","cbAdresse1":"72 rue St Merry","cbAdresse2":"","cbCp":"77300","cbVille":"FONTAINEBLEAU","spLibelle1":"","spLibelle2":"","acDateSerment":"","coordinates":[2.695823102930057,48.40627805]},{"NomBarreau":"FONTAINEBLEAU","avNom":"MALAGUTTI","avPrenom":"Coralie","cbRaisonSociale":"SAULNIER - NARDEUX - MALAGUTTI","cbSiretSiren":"316417146","cbAdresse1":"182 rue Grande","cbAdresse2":"","cbCp":"77300","cbVille":"FONTAINEBLEAU","spLibelle1":"","spLibelle2":"","acDateSerment":"","coordinates":[2.7048528,48.4105085]},{"NomBarreau":"FONTAINEBLEAU","avNom":"MARIS-BONLIEU","avPrenom":"Flavie","cbRaisonSociale":"BOUAZIZ - SERRA - AYALA - BONLIEU - LE MEN - AYOUN","cbSiretSiren":"304438849","cbAdresse1":"72 rue St Merry","cbAdresse2":"","cbCp":"77300","cbVille":"FONTAINEBLEAU","spLibelle1":"","spLibelle2":"","acDateSerment":"","coordinates":[2.695823102930057,48.40627805]},{"NomBarreau":"FONTAINEBLEAU","avNom":"MARTIN","avPrenom":"Dominique","cbRaisonSociale":"TAXLENS","cbSiretSiren":"502207848","cbAdresse1":"187 rue Grande","cbAdresse2":"","cbCp":"77300","cbVille":"FONTAINEBLEAU","spLibelle1":"","spLibelle2":"","acDateSerment":"","coordinates":[2.7048528,48.4105085]},{"NomBarreau":"FONTAINEBLEAU","avNom":"NASS","avPrenom":"Marion","cbRaisonSociale":"NASS MARION","cbSiretSiren":"","cbAdresse1":"5 Place d'Armes","cbAdresse2":"","cbCp":"77300","cbVille":"FONTAINEBLEAU","spLibelle1":"","spLibelle2":"","acDateSerment":"","coordinates":[2.701978193755833,48.40387175]},{"NomBarreau":"FONTAINEBLEAU","avNom":"OLIVIER","avPrenom":"Adélaide","cbRaisonSociale":"OLIVIER ","cbSiretSiren":"750693251","cbAdresse1":"161 rue Grande","cbAdresse2":"","cbCp":"77300","cbVille":"FONTAINEBLEAU","spLibelle1":"","spLibelle2":"","acDateSerment":"","coordinates":[2.704359846080307,48.40983105]},{"NomBarreau":"FONTAINEBLEAU","avNom":"PAILLE-ARDILLY","avPrenom":"Florence","cbRaisonSociale":"PAILLE-ARDILLY","cbSiretSiren":"327475521","cbAdresse1":"2 rue Dancourt","cbAdresse2":"","cbCp":"77300","cbVille":"FONTAINEBLEAU","spLibelle1":"","spLibelle2":"","acDateSerment":"","coordinates":[2.7101247,48.4107763]},{"NomBarreau":"FONTAINEBLEAU","avNom":"PAUCK","avPrenom":"Aurélie","cbRaisonSociale":"MALPEL & ASSOCIES","cbSiretSiren":"304247166","cbAdresse1":"160 rue Grande","cbAdresse2":"","cbCp":"77300","cbVille":"FONTAINEBLEAU","spLibelle1":"","spLibelle2":"","acDateSerment":"","coordinates":[2.7048528,48.4105085]},{"NomBarreau":"FONTAINEBLEAU","avNom":"PESCAY","avPrenom":"Angélique","cbRaisonSociale":"PESCAY","cbSiretSiren":"452191190","cbAdresse1":"192 rue Grande","cbAdresse2":"","cbCp":"77300","cbVille":"FONTAINEBLEAU","spLibelle1":"","spLibelle2":"","acDateSerment":"","coordinates":[2.7048528,48.4105085]},{"NomBarreau":"FONTAINEBLEAU","avNom":"REBIFFE","avPrenom":"Alyette","cbRaisonSociale":"REBIFFE ALYETTE","cbSiretSiren":"479667065","cbAdresse1":"172 RUE GRANDE","cbAdresse2":"","cbCp":"77300","cbVille":"FONTAINEBLEAU","spLibelle1":"","spLibelle2":"","acDateSerment":"","coordinates":[2.7048528,48.4105085]},{"NomBarreau":"FONTAINEBLEAU","avNom":"SAULNIER","avPrenom":"Dominique","cbRaisonSociale":"SAULNIER - NARDEUX - MALAGUTTI","cbSiretSiren":"316417146","cbAdresse1":"182 rue Grande","cbAdresse2":"","cbCp":"77300","cbVille":"FONTAINEBLEAU","spLibelle1":"Droit des garanties, des saretés et des mesures d'exécution","spLibelle2":"","acDateSerment":"","coordinates":[2.7048528,48.4105085]},{"NomBarreau":"FONTAINEBLEAU","avNom":"SERRA","avPrenom":"Marie Louise","cbRaisonSociale":"BOUAZIZ - SERRA - AYALA - BONLIEU - LE MEN - AYOUN","cbSiretSiren":"304438849","cbAdresse1":"72 rue St Merry","cbAdresse2":"","cbCp":"77300","cbVille":"FONTAINEBLEAU","spLibelle1":"","spLibelle2":"","acDateSerment":"","coordinates":[2.695823102930057,48.40627805]},{"NomBarreau":"FONTAINEBLEAU","avNom":"SOULIER","avPrenom":"Emilie","cbRaisonSociale":"TAXLENS","cbSiretSiren":"502207848","cbAdresse1":"187 rue Grande","cbAdresse2":"","cbCp":"77300","cbVille":"FONTAINEBLEAU","spLibelle1":"","spLibelle2":"","acDateSerment":"","coordinates":[2.7048528,48.4105085]},{"NomBarreau":"FONTAINEBLEAU","avNom":"WOLFS","avPrenom":"Elise","cbRaisonSociale":"WOLFS ELISE","cbSiretSiren":"851862961","cbAdresse1":"160 rue Grande","cbAdresse2":"","cbCp":"77300","cbVille":"FONTAINEBLEAU","spLibelle1":"","spLibelle2":"","acDateSerment":"","coordinates":[2.7048528,48.4105085]}]