[{"NomBarreau":"STRASBOURG","avNom":"ARAB","avPrenom":"Amel","cbRaisonSociale":"ARAB AMEL","cbSiretSiren":"842600017","cbAdresse1":"3 Route de Bischwiller","cbAdresse2":"","cbCp":"67500","cbVille":"HAGUENAU","spLibelle1":"","spLibelle2":"","acDateSerment":"","coordinates":[7.7955519,48.8114432]},{"NomBarreau":"STRASBOURG","avNom":"BERGER","avPrenom":"Emmanuel","cbRaisonSociale":"BERGER EMMANUEL","cbSiretSiren":"410675417","cbAdresse1":"4 Boulevard Hanauer","cbAdresse2":"","cbCp":"67500","cbVille":"HAGUENAU","spLibelle1":"","spLibelle2":"","acDateSerment":"","coordinates":[7.7873607,48.8111523]},{"NomBarreau":"STRASBOURG","avNom":"BIARD","avPrenom":"Valentine","cbRaisonSociale":"BIARD VALENTINE","cbSiretSiren":"818264566","cbAdresse1":"3 Route de Bischwiller","cbAdresse2":"","cbCp":"67500","cbVille":"HAGUENAU","spLibelle1":"","spLibelle2":"","acDateSerment":"","coordinates":[7.7955519,48.8114432]},{"NomBarreau":"STRASBOURG","avNom":"BRAND-COUDERT","avPrenom":"Sébastien","cbRaisonSociale":"BRAND-COUDERT SEBASTIEN","cbSiretSiren":"825150659","cbAdresse1":"3 Place d'Armes","cbAdresse2":"","cbCp":"67500","cbVille":"HAGUENAU","spLibelle1":"","spLibelle2":"","acDateSerment":"","coordinates":[7.7885895,48.8144182]},{"NomBarreau":"STRASBOURG","avNom":"DUPUY","avPrenom":"Arnaud","cbRaisonSociale":"DUPUY ARNAUD","cbSiretSiren":"441797446","cbAdresse1":"171 Grand'Rue","cbAdresse2":"","cbCp":"67500","cbVille":"HAGUENAU","spLibelle1":"Droit pénal","spLibelle2":"","acDateSerment":"","coordinates":[7.7911992,48.8197443]},{"NomBarreau":"STRASBOURG","avNom":"FAUTH","avPrenom":"Anne","cbRaisonSociale":"FAUTH ANNE","cbSiretSiren":"434619474","cbAdresse1":"2 Avenue de Wissembourg","cbAdresse2":"","cbCp":"67500","cbVille":"HAGUENAU","spLibelle1":"","spLibelle2":"","acDateSerment":"","coordinates":[7.7917568,48.8223738]},{"NomBarreau":"STRASBOURG","avNom":"FINITZER","avPrenom":"Rachel","cbRaisonSociale":"FINITZER RACHEL","cbSiretSiren":"788803641","cbAdresse1":"61 Grand Rue","cbAdresse2":"","cbCp":"67500","cbVille":"HAGUENAU","spLibelle1":"","spLibelle2":"","acDateSerment":"","coordinates":[7.7880643,48.8139432]},{"NomBarreau":"STRASBOURG","avNom":"MARZOLF","avPrenom":"Jacques","cbRaisonSociale":"MARZOLF JACQUES","cbSiretSiren":"778860973","cbAdresse1":"12 rue St-Georges","cbAdresse2":"","cbCp":"67500","cbVille":"HAGUENAU","spLibelle1":"Droit de la famille, des personnes et de leur patrimoine","spLibelle2":"Droit du travail","acDateSerment":"","coordinates":[7.7858966,48.8134806]},{"NomBarreau":"STRASBOURG","avNom":"MATZ","avPrenom":"Audrey","cbRaisonSociale":"MATZ AUDREY","cbSiretSiren":"429095615","cbAdresse1":"171 Grand'Rue","cbAdresse2":"","cbCp":"67500","cbVille":"HAGUENAU","spLibelle1":"","spLibelle2":"","acDateSerment":"","coordinates":[7.7911992,48.8197443]},{"NomBarreau":"STRASBOURG","avNom":"POIROT","avPrenom":"Alexis","cbRaisonSociale":"FISCALEXIS","cbSiretSiren":"838951010","cbAdresse1":"48 Route de Strasbourg","cbAdresse2":"","cbCp":"67500","cbVille":"HAGUENAU","spLibelle1":"","spLibelle2":"","acDateSerment":"","coordinates":[7.7716008,48.805423]},{"NomBarreau":"STRASBOURG","avNom":"SCHIFFMACHER","avPrenom":"Rachel","cbRaisonSociale":"SCHIFFMACHER RACHEL","cbSiretSiren":"490109071","cbAdresse1":"43 Route de Bischwiller","cbAdresse2":"","cbCp":"67500","cbVille":"HAGUENAU","spLibelle1":"","spLibelle2":"","acDateSerment":"","coordinates":[7.7995571,48.8085799]},{"NomBarreau":"STRASBOURG","avNom":"SINGH-BASSI","avPrenom":"Lavleen","cbRaisonSociale":"SINGH-BASSI LAVLEEN","cbSiretSiren":"837587799","cbAdresse1":"4B Rue de la Moder","cbAdresse2":"","cbCp":"67500","cbVille":"HAGUENAU","spLibelle1":"","spLibelle2":"","acDateSerment":"","coordinates":[7.7890491,48.8155021]},{"NomBarreau":"STRASBOURG","avNom":"STERNBERGER","avPrenom":"Anne","cbRaisonSociale":"STERNBERGER ANNE","cbSiretSiren":"434291407","cbAdresse1":"10 rue des Moines","cbAdresse2":"","cbCp":"67500","cbVille":"HAGUENAU","spLibelle1":"","spLibelle2":"","acDateSerment":"","coordinates":[7.786625,48.8210488]},{"NomBarreau":"STRASBOURG","avNom":"WEDRYCHOWSKI","avPrenom":"Damien","cbRaisonSociale":"WEDRYCHOWSKI DAMIEN","cbSiretSiren":"317676823","cbAdresse1":"3 Place d'Armes","cbAdresse2":"","cbCp":"67500","cbVille":"HAGUENAU","spLibelle1":"Droit international et de l'Union européenne","spLibelle2":"","acDateSerment":"","coordinates":[7.7885895,48.8144182]}]