[{"NomBarreau":"HAUTS-DE-SEINE","avNom":"APAIRE","avPrenom":"Christelle","cbRaisonSociale":"APAIRE CHRISTELLE","cbSiretSiren":"530064872","cbAdresse1":"5, rue Voisembert","cbAdresse2":"","cbCp":"92130","cbVille":"ISSY LES MOULINEAUX","spLibelle1":"","spLibelle2":"","acDateSerment":"","coordinates":[2.2846954,48.8280271]},{"NomBarreau":"HAUTS-DE-SEINE","avNom":"BESOMBES-CORBEL","avPrenom":"Isabelle","cbRaisonSociale":"BESOMBES-CORBEL ISABELLE","cbSiretSiren":"394978126","cbAdresse1":"2, rue Paul Besnard","cbAdresse2":"","cbCp":"92130","cbVille":"ISSY LES MOULINEAUX","spLibelle1":"Droit de la famille, des personnes et de leur patrimoine","spLibelle2":"","acDateSerment":"","coordinates":[2.249413,48.8184786]},{"NomBarreau":"HAUTS-DE-SEINE","avNom":"BEZIT-GUILLORIT","avPrenom":"Ambre","cbRaisonSociale":"BEZIT-GUILLORIT AMBRE","cbSiretSiren":"502908312","cbAdresse1":"14, rue Maurice Champeau","cbAdresse2":"","cbCp":"92130","cbVille":"ISSY LES MOULINEAUX","spLibelle1":"","spLibelle2":"","acDateSerment":"","coordinates":[2.2781911,48.82988]},{"NomBarreau":"HAUTS-DE-SEINE","avNom":"BOUCHE","avPrenom":"Pascal","cbRaisonSociale":"BOUCHE PASCAL","cbSiretSiren":"843592866","cbAdresse1":"5 rue Michel de l'Hospital","cbAdresse2":"","cbCp":"92130","cbVille":"ISSY LES MOULINEAUX","spLibelle1":"","spLibelle2":"","acDateSerment":"","coordinates":[2.2760759,48.8286117]},{"NomBarreau":"HAUTS-DE-SEINE","avNom":"CHANCEREL","avPrenom":"Catherine","cbRaisonSociale":"CHANCEREL CATHERINE","cbSiretSiren":"490156395","cbAdresse1":"13 rue Camille Desmoulins","cbAdresse2":"","cbCp":"92130","cbVille":"ISSY LES MOULINEAUX","spLibelle1":"Droit immobilier","spLibelle2":"","acDateSerment":"","coordinates":[2.2637308,48.8290833]},{"NomBarreau":"HAUTS-DE-SEINE","avNom":"CHEVEE","avPrenom":"Caroline","cbRaisonSociale":"CHEVEE CAROLINE","cbSiretSiren":"750344442","cbAdresse1":"9 Parvis Corentin Celton","cbAdresse2":"","cbCp":"92130","cbVille":"ISSY LES MOULINEAUX","spLibelle1":"","spLibelle2":"","acDateSerment":"","coordinates":[2.278804293758782,48.82761945]},{"NomBarreau":"HAUTS-DE-SEINE","avNom":"COHEN","avPrenom":"Caroline","cbRaisonSociale":"C.G.N.T.","cbSiretSiren":"444816755","cbAdresse1":"42 rue Horace Vernet","cbAdresse2":"","cbCp":"92130","cbVille":"ISSY LES MOULINEAUX","spLibelle1":"","spLibelle2":"","acDateSerment":"","coordinates":[2.2726884,48.8272474]},{"NomBarreau":"HAUTS-DE-SEINE","avNom":"GANEM","avPrenom":"Julie","cbRaisonSociale":"C.G.N.T.","cbSiretSiren":"444816755","cbAdresse1":"42 rue Horace Vernet","cbAdresse2":"","cbCp":"92130","cbVille":"ISSY LES MOULINEAUX","spLibelle1":"","spLibelle2":"","acDateSerment":"","coordinates":[2.2726884,48.8272474]},{"NomBarreau":"HAUTS-DE-SEINE","avNom":"JANEAU","avPrenom":"Aurélie","cbRaisonSociale":"JANEAU AVOCAT","cbSiretSiren":"799681846","cbAdresse1":"10 mail Raymond Menand","cbAdresse2":"","cbCp":"92130","cbVille":"ISSY LES MOULINEAUX","spLibelle1":"","spLibelle2":"","acDateSerment":"","coordinates":[2.270778953882976,48.825606]},{"NomBarreau":"HAUTS-DE-SEINE","avNom":"JUMEAU","avPrenom":"Zoé","cbRaisonSociale":"JUMEAU ZOE","cbSiretSiren":"814678470","cbAdresse1":"42, rue Horace Vernet","cbAdresse2":"","cbCp":"92130","cbVille":"ISSY LES MOULINEAUX","spLibelle1":"","spLibelle2":"","acDateSerment":"","coordinates":[2.2726884,48.8272474]},{"NomBarreau":"HAUTS-DE-SEINE","avNom":"LYSTIG","avPrenom":"Valérie","cbRaisonSociale":"LYSTIG VALERIE","cbSiretSiren":"489653642","cbAdresse1":"47, avenue Victor Cresson","cbAdresse2":"","cbCp":"92130","cbVille":"ISSY LES MOULINEAUX","spLibelle1":"","spLibelle2":"","acDateSerment":"","coordinates":[2.2647725,48.8218672]},{"NomBarreau":"HAUTS-DE-SEINE","avNom":"MICHELOT","avPrenom":"Maurice","cbRaisonSociale":"MICHELOT MAURICE","cbSiretSiren":"","cbAdresse1":"8, Esplanade de la Manufacture","cbAdresse2":"","cbCp":"92130","cbVille":"ISSY LES MOULINEAUX","spLibelle1":"","spLibelle2":"","acDateSerment":"","coordinates":[2.282309340214462,48.8285268]},{"NomBarreau":"HAUTS-DE-SEINE","avNom":"MISSAMOU BAGHANA","avPrenom":"Philippe","cbRaisonSociale":"GPAS","cbSiretSiren":"805084373","cbAdresse1":"7 rue Claude Matrat","cbAdresse2":"","cbCp":"92130","cbVille":"ISSY LES MOULINEAUX","spLibelle1":"","spLibelle2":"","acDateSerment":"","coordinates":[2.2840285,48.8282426]},{"NomBarreau":"HAUTS-DE-SEINE","avNom":"NOEL","avPrenom":"Grégoire","cbRaisonSociale":"C.G.N.T.","cbSiretSiren":"444816755","cbAdresse1":"42 rue Horace Vernet","cbAdresse2":"","cbCp":"92130","cbVille":"ISSY LES MOULINEAUX","spLibelle1":"","spLibelle2":"","acDateSerment":"","coordinates":[2.2726884,48.8272474]},{"NomBarreau":"HAUTS-DE-SEINE","avNom":"STINAT","avPrenom":"Agathe","cbRaisonSociale":"STINAT AGATHE","cbSiretSiren":"518044821","cbAdresse1":"5 rue Jules Edouard Voisembert","cbAdresse2":"","cbCp":"92130","cbVille":"ISSY LES MOULINEAUX","spLibelle1":"","spLibelle2":"","acDateSerment":"","coordinates":[2.2846954,48.8280271]},{"NomBarreau":"HAUTS-DE-SEINE","avNom":"VOUSCENAS","avPrenom":"Flavien","cbRaisonSociale":"GPAS","cbSiretSiren":"805084373","cbAdresse1":"7 rue Claude Matrat","cbAdresse2":"","cbCp":"92130","cbVille":"ISSY LES MOULINEAUX","spLibelle1":"","spLibelle2":"","acDateSerment":"","coordinates":[2.2840285,48.8282426]}]