[{"NomBarreau":"MEAUX","avNom":"ALBATANGELO","avPrenom":"Melanie","cbRaisonSociale":"ALBATANGELO-VERGONJEANNE","cbSiretSiren":"534751474","cbAdresse1":"6-8 RUE SAINT LAURENT","cbAdresse2":"Case palais 44","cbCp":"77400","cbVille":"LAGNY SUR MARNE","spLibelle1":"","spLibelle2":"","acDateSerment":"","coordinates":[2.7064876,48.8722332]},{"NomBarreau":"MEAUX","avNom":"BENKIMOUN","avPrenom":"Thierry","cbRaisonSociale":"BENKIMOUN AVOCAT CONSEIL","cbSiretSiren":"907455307","cbAdresse1":"120 RUE SAINT DENIS","cbAdresse2":"","cbCp":"77400","cbVille":"LAGNY SUR MARNE","spLibelle1":"","spLibelle2":"","acDateSerment":"","coordinates":[2.7180107,48.877506]},{"NomBarreau":"MEAUX","avNom":"CHEVALIER-KACPRZAK","avPrenom":"Carine","cbRaisonSociale":"CHEVALIER-KACPRZAK","cbSiretSiren":"509468120","cbAdresse1":"120 rue Saint Denis","cbAdresse2":"","cbCp":"77400","cbVille":"LAGNY SUR MARNE","spLibelle1":"","spLibelle2":"","acDateSerment":"","coordinates":[2.7180107,48.877506]},{"NomBarreau":"MEAUX","avNom":"DAKHLI","avPrenom":"Saida","cbRaisonSociale":"DAKHLI","cbSiretSiren":"434142352","cbAdresse1":"13 rue Saint Sauveur","cbAdresse2":"case palais 81","cbCp":"77400","cbVille":"LAGNY SUR MARNE","spLibelle1":"","spLibelle2":"","acDateSerment":"","coordinates":[2.7030805,48.8774645]},{"NomBarreau":"MEAUX","avNom":"DAMOY","avPrenom":"Marilyne","cbRaisonSociale":"DAMOY MARILYNE","cbSiretSiren":"834417016","cbAdresse1":"29 rue Gambetta","cbAdresse2":"","cbCp":"77400","cbVille":"LAGNY SUR MARNE","spLibelle1":"","spLibelle2":"","acDateSerment":"","coordinates":[2.7038011,48.8783804]},{"NomBarreau":"MEAUX","avNom":"DOSQUET","avPrenom":"Nora","cbRaisonSociale":"B.C.D.AVOCATS","cbSiretSiren":"533379517","cbAdresse1":"42 rue Gambetta","cbAdresse2":"","cbCp":"77400","cbVille":"LAGNY SUR MARNE","spLibelle1":"","spLibelle2":"","acDateSerment":"","coordinates":[2.7038011,48.8783804]},{"NomBarreau":"MEAUX","avNom":"DUBOIS","avPrenom":"Yann","cbRaisonSociale":"DUBOIS","cbSiretSiren":"418955407","cbAdresse1":"42 rue Gambetta","cbAdresse2":"","cbCp":"77400","cbVille":"LAGNY SUR MARNE","spLibelle1":"","spLibelle2":"","acDateSerment":"","coordinates":[2.7038011,48.8783804]},{"NomBarreau":"MEAUX","avNom":"DUBOIS-TOUBE","avPrenom":"Eugénie","cbRaisonSociale":"DUBOIS-TOUBE","cbSiretSiren":"522674779","cbAdresse1":"120 rue Saint Denis","cbAdresse2":"","cbCp":"77400","cbVille":"LAGNY SUR MARNE","spLibelle1":"","spLibelle2":"","acDateSerment":"","coordinates":[2.7180107,48.877506]},{"NomBarreau":"MEAUX","avNom":"FREDJ-CATEL","avPrenom":"Florence","cbRaisonSociale":"B.C.D.AVOCATS","cbSiretSiren":"533379517","cbAdresse1":"42 rue Gambetta","cbAdresse2":"","cbCp":"77400","cbVille":"LAGNY SUR MARNE","spLibelle1":"","spLibelle2":"","acDateSerment":"","coordinates":[2.7038011,48.8783804]},{"NomBarreau":"MEAUX","avNom":"GHARBI","avPrenom":"Sarah","cbRaisonSociale":"GHARBI","cbSiretSiren":"484985817","cbAdresse1":"18 rue Gambetta","cbAdresse2":"Case palais 66","cbCp":"77400","cbVille":"LAGNY SUR MARNE","spLibelle1":"","spLibelle2":"","acDateSerment":"","coordinates":[2.703671171428572,48.87847]},{"NomBarreau":"MEAUX","avNom":"JALLEY","avPrenom":"Philippe","cbRaisonSociale":"JALLEY PHILIPPE","cbSiretSiren":"389470774","cbAdresse1":"120 rue Saint Denis","cbAdresse2":"","cbCp":"77400","cbVille":"LAGNY SUR MARNE","spLibelle1":"","spLibelle2":"","acDateSerment":"","coordinates":[2.7180107,48.877506]},{"NomBarreau":"MEAUX","avNom":"LENFANT","avPrenom":"Valérie","cbRaisonSociale":"LENFANT","cbSiretSiren":"404909822","cbAdresse1":"10 rue Gambetta","cbAdresse2":"","cbCp":"77400","cbVille":"LAGNY SUR MARNE","spLibelle1":"","spLibelle2":"","acDateSerment":"","coordinates":[2.7038011,48.8783804]},{"NomBarreau":"MEAUX","avNom":"MAILLARD","avPrenom":"Flora","cbRaisonSociale":"MAILLARD FLORA","cbSiretSiren":"833902372","cbAdresse1":"6-8 RUE SAINT LAURENT","cbAdresse2":"Case palais 44","cbCp":"77400","cbVille":"LAGNY SUR MARNE","spLibelle1":"","spLibelle2":"","acDateSerment":"","coordinates":[2.7064876,48.8722332]},{"NomBarreau":"MEAUX","avNom":"QUEILLE","avPrenom":"Sylvie","cbRaisonSociale":"QUEILLE","cbSiretSiren":"385355672","cbAdresse1":"10 rue Gambetta","cbAdresse2":"","cbCp":"77400","cbVille":"LAGNY SUR MARNE","spLibelle1":"","spLibelle2":"","acDateSerment":"","coordinates":[2.7038011,48.8783804]},{"NomBarreau":"MEAUX","avNom":"TOTY","avPrenom":"Pierre-Jean","cbRaisonSociale":"TOTY","cbSiretSiren":"448546010","cbAdresse1":"6-8 rue Saint Laurent","cbAdresse2":"Case palais 44","cbCp":"77400","cbVille":"LAGNY SUR MARNE","spLibelle1":"","spLibelle2":"","acDateSerment":"","coordinates":[2.7064876,48.8722332]},{"NomBarreau":"MEAUX","avNom":"VERGONJEANNE","avPrenom":"Sandrine","cbRaisonSociale":"ALBATANGELO-VERGONJEANNE","cbSiretSiren":"534751474","cbAdresse1":"6-8 RUE SAINT LAURENT","cbAdresse2":"Case palais 44","cbCp":"77400","cbVille":"LAGNY SUR MARNE","spLibelle1":"","spLibelle2":"","acDateSerment":"","coordinates":[2.7064876,48.8722332]}]