[{"NomBarreau":"SEINE-SAINT-DENIS","avNom":"BAGHOULI","avPrenom":"Miriam","cbRaisonSociale":"BAGHOULI","cbSiretSiren":"511262156","cbAdresse1":"158 Rue de Paris","cbAdresse2":"","cbCp":"93260","cbVille":"LES LILAS","spLibelle1":"","spLibelle2":"","acDateSerment":"","coordinates":[2.4196131,48.8807776]},{"NomBarreau":"SEINE-SAINT-DENIS","avNom":"BARBOSA","avPrenom":"Camille","cbRaisonSociale":"BARBOSA","cbSiretSiren":"893882464","cbAdresse1":"28 Rue Jean Moulin","cbAdresse2":"","cbCp":"93260","cbVille":"LES LILAS","spLibelle1":"","spLibelle2":"","acDateSerment":"","coordinates":[2.4151731,48.8808026]},{"NomBarreau":"SEINE-SAINT-DENIS","avNom":"BEAUPEL","avPrenom":"Anne-Chloé","cbRaisonSociale":"BEAUPEL","cbSiretSiren":"752866822","cbAdresse1":"4 Rue du 14 Juillet","cbAdresse2":"","cbCp":"93260","cbVille":"LES LILAS","spLibelle1":"","spLibelle2":"","acDateSerment":"","coordinates":[2.4155414,48.8808851]},{"NomBarreau":"SEINE-SAINT-DENIS","avNom":"DELIMI","avPrenom":"Amel","cbRaisonSociale":"DELIMI","cbSiretSiren":"518023841","cbAdresse1":"4 Rue du 14 Juillet","cbAdresse2":"","cbCp":"93260","cbVille":"LES LILAS","spLibelle1":"","spLibelle2":"","acDateSerment":"","coordinates":[2.4155414,48.8808851]},{"NomBarreau":"SEINE-SAINT-DENIS","avNom":"DORIER","avPrenom":"Juliette","cbRaisonSociale":"DORIER","cbSiretSiren":"907435895","cbAdresse1":"158 Rue de Paris","cbAdresse2":"","cbCp":"93260","cbVille":"LES LILAS","spLibelle1":"","spLibelle2":"","acDateSerment":"","coordinates":[2.4196131,48.8807776]},{"NomBarreau":"SEINE-SAINT-DENIS","avNom":"FORSSELL","avPrenom":"Axel","cbRaisonSociale":"FORSSELL","cbSiretSiren":"809469778","cbAdresse1":"38 BIS Rue du Tapis Vert","cbAdresse2":"","cbCp":"93260","cbVille":"LES LILAS","spLibelle1":"","spLibelle2":"","acDateSerment":"","coordinates":[2.4176286,48.8819431]},{"NomBarreau":"SEINE-SAINT-DENIS","avNom":"FRANCOIS JACQUEMIN","avPrenom":"Florian","cbRaisonSociale":"GFJA AVOCATS","cbSiretSiren":"790803696","cbAdresse1":"28 Rue Jean Moulin","cbAdresse2":"","cbCp":"93260","cbVille":"LES LILAS","spLibelle1":"","spLibelle2":"","acDateSerment":"","coordinates":[2.4151731,48.8808026]},{"NomBarreau":"SEINE-SAINT-DENIS","avNom":"GHEDIR","avPrenom":"Hada","cbRaisonSociale":"GFJA AVOCATS","cbSiretSiren":"790803696","cbAdresse1":"28 Rue Jean Moulin","cbAdresse2":"","cbCp":"93260","cbVille":"LES LILAS","spLibelle1":"","spLibelle2":"","acDateSerment":"","coordinates":[2.4151731,48.8808026]},{"NomBarreau":"SEINE-SAINT-DENIS","avNom":"GONZALEZ","avPrenom":"Laurence","cbRaisonSociale":"GONZALEZ","cbSiretSiren":"338245053","cbAdresse1":"59 Rue Henri Barbusse","cbAdresse2":"","cbCp":"93260","cbVille":"LES LILAS","spLibelle1":"","spLibelle2":"","acDateSerment":"","coordinates":[2.416684,48.8827247]},{"NomBarreau":"SEINE-SAINT-DENIS","avNom":"LASSALLE","avPrenom":"Anne","cbRaisonSociale":"LASSALLE","cbSiretSiren":"500866645","cbAdresse1":"158 Rue de Paris","cbAdresse2":"","cbCp":"93260","cbVille":"LES LILAS","spLibelle1":"","spLibelle2":"","acDateSerment":"","coordinates":[2.4196131,48.8807776]},{"NomBarreau":"SEINE-SAINT-DENIS","avNom":"LECLERC","avPrenom":"Jean-Baptiste","cbRaisonSociale":"LECLERC","cbSiretSiren":"752210724","cbAdresse1":"28 Rue Jean Moulin","cbAdresse2":"","cbCp":"93260","cbVille":"LES LILAS","spLibelle1":"","spLibelle2":"","acDateSerment":"","coordinates":[2.4151731,48.8808026]},{"NomBarreau":"SEINE-SAINT-DENIS","avNom":"MICHEL-BECHET","avPrenom":"Lucas","cbRaisonSociale":"MICHEL-BECHET","cbSiretSiren":"880569496","cbAdresse1":"72 Rue de Paris","cbAdresse2":"","cbCp":"93260","cbVille":"LES LILAS","spLibelle1":"","spLibelle2":"","acDateSerment":"","coordinates":[2.4139721,48.8791064]},{"NomBarreau":"SEINE-SAINT-DENIS","avNom":"PAQUIER","avPrenom":"Armelle","cbRaisonSociale":"PAQUIER","cbSiretSiren":"892921263","cbAdresse1":"72 Rue de Paris","cbAdresse2":"","cbCp":"93260","cbVille":"LES LILAS","spLibelle1":"","spLibelle2":"","acDateSerment":"","coordinates":[2.4139721,48.8791064]},{"NomBarreau":"SEINE-SAINT-DENIS","avNom":"PEIFFER DEVONEC","avPrenom":"Eléonore","cbRaisonSociale":"NOVO AVOCATS","cbSiretSiren":"817897671","cbAdresse1":"72 Rue de Paris","cbAdresse2":"","cbCp":"93260","cbVille":"LES LILAS","spLibelle1":"","spLibelle2":"","acDateSerment":"","coordinates":[2.4139721,48.8791064]},{"NomBarreau":"SEINE-SAINT-DENIS","avNom":"RAJOUN","avPrenom":"Baheja","cbRaisonSociale":"RAJOUN","cbSiretSiren":"514572866","cbAdresse1":"38 BIS Rue du Tapis Vert","cbAdresse2":"","cbCp":"93260","cbVille":"LES LILAS","spLibelle1":"","spLibelle2":"","acDateSerment":"","coordinates":[2.4176286,48.8819431]},{"NomBarreau":"SEINE-SAINT-DENIS","avNom":"SARR BARRY","avPrenom":"Rokhaya","cbRaisonSociale":"SARR BARRY","cbSiretSiren":"502371727","cbAdresse1":"38 BIS Rue du Tapis Vert","cbAdresse2":"","cbCp":"93260","cbVille":"LES LILAS","spLibelle1":"","spLibelle2":"","acDateSerment":"","coordinates":[2.4176286,48.8819431]},{"NomBarreau":"SEINE-SAINT-DENIS","avNom":"SCHAEFFER","avPrenom":"Andrea","cbRaisonSociale":"SCHAEFFER","cbSiretSiren":"891917536","cbAdresse1":"72 Rue de Paris","cbAdresse2":"","cbCp":"93260","cbVille":"LES LILAS","spLibelle1":"","spLibelle2":"","acDateSerment":"","coordinates":[2.4139721,48.8791064]},{"NomBarreau":"SEINE-SAINT-DENIS","avNom":"SCHWAB","avPrenom":"Mélanie","cbRaisonSociale":"SCHWAB","cbSiretSiren":"452512056","cbAdresse1":"4 Rue du 14 Juillet","cbAdresse2":"","cbCp":"93260","cbVille":"LES LILAS","spLibelle1":"","spLibelle2":"","acDateSerment":"","coordinates":[2.4155414,48.8808851]}]