[{"NomBarreau":"LIMOGES","avNom":"ALMAR","avPrenom":"Fleur","cbRaisonSociale":"ALMAR FLEUR","cbSiretSiren":"531483105","cbAdresse1":"19 rue Pierre LEROUX","cbAdresse2":"","cbCp":"87000","cbVille":"LIMOGES","spLibelle1":"","spLibelle2":"","acDateSerment":"","coordinates":[1.2540033,45.8335506]},{"NomBarreau":"LIMOGES","avNom":"ANDRIEU-FILLIOL","avPrenom":"Josyane","cbRaisonSociale":"ANDRIEU-FILLIOL JOSYANE","cbSiretSiren":"310065263","cbAdresse1":"9 Place d'Aine","cbAdresse2":"","cbCp":"87000","cbVille":"LIMOGES","spLibelle1":"","spLibelle2":"","acDateSerment":"","coordinates":[1.2544554,45.8300608]},{"NomBarreau":"LIMOGES","avNom":"ASTIER","avPrenom":"Valérie","cbRaisonSociale":"SELARL PASTAUD - WILD PASTAUD - ASTIER","cbSiretSiren":"844898387","cbAdresse1":"75 BOULEVARD GAMBETTA","cbAdresse2":"","cbCp":"87000","cbVille":"LIMOGES","spLibelle1":"","spLibelle2":"","acDateSerment":"","coordinates":[1.2550991,45.8296248]},{"NomBarreau":"LIMOGES","avNom":"AUTEF","avPrenom":"Catherine","cbRaisonSociale":"SELARL AUTEF-FETIS & SENAMAUD","cbSiretSiren":"834116022","cbAdresse1":"2 RUE BROUSSEAU","cbAdresse2":"","cbCp":"87000","cbVille":"LIMOGES","spLibelle1":"","spLibelle2":"","acDateSerment":"","coordinates":[1.2533586,45.8321352]},{"NomBarreau":"LIMOGES","avNom":"AVELINE","avPrenom":"Frédérique","cbRaisonSociale":"AVELINE MANDON BARDAUD-CAUSSADE","cbSiretSiren":"401113154","cbAdresse1":"36-38 Boulevard Victor Hugo","cbAdresse2":"","cbCp":"87000","cbVille":"LIMOGES","spLibelle1":"","spLibelle2":"","acDateSerment":"","coordinates":[1.2546006,45.8306096]},{"NomBarreau":"LIMOGES","avNom":"BARONNET","avPrenom":"Sylvie","cbRaisonSociale":"BARONNET SYLVIE","cbSiretSiren":"410599815","cbAdresse1":"2 Avenue des Ruchoux","cbAdresse2":"","cbCp":"87000","cbVille":"LIMOGES","spLibelle1":"","spLibelle2":"","acDateSerment":"","coordinates":[1.2470582,45.8340704]},{"NomBarreau":"LIMOGES","avNom":"BELON","avPrenom":"Anais","cbRaisonSociale":"SELARL BELON - DOIZON AVOCATS","cbSiretSiren":"841538952","cbAdresse1":"2 rue FITZ JAMES","cbAdresse2":"","cbCp":"87000","cbVille":"LIMOGES","spLibelle1":"","spLibelle2":"","acDateSerment":"","coordinates":[1.2595557,45.8323512]},{"NomBarreau":"LIMOGES","avNom":"BENAIM","avPrenom":"Julia","cbRaisonSociale":"BENAIM JULIA","cbSiretSiren":"480564707","cbAdresse1":"20 RUE DE LA MAUVENDIERE","cbAdresse2":"","cbCp":"87000","cbVille":"LIMOGES","spLibelle1":"","spLibelle2":"","acDateSerment":"","coordinates":[1.2504485,45.8322584]},{"NomBarreau":"LIMOGES","avNom":"BERARD","avPrenom":"Florence","cbRaisonSociale":"SELARL VERGER-MORLHIGHEM ET ASSOCIES","cbSiretSiren":"834097404","cbAdresse1":"2 RUE BROUSSEAU","cbAdresse2":"","cbCp":"87000","cbVille":"LIMOGES","spLibelle1":"","spLibelle2":"","acDateSerment":"","coordinates":[1.2533586,45.8321352]},{"NomBarreau":"LIMOGES","avNom":"BERSOULT","avPrenom":"Cassandre","cbRaisonSociale":"BERSOULT CASSANDRE","cbSiretSiren":"892638719","cbAdresse1":"2 RUE BROUSSEAU","cbAdresse2":"","cbCp":"87000","cbVille":"LIMOGES","spLibelle1":"","spLibelle2":"","acDateSerment":"","coordinates":[1.2533586,45.8321352]},{"NomBarreau":"LIMOGES","avNom":"BLANCHARD","avPrenom":"Nicolas","cbRaisonSociale":"SELARL CDES CONSEIL","cbSiretSiren":"523555951","cbAdresse1":"5 Avenue des Ruchoux","cbAdresse2":"","cbCp":"87000","cbVille":"LIMOGES","spLibelle1":"","spLibelle2":"","acDateSerment":"","coordinates":[1.2470582,45.8340704]},{"NomBarreau":"LIMOGES","avNom":"BOISBOURDIN","avPrenom":"Raphael","cbRaisonSociale":"ORBEON AVOCATS","cbSiretSiren":"851620815","cbAdresse1":"25 boulevard Victor HUGO","cbAdresse2":"","cbCp":"87000","cbVille":"LIMOGES","spLibelle1":"","spLibelle2":"","acDateSerment":"","coordinates":[1.2546006,45.8306096]},{"NomBarreau":"LIMOGES","avNom":"BOURRA","avPrenom":"Jean-Philippe","cbRaisonSociale":"BOURRA JEAN-PHILIPPE","cbSiretSiren":"444938120","cbAdresse1":"28 AVENUE DU MIDI","cbAdresse2":"","cbCp":"87000","cbVille":"LIMOGES","spLibelle1":"Droit du dommage corporel","spLibelle2":"","acDateSerment":"","coordinates":[1.2566716,45.8264276]},{"NomBarreau":"LIMOGES","avNom":"BOURZAT-ALAPHILIPPE","avPrenom":"Nathalie","cbRaisonSociale":"SELARL CDES CONSEIL","cbSiretSiren":"523555951","cbAdresse1":"5 Avenue des Ruchoux","cbAdresse2":"","cbCp":"87000","cbVille":"LIMOGES","spLibelle1":"","spLibelle2":"","acDateSerment":"","coordinates":[1.2470582,45.8340704]},{"NomBarreau":"LIMOGES","avNom":"BRECY-TEYSSANDIER","avPrenom":"Eric","cbRaisonSociale":"BRECY-TEYSSANDIER ERIC","cbSiretSiren":"330898883","cbAdresse1":"19-21 Boulevard Victor Hugo","cbAdresse2":"","cbCp":"87000","cbVille":"LIMOGES","spLibelle1":"","spLibelle2":"","acDateSerment":"","coordinates":[1.2546006,45.8306096]},{"NomBarreau":"LIMOGES","avNom":"BREILLAT","avPrenom":"Jean-Christophe","cbRaisonSociale":"SELARL CDES CONSEIL","cbSiretSiren":"523555951","cbAdresse1":"5 Avenue des Ruchoux","cbAdresse2":"","cbCp":"87000","cbVille":"LIMOGES","spLibelle1":"Droit du sport","spLibelle2":"","acDateSerment":"","coordinates":[1.2470582,45.8340704]},{"NomBarreau":"LIMOGES","avNom":"BROUSSE","avPrenom":"Olivier","cbRaisonSociale":"SELARL LEXIADE ENTREPRISES","cbSiretSiren":"484048301","cbAdresse1":"37 RUE BARTHELEMY THIMONNIER","cbAdresse2":"","cbCp":"87280","cbVille":"LIMOGES","spLibelle1":"","spLibelle2":"","acDateSerment":"","coordinates":[1.2747752,45.8824299]},{"NomBarreau":"LIMOGES","avNom":"BRUNIE","avPrenom":"Laurence","cbRaisonSociale":"BRUNIE LAURENCE","cbSiretSiren":"520411497","cbAdresse1":"118 Avenue Montjovis","cbAdresse2":"","cbCp":"87000","cbVille":"LIMOGES","spLibelle1":"","spLibelle2":"","acDateSerment":"","coordinates":[1.2457964,45.8427834]},{"NomBarreau":"LIMOGES","avNom":"CASTILLE","avPrenom":"Pauline","cbRaisonSociale":"CASTILLE PAULINE","cbSiretSiren":"908632664","cbAdresse1":"14 rue Bernard Palissy","cbAdresse2":"","cbCp":"87000","cbVille":"LIMOGES","spLibelle1":"","spLibelle2":"","acDateSerment":"","coordinates":[1.2520302,45.8338445]},{"NomBarreau":"LIMOGES","avNom":"CELIKSU","avPrenom":"Harun","cbRaisonSociale":"CELIKSU HARUN","cbSiretSiren":"539484576","cbAdresse1":"75 BOULEVARD GAMBETTA","cbAdresse2":"","cbCp":"87000","cbVille":"LIMOGES","spLibelle1":"","spLibelle2":"","acDateSerment":"","coordinates":[1.2550991,45.8296248]},{"NomBarreau":"LIMOGES","avNom":"CHABAUD","avPrenom":"Philippe","cbRaisonSociale":"SELARL CHAGNAUD CHABAUD LAGRANGE","cbSiretSiren":"801185497","cbAdresse1":"67 Boulevard Gambetta","cbAdresse2":"","cbCp":"87000","cbVille":"LIMOGES","spLibelle1":"Procédure d'appel","spLibelle2":"","acDateSerment":"","coordinates":[1.2552939,45.8291558]},{"NomBarreau":"LIMOGES","avNom":"CHAGNAUD","avPrenom":"Stéphane","cbRaisonSociale":"SELARL CHAGNAUD CHABAUD LAGRANGE","cbSiretSiren":"801185497","cbAdresse1":"67 Boulevard Gambetta","cbAdresse2":"","cbCp":"87000","cbVille":"LIMOGES","spLibelle1":"","spLibelle2":"","acDateSerment":"","coordinates":[1.2552939,45.8291558]},{"NomBarreau":"LIMOGES","avNom":"CHAROING","avPrenom":"Catherine","cbRaisonSociale":"CHAROING CATHERINE","cbSiretSiren":"803006519","cbAdresse1":"36 Boulevard Gambetta","cbAdresse2":"","cbCp":"87000","cbVille":"LIMOGES","spLibelle1":"","spLibelle2":"","acDateSerment":"","coordinates":[1.2550991,45.8296248]},{"NomBarreau":"LIMOGES","avNom":"CHARTIER","avPrenom":"Véronique","cbRaisonSociale":"CHARTIER VERONIQUE","cbSiretSiren":"824613210","cbAdresse1":"23 boulevard Gambetta","cbAdresse2":"","cbCp":"87000","cbVille":"LIMOGES","spLibelle1":"Droit immobilier","spLibelle2":"","acDateSerment":"","coordinates":[1.2550991,45.8296248]},{"NomBarreau":"LIMOGES","avNom":"CHASTAGNIER","avPrenom":"Jean-Christophe","cbRaisonSociale":"SELARL AJURIS CONSEILS","cbSiretSiren":"803646041","cbAdresse1":"45 rue Turgot","cbAdresse2":"","cbCp":"87000","cbVille":"LIMOGES","spLibelle1":"Droit des sociétés","spLibelle2":"","acDateSerment":"","coordinates":[1.255053918672566,45.831007]},{"NomBarreau":"LIMOGES","avNom":"CHAUPRADE","avPrenom":"Nathalie","cbRaisonSociale":"CHAUPRADE NATHALIE","cbSiretSiren":"399654979","cbAdresse1":"7 place d'Aine","cbAdresse2":"","cbCp":"87000","cbVille":"LIMOGES","spLibelle1":"","spLibelle2":"","acDateSerment":"","coordinates":[1.2547973,45.8297634]},{"NomBarreau":"LIMOGES","avNom":"CLAUDE-LACHENAUD","avPrenom":"Gisèle","cbRaisonSociale":"CLAUDE-LACHENAUD GISELE","cbSiretSiren":"343850681","cbAdresse1":"13 Boulevard Gambetta","cbAdresse2":"","cbCp":"87000","cbVille":"LIMOGES","spLibelle1":"","spLibelle2":"","acDateSerment":"","coordinates":[1.2550991,45.8296248]},{"NomBarreau":"LIMOGES","avNom":"COGULET","avPrenom":"Fabienne","cbRaisonSociale":"COGULET FABIENNE","cbSiretSiren":"527569362","cbAdresse1":"45 rue Turgot","cbAdresse2":"","cbCp":"87000","cbVille":"LIMOGES","spLibelle1":"","spLibelle2":"","acDateSerment":"","coordinates":[1.255053918672566,45.831007]},{"NomBarreau":"LIMOGES","avNom":"COUDER","avPrenom":"Audrey","cbRaisonSociale":"COUDER AUDREY","cbSiretSiren":"510992878","cbAdresse1":"16 Rue de la Fonderie","cbAdresse2":"","cbCp":"87000","cbVille":"LIMOGES","spLibelle1":"","spLibelle2":"","acDateSerment":"","coordinates":[1.252666,45.8356658]},{"NomBarreau":"LIMOGES","avNom":"COUDOUIN","avPrenom":"Karine","cbRaisonSociale":"COUDOUIN KARINE","cbSiretSiren":"","cbAdresse1":"45 rue TURGOT","cbAdresse2":"","cbCp":"87000","cbVille":"LIMOGES","spLibelle1":"","spLibelle2":"","acDateSerment":"","coordinates":[1.255053918672566,45.831007]},{"NomBarreau":"LIMOGES","avNom":"DASSE","avPrenom":"Hubert-Antoine","cbRaisonSociale":"RAYNAL-DASSE","cbSiretSiren":"523793230","cbAdresse1":"14 rue Bernard Palissy","cbAdresse2":"","cbCp":"87000","cbVille":"LIMOGES","spLibelle1":"","spLibelle2":"","acDateSerment":"","coordinates":[1.2520302,45.8338445]},{"NomBarreau":"LIMOGES","avNom":"DAURIAC","avPrenom":"Eric","cbRaisonSociale":"DAURIAC - PAULIAT-DEFAYE BOUCHERLE-MAGNE","cbSiretSiren":"778069575","cbAdresse1":"25 Boulevard Victor Hugo","cbAdresse2":"","cbCp":"87000","cbVille":"LIMOGES","spLibelle1":"","spLibelle2":"","acDateSerment":"","coordinates":[1.2546006,45.8306096]},{"NomBarreau":"LIMOGES","avNom":"DAURIAC","avPrenom":"Laetitia","cbRaisonSociale":"SELARL DAURIAC ET ASSOCIES","cbSiretSiren":"523675429","cbAdresse1":"12 rue des Anglais","cbAdresse2":"BP 27","cbCp":"87000","cbVille":"LIMOGES","spLibelle1":"","spLibelle2":"","acDateSerment":"","coordinates":[1.2542824,45.8328106]},{"NomBarreau":"LIMOGES","avNom":"DEBERNARD-DAURIAC","avPrenom":"Anne","cbRaisonSociale":"SELARL LEXAVOUE","cbSiretSiren":"790083778","cbAdresse1":"25 Boulevard Victor Hugo","cbAdresse2":"","cbCp":"87000","cbVille":"LIMOGES","spLibelle1":"Procédure d'appel","spLibelle2":"","acDateSerment":"","coordinates":[1.2546006,45.8306096]},{"NomBarreau":"LIMOGES","avNom":"DELIRANT","avPrenom":"Sylvia","cbRaisonSociale":"SELARL SYLVIA DELIRANT","cbSiretSiren":"844757161","cbAdresse1":"45/47 rue TURGOT","cbAdresse2":"residence l'Intendant","cbCp":"87000","cbVille":"LIMOGES","spLibelle1":"","spLibelle2":"","acDateSerment":"","coordinates":[1.256112,45.8313424]},{"NomBarreau":"LIMOGES","avNom":"DELLA TORRE","avPrenom":"Aurélie","cbRaisonSociale":"DELLA TORRE AURELIE","cbSiretSiren":"790357719","cbAdresse1":"19 Rue Pierre Leroux","cbAdresse2":"","cbCp":"87000","cbVille":"LIMOGES","spLibelle1":"","spLibelle2":"","acDateSerment":"","coordinates":[1.2540033,45.8335506]},{"NomBarreau":"LIMOGES","avNom":"DES CHAMPS DE VERNEIX","avPrenom":"Etienne","cbRaisonSociale":"DES CHAMPS DE VERNEIX ETIENNE","cbSiretSiren":"529739450","cbAdresse1":"7 TER RUE DE LA MAUVENDIERE","cbAdresse2":"","cbCp":"87000","cbVille":"LIMOGES","spLibelle1":"","spLibelle2":"","acDateSerment":"","coordinates":[1.2504485,45.8322584]},{"NomBarreau":"LIMOGES","avNom":"DHAEZE-LABOUDIE","avPrenom":"Corinne","cbRaisonSociale":"SELARL DEMOSTHENE","cbSiretSiren":"853706562","cbAdresse1":"17 PLACE CHURCHILL","cbAdresse2":"","cbCp":"87000","cbVille":"LIMOGES","spLibelle1":"","spLibelle2":"","acDateSerment":"","coordinates":[1.2532429,45.8310553]},{"NomBarreau":"LIMOGES","avNom":"DIA","avPrenom":"Ibrahima","cbRaisonSociale":"DIA IBRAHIMA","cbSiretSiren":"910725670","cbAdresse1":"4 boulevard du Vigenal","cbAdresse2":"","cbCp":"87000","cbVille":"LIMOGES","spLibelle1":"","spLibelle2":"","acDateSerment":"","coordinates":[1.2464675,45.8488566]},{"NomBarreau":"LIMOGES","avNom":"DIAS","avPrenom":"Catherine","cbRaisonSociale":"DIAS CATHERINE","cbSiretSiren":"528458441","cbAdresse1":"36 boulevard Gambetta","cbAdresse2":"","cbCp":"87000","cbVille":"LIMOGES","spLibelle1":"","spLibelle2":"","acDateSerment":"","coordinates":[1.2550991,45.8296248]},{"NomBarreau":"LIMOGES","avNom":"DOIZON","avPrenom":"Alexandra","cbRaisonSociale":"SELARL BELON - DOIZON AVOCATS","cbSiretSiren":"841538952","cbAdresse1":"2 rue FITZ JAMES","cbAdresse2":"","cbCp":"87000","cbVille":"LIMOGES","spLibelle1":"","spLibelle2":"","acDateSerment":"","coordinates":[1.2595557,45.8323512]},{"NomBarreau":"LIMOGES","avNom":"DUBOIS","avPrenom":"Arnaud","cbRaisonSociale":"DUBOIS ARNAUD","cbSiretSiren":"827865346","cbAdresse1":"6 rue RAYMOND COURAUD","cbAdresse2":"","cbCp":"87000","cbVille":"LIMOGES","spLibelle1":"","spLibelle2":"","acDateSerment":"","coordinates":[1.2544992,45.8306414]},{"NomBarreau":"LIMOGES","avNom":"DUBOIS","avPrenom":"Pascal","cbRaisonSociale":"DUBOIS DUDOGNON VILLETTE","cbSiretSiren":"487680605","cbAdresse1":"6 rue RAYMOND COURAUD","cbAdresse2":"","cbCp":"87000","cbVille":"LIMOGES","spLibelle1":"Droit de la famille, des personnes et de leur patrimoine","spLibelle2":"Droit du travail","acDateSerment":"","coordinates":[1.2544992,45.8306414]},{"NomBarreau":"LIMOGES","avNom":"DUBOIS-MARET","avPrenom":"Charlotte","cbRaisonSociale":"SELARL C.D.M. AVOCAT","cbSiretSiren":"912554516","cbAdresse1":"15 rue de la Reynie","cbAdresse2":"","cbCp":"87000","cbVille":"LIMOGES","spLibelle1":"","spLibelle2":"","acDateSerment":"","coordinates":[1.2495352,45.833443]},{"NomBarreau":"LIMOGES","avNom":"DUDOGNON","avPrenom":"Agnès","cbRaisonSociale":"DUBOIS DUDOGNON VILLETTE","cbSiretSiren":"487680605","cbAdresse1":"6 rue RAYMOND COURAUD","cbAdresse2":"","cbCp":"87000","cbVille":"LIMOGES","spLibelle1":"Droit de la famille, des personnes et de leur patrimoine","spLibelle2":"","acDateSerment":"","coordinates":[1.2544992,45.8306414]},{"NomBarreau":"LIMOGES","avNom":"DUGENY-TRUFFIT","avPrenom":"Marie-Christine","cbRaisonSociale":"DUGENY-TRUFFIT MARIE-CHRISTINE","cbSiretSiren":"400294583","cbAdresse1":"22 COURS JOURDAN","cbAdresse2":"","cbCp":"87000","cbVille":"LIMOGES","spLibelle1":"","spLibelle2":"","acDateSerment":"","coordinates":[1.2643734,45.8338101]},{"NomBarreau":"LIMOGES","avNom":"DUMONT","avPrenom":"Christine","cbRaisonSociale":"DUMONT CHRISTINE","cbSiretSiren":"380476838","cbAdresse1":"75 Boulevard Gambetta","cbAdresse2":"","cbCp":"87000","cbVille":"LIMOGES","spLibelle1":"","spLibelle2":"","acDateSerment":"","coordinates":[1.2550991,45.8296248]},{"NomBarreau":"LIMOGES","avNom":"DUMONT","avPrenom":"Clémence","cbRaisonSociale":"DUMONT CLEMENCE","cbSiretSiren":"529799074","cbAdresse1":"2 rue FITZ JAMES","cbAdresse2":"","cbCp":"87000","cbVille":"LIMOGES","spLibelle1":"","spLibelle2":"","acDateSerment":"","coordinates":[1.2595557,45.8323512]},{"NomBarreau":"LIMOGES","avNom":"DUMONT","avPrenom":"Laurence","cbRaisonSociale":"DUMONT LAURENCE","cbSiretSiren":"842884744","cbAdresse1":"36 Boulevard Gambetta","cbAdresse2":"","cbCp":"87000","cbVille":"LIMOGES","spLibelle1":"","spLibelle2":"","acDateSerment":"","coordinates":[1.2550991,45.8296248]},{"NomBarreau":"LIMOGES","avNom":"DUMONT","avPrenom":"Suzanne","cbRaisonSociale":"DUMONT SUZANNE","cbSiretSiren":"809658859","cbAdresse1":"9 Place d'Aine","cbAdresse2":"","cbCp":"87000","cbVille":"LIMOGES","spLibelle1":"","spLibelle2":"","acDateSerment":"","coordinates":[1.2544554,45.8300608]},{"NomBarreau":"LIMOGES","avNom":"DUPONTEIL","avPrenom":"Valérie","cbRaisonSociale":"DUPONTEIL VALERIE","cbSiretSiren":"403394711","cbAdresse1":"19 rue Pierre Leroux","cbAdresse2":"","cbCp":"87000","cbVille":"LIMOGES","spLibelle1":"","spLibelle2":"","acDateSerment":"","coordinates":[1.2540033,45.8335506]},{"NomBarreau":"LIMOGES","avNom":"DURAND","avPrenom":"Ophélie","cbRaisonSociale":"DURAND OPHELIE","cbSiretSiren":"844941617","cbAdresse1":"67 Boulevard Gambetta","cbAdresse2":"","cbCp":"87000","cbVille":"LIMOGES","spLibelle1":"","spLibelle2":"","acDateSerment":"","coordinates":[1.2552939,45.8291558]},{"NomBarreau":"LIMOGES","avNom":"ERHARD","avPrenom":"Marinne","cbRaisonSociale":"ERHARD MARINNE","cbSiretSiren":"","cbAdresse1":"19 boulevard Victor HUGO","cbAdresse2":"","cbCp":"87000","cbVille":"LIMOGES","spLibelle1":"","spLibelle2":"","acDateSerment":"","coordinates":[1.2546006,45.8306096]},{"NomBarreau":"LIMOGES","avNom":"FAUGERAS","avPrenom":"Anne-Sophie","cbRaisonSociale":"FAUGERAS ANNE-SOPHIE","cbSiretSiren":"","cbAdresse1":"11ter rue Petiniaud Beaupeyrat","cbAdresse2":"","cbCp":"87000","cbVille":"LIMOGES","spLibelle1":"","spLibelle2":"","acDateSerment":"","coordinates":[1.2559094,45.8284875]},{"NomBarreau":"LIMOGES","avNom":"FOURASTIER","avPrenom":"Jeanne","cbRaisonSociale":"TER AVOCATS","cbSiretSiren":"848547709","cbAdresse1":"5 boulevard VICTOR HUGO","cbAdresse2":"","cbCp":"87000","cbVille":"LIMOGES","spLibelle1":"","spLibelle2":"","acDateSerment":"","coordinates":[1.2546006,45.8306096]},{"NomBarreau":"LIMOGES","avNom":"FRUGIER","avPrenom":"Joel","cbRaisonSociale":"FRUGIER JOEL","cbSiretSiren":"421253113","cbAdresse1":"14 rue Bernard Palissy","cbAdresse2":"","cbCp":"87000","cbVille":"LIMOGES","spLibelle1":"","spLibelle2":"","acDateSerment":"","coordinates":[1.2520302,45.8338445]},{"NomBarreau":"LIMOGES","avNom":"GAFFET","avPrenom":"Philip","cbRaisonSociale":"GAFFET MADELENNAT ET ASSOCIES","cbSiretSiren":"","cbAdresse1":"14 rue Bernard PALISSY","cbAdresse2":"","cbCp":"87000","cbVille":"LIMOGES","spLibelle1":"","spLibelle2":"","acDateSerment":"","coordinates":[1.2520302,45.8338445]},{"NomBarreau":"LIMOGES","avNom":"GALBRUN","avPrenom":"Marie-France","cbRaisonSociale":"GALBRUN MARIE-FRANCE","cbSiretSiren":"340918416","cbAdresse1":"22 RUE PETINIAUD BEAUPEYRAT","cbAdresse2":"","cbCp":"87000","cbVille":"LIMOGES","spLibelle1":"","spLibelle2":"","acDateSerment":"","coordinates":[1.2559094,45.8284875]},{"NomBarreau":"LIMOGES","avNom":"GALINET","avPrenom":"Marie","cbRaisonSociale":"GALINET MARIE","cbSiretSiren":"421983826","cbAdresse1":"45-47 rue Turgot","cbAdresse2":"Résidence l'Intendant - 3ème étage","cbCp":"87000","cbVille":"LIMOGES","spLibelle1":"","spLibelle2":"","acDateSerment":"","coordinates":[1.256112,45.8313424]},{"NomBarreau":"LIMOGES","avNom":"GANDOIS-MAURETTE","avPrenom":"Isabelle","cbRaisonSociale":"SELARL G-M.L.D.","cbSiretSiren":"813963790","cbAdresse1":"1 rue du GENERAL CEREZ","cbAdresse2":"","cbCp":"87000","cbVille":"LIMOGES","spLibelle1":"","spLibelle2":"","acDateSerment":"","coordinates":[1.2599584,45.8339759]},{"NomBarreau":"LIMOGES","avNom":"GAUTIER-DELAGE","avPrenom":"Amélie","cbRaisonSociale":"GAUTIER-DELAGE AMELIE","cbSiretSiren":"527503155","cbAdresse1":"45 rue TURGOT","cbAdresse2":"","cbCp":"87000","cbVille":"LIMOGES","spLibelle1":"Droit immobilier","spLibelle2":"","acDateSerment":"","coordinates":[1.255053918672566,45.831007]},{"NomBarreau":"LIMOGES","avNom":"GAVINET","avPrenom":"Nadine","cbRaisonSociale":"GAVINET NADINE","cbSiretSiren":"334578085","cbAdresse1":"19-21 Boulevard Victor Hugo","cbAdresse2":"","cbCp":"87000","cbVille":"LIMOGES","spLibelle1":"Droit de la famille, des personnes et de leur patrimoine","spLibelle2":"Droit pénal","acDateSerment":"","coordinates":[1.2546006,45.8306096]},{"NomBarreau":"LIMOGES","avNom":"GERARDIN","avPrenom":"Paul","cbRaisonSociale":"GERARDIN PAUL","cbSiretSiren":"319632295","cbAdresse1":"13 Boulevard Gambetta","cbAdresse2":"","cbCp":"87000","cbVille":"LIMOGES","spLibelle1":"Droit commercial, des affaires et de la concurrence","spLibelle2":"Droit des garanties, des saretés et des mesures d'exécution","acDateSerment":"","coordinates":[1.2550991,45.8296248]},{"NomBarreau":"LIMOGES","avNom":"GHOUNBAJ","avPrenom":"Driss","cbRaisonSociale":"GHOUNBAJ DRISS","cbSiretSiren":"832374193","cbAdresse1":"36 boulevard GAMBETTA","cbAdresse2":"","cbCp":"87000","cbVille":"LIMOGES","spLibelle1":"","spLibelle2":"","acDateSerment":"","coordinates":[1.2550991,45.8296248]},{"NomBarreau":"LIMOGES","avNom":"GILLET","avPrenom":"Matthieu","cbRaisonSociale":"SELARL DEMOSTHENE","cbSiretSiren":"853706562","cbAdresse1":"17 PLACE CHURCHILL","cbAdresse2":"","cbCp":"87000","cbVille":"LIMOGES","spLibelle1":"","spLibelle2":"","acDateSerment":"","coordinates":[1.2532429,45.8310553]},{"NomBarreau":"LIMOGES","avNom":"GOLFIER-ROUY","avPrenom":"Marie","cbRaisonSociale":"BONNAFOUS BREGEON - GOLFIER","cbSiretSiren":"789797271","cbAdresse1":"22 Avenue FOUCAUD","cbAdresse2":"","cbCp":"87000","cbVille":"LIMOGES","spLibelle1":"","spLibelle2":"","acDateSerment":"","coordinates":[1.2514544,45.8299202]},{"NomBarreau":"LIMOGES","avNom":"GONCALVES","avPrenom":"Thomas","cbRaisonSociale":"GONCALVES THOMAS","cbSiretSiren":"","cbAdresse1":"5 Boulevard Victor HUGO","cbAdresse2":"","cbCp":"87000","cbVille":"LIMOGES","spLibelle1":"","spLibelle2":"","acDateSerment":"","coordinates":[1.2546006,45.8306096]},{"NomBarreau":"LIMOGES","avNom":"GRANGER","avPrenom":"Nicolas","cbRaisonSociale":"GRANGER NICOLAS","cbSiretSiren":"848386272","cbAdresse1":"19 boulevard Victor Hugo","cbAdresse2":"","cbCp":"87000","cbVille":"LIMOGES","spLibelle1":"","spLibelle2":"","acDateSerment":"","coordinates":[1.2546006,45.8306096]},{"NomBarreau":"LIMOGES","avNom":"GREZE","avPrenom":"Bruno","cbRaisonSociale":"SELARL AEGIS","cbSiretSiren":"501918650","cbAdresse1":"61 Boulevard Gambetta","cbAdresse2":"","cbCp":"87000","cbVille":"LIMOGES","spLibelle1":"","spLibelle2":"","acDateSerment":"","coordinates":[1.2550991,45.8296248]},{"NomBarreau":"LIMOGES","avNom":"GRIMAUD","avPrenom":"Ombeline","cbRaisonSociale":"GRIMAUD OMBELINE","cbSiretSiren":"827913054","cbAdresse1":"25 boulevard Victor Hugo","cbAdresse2":"","cbCp":"87000","cbVille":"LIMOGES","spLibelle1":"","spLibelle2":"","acDateSerment":"","coordinates":[1.2546006,45.8306096]},{"NomBarreau":"LIMOGES","avNom":"GUILLOT","avPrenom":"Olivier","cbRaisonSociale":"GUILLOT OLIVIER","cbSiretSiren":"399655018","cbAdresse1":"45 rue Turgot","cbAdresse2":"Résidence l'Intendant","cbCp":"87000","cbVille":"LIMOGES","spLibelle1":"","spLibelle2":"","acDateSerment":"","coordinates":[1.255053918672566,45.831007]},{"NomBarreau":"LIMOGES","avNom":"HAYS","avPrenom":"Fabien","cbRaisonSociale":"KPMG AVOCATS","cbSiretSiren":"840455273","cbAdresse1":"25 Rue Hubert Curien","cbAdresse2":"","cbCp":"87038","cbVille":"limoges","spLibelle1":"","spLibelle2":"","acDateSerment":"","coordinates":[1.2715243,45.8096922]},{"NomBarreau":"LIMOGES","avNom":"JAMES","avPrenom":"Mickael","cbRaisonSociale":"SELARL MJ AVOCAT","cbSiretSiren":"908431612","cbAdresse1":"45 rue TURGOT","cbAdresse2":"","cbCp":"87000","cbVille":"LIMOGES","spLibelle1":"","spLibelle2":"","acDateSerment":"","coordinates":[1.255053918672566,45.831007]},{"NomBarreau":"LIMOGES","avNom":"JEANJON","avPrenom":"Elvina","cbRaisonSociale":"JEANJON ELVINA","cbSiretSiren":"791069735","cbAdresse1":"2 rue FITZ JAMES","cbAdresse2":"","cbCp":"87000","cbVille":"LIMOGES","spLibelle1":"","spLibelle2":"","acDateSerment":"","coordinates":[1.2595557,45.8323512]},{"NomBarreau":"LIMOGES","avNom":"KARAKUS-GURSAL","avPrenom":"Hanife","cbRaisonSociale":"KARAKUS-GURSAL HANIFE","cbSiretSiren":"510354673","cbAdresse1":"15 rue de la Fonderie","cbAdresse2":"Résidence Bernard Palissy","cbCp":"87000","cbVille":"LIMOGES","spLibelle1":"","spLibelle2":"","acDateSerment":"","coordinates":[1.252666,45.8356658]},{"NomBarreau":"LIMOGES","avNom":"KAROUTSOS","avPrenom":"Hélène-Charlotte","cbRaisonSociale":"KAROUTSOS HELENE-CHARLOTTE","cbSiretSiren":"430193771","cbAdresse1":"19-21 Boulevard Victor Hugo","cbAdresse2":"","cbCp":"87000","cbVille":"LIMOGES","spLibelle1":"","spLibelle2":"","acDateSerment":"","coordinates":[1.2546006,45.8306096]},{"NomBarreau":"LIMOGES","avNom":"LAGARDE","avPrenom":"Franck","cbRaisonSociale":"SELARL CDES CONSEIL","cbSiretSiren":"523555951","cbAdresse1":"5 Avenue des Ruchoux","cbAdresse2":"","cbCp":"87000","cbVille":"LIMOGES","spLibelle1":"Droit du sport","spLibelle2":"","acDateSerment":"","coordinates":[1.2470582,45.8340704]},{"NomBarreau":"LIMOGES","avNom":"LAGRANGE","avPrenom":"Romain","cbRaisonSociale":"SELARL CHAGNAUD CHABAUD LAGRANGE","cbSiretSiren":"801185497","cbAdresse1":"67 Boulevard Gambetta","cbAdresse2":"","cbCp":"87000","cbVille":"LIMOGES","spLibelle1":"","spLibelle2":"","acDateSerment":"","coordinates":[1.2552939,45.8291558]},{"NomBarreau":"LIMOGES","avNom":"LAPOUMEROULIE-MANSOUR","avPrenom":"Marie-Christine","cbRaisonSociale":"LAPOUMEROULIE-MANSOUR MARIE-CHRISTINE","cbSiretSiren":"343542569","cbAdresse1":"61 boulevard Gambetta","cbAdresse2":"","cbCp":"87000","cbVille":"LIMOGES","spLibelle1":"","spLibelle2":"","acDateSerment":"","coordinates":[1.2550991,45.8296248]},{"NomBarreau":"LIMOGES","avNom":"LAVERDURE","avPrenom":"Guillaume","cbRaisonSociale":"SELARL AVOC'ARENES","cbSiretSiren":"834338873","cbAdresse1":"25 RUE DES ARENES","cbAdresse2":"","cbCp":"87000","cbVille":"LIMOGES","spLibelle1":"","spLibelle2":"","acDateSerment":"","coordinates":[1.2532376,45.8298103]},{"NomBarreau":"LIMOGES","avNom":"LEBOUC","avPrenom":"Dorothée","cbRaisonSociale":"LEBOUC DOROTHEE","cbSiretSiren":"403571342","cbAdresse1":"45 rue Turgot","cbAdresse2":"Résidence l'Intendant","cbCp":"87000","cbVille":"LIMOGES","spLibelle1":"","spLibelle2":"","acDateSerment":"","coordinates":[1.255053918672566,45.831007]},{"NomBarreau":"LIMOGES","avNom":"LECLAIR","avPrenom":"Valentin","cbRaisonSociale":"LECLAIR VALENTIN","cbSiretSiren":"","cbAdresse1":"25 Rue Hubert Curien","cbAdresse2":"","cbCp":"87038","cbVille":"limoges","spLibelle1":"","spLibelle2":"","acDateSerment":"","coordinates":[1.2715243,45.8096922]},{"NomBarreau":"LIMOGES","avNom":"LEGER","avPrenom":"Océane","cbRaisonSociale":"SELARL G-M.L.D.","cbSiretSiren":"813963790","cbAdresse1":"1 rue du GENERAL CEREZ","cbAdresse2":"","cbCp":"87000","cbVille":"LIMOGES","spLibelle1":"","spLibelle2":"","acDateSerment":"","coordinates":[1.2599584,45.8339759]},{"NomBarreau":"LIMOGES","avNom":"LEPOUTRE","avPrenom":"Tanguy","cbRaisonSociale":"TER AVOCATS","cbSiretSiren":"848547709","cbAdresse1":"5 boulevard VICTOR HUGO","cbAdresse2":"","cbCp":"87000","cbVille":"LIMOGES","spLibelle1":"","spLibelle2":"","acDateSerment":"","coordinates":[1.2546006,45.8306096]},{"NomBarreau":"LIMOGES","avNom":"LONGEAGNE","avPrenom":"Frédéric","cbRaisonSociale":"LONGEAGNE FREDERIC","cbSiretSiren":"353408792","cbAdresse1":"14 rue Bernard Palissy","cbAdresse2":"","cbCp":"87000","cbVille":"LIMOGES","spLibelle1":"","spLibelle2":"","acDateSerment":"","coordinates":[1.2520302,45.8338445]},{"NomBarreau":"LIMOGES","avNom":"LOUSTAUD","avPrenom":"Elsa","cbRaisonSociale":"LOUSTAUD ELSA","cbSiretSiren":"807831698","cbAdresse1":"19 boulevard Victor Hugo","cbAdresse2":"","cbCp":"87000","cbVille":"LIMOGES","spLibelle1":"","spLibelle2":"","acDateSerment":"","coordinates":[1.2546006,45.8306096]},{"NomBarreau":"LIMOGES","avNom":"MAGNE","avPrenom":"Lionel","cbRaisonSociale":"DAURIAC - PAULIAT-DEFAYE BOUCHERLE-MAGNE","cbSiretSiren":"778069575","cbAdresse1":"25 Boulevard Victor Hugo","cbAdresse2":"","cbCp":"87000","cbVille":"LIMOGES","spLibelle1":"","spLibelle2":"","acDateSerment":"","coordinates":[1.2546006,45.8306096]},{"NomBarreau":"LIMOGES","avNom":"MAGNE-GANDOIS","avPrenom":"Juliette","cbRaisonSociale":"SELARL J.M.G.A.","cbSiretSiren":"894566801","cbAdresse1":"25 Boulevard Victor HUGO","cbAdresse2":"","cbCp":"87000","cbVille":"LIMOGES","spLibelle1":"","spLibelle2":"","acDateSerment":"","coordinates":[1.2546006,45.8306096]},{"NomBarreau":"LIMOGES","avNom":"MALABRE","avPrenom":"Jean-Eric","cbRaisonSociale":"MALABRE & OUANGARI AVOCATS","cbSiretSiren":"910371574","cbAdresse1":"6 PLACE STALINGRAD","cbAdresse2":"","cbCp":"87000","cbVille":"LIMOGES","spLibelle1":"","spLibelle2":"","acDateSerment":"","coordinates":[1.2588568,45.832854]},{"NomBarreau":"LIMOGES","avNom":"MANDON BARDAUD-CAUSSADE","avPrenom":"Carine","cbRaisonSociale":"AVELINE MANDON BARDAUD-CAUSSADE","cbSiretSiren":"401113154","cbAdresse1":"36-38 Boulevard Victor Hugo","cbAdresse2":"","cbCp":"87000","cbVille":"LIMOGES","spLibelle1":"","spLibelle2":"","acDateSerment":"","coordinates":[1.2546006,45.8306096]},{"NomBarreau":"LIMOGES","avNom":"MARET","avPrenom":"Julien","cbRaisonSociale":"JULIEN MARET","cbSiretSiren":"921443750","cbAdresse1":"15 RUE DE LA REYNIE","cbAdresse2":"","cbCp":"87000","cbVille":"LIMOGES","spLibelle1":"","spLibelle2":"","acDateSerment":"","coordinates":[1.2495352,45.833443]},{"NomBarreau":"LIMOGES","avNom":"MARTIN","avPrenom":"Michel","cbRaisonSociale":"SELARL SOLTNER-MARTIN","cbSiretSiren":"803858901","cbAdresse1":"24 Avenue Foucaud","cbAdresse2":"","cbCp":"87000","cbVille":"LIMOGES","spLibelle1":"","spLibelle2":"","acDateSerment":"","coordinates":[1.2514544,45.8299202]},{"NomBarreau":"LIMOGES","avNom":"MARTY","avPrenom":"Blandine","cbRaisonSociale":"MARTY BLANDINE","cbSiretSiren":"519575013","cbAdresse1":"2 RUE BROUSSEAU","cbAdresse2":"","cbCp":"87000","cbVille":"LIMOGES","spLibelle1":"","spLibelle2":"","acDateSerment":"","coordinates":[1.2533586,45.8321352]},{"NomBarreau":"LIMOGES","avNom":"MAUSSET","avPrenom":"Florence","cbRaisonSociale":"MAUSSET FLORENCE","cbSiretSiren":"444901086","cbAdresse1":"7 place d'Aine","cbAdresse2":"","cbCp":"87000","cbVille":"LIMOGES","spLibelle1":"","spLibelle2":"","acDateSerment":"","coordinates":[1.2547973,45.8297634]},{"NomBarreau":"LIMOGES","avNom":"MOHAND-HAYS","avPrenom":"Maryline","cbRaisonSociale":"KPMG AVOCATS","cbSiretSiren":"840455273","cbAdresse1":"25 Rue Hubert Curien","cbAdresse2":"","cbCp":"87038","cbVille":"limoges","spLibelle1":"","spLibelle2":"","acDateSerment":"","coordinates":[1.2715243,45.8096922]},{"NomBarreau":"LIMOGES","avNom":"MONPION","avPrenom":"Anne","cbRaisonSociale":"MONPION ANNE","cbSiretSiren":"539891804","cbAdresse1":"45 rue TURGOT","cbAdresse2":"","cbCp":"87000","cbVille":"LIMOGES","spLibelle1":"Droit public","spLibelle2":"","acDateSerment":"","coordinates":[1.255053918672566,45.831007]},{"NomBarreau":"LIMOGES","avNom":"MONS-BARIAUD","avPrenom":"Elodie","cbRaisonSociale":"DAURIAC - PAULIAT-DEFAYE BOUCHERLE-MAGNE","cbSiretSiren":"778069575","cbAdresse1":"25 Boulevard Victor Hugo","cbAdresse2":"","cbCp":"87000","cbVille":"LIMOGES","spLibelle1":"","spLibelle2":"","acDateSerment":"","coordinates":[1.2546006,45.8306096]},{"NomBarreau":"LIMOGES","avNom":"MOREAU","avPrenom":"Emilie","cbRaisonSociale":"MOREAU EMILIE","cbSiretSiren":"","cbAdresse1":"2 RUE BROUSSEAU","cbAdresse2":"","cbCp":"87000","cbVille":"LIMOGES","spLibelle1":"","spLibelle2":"","acDateSerment":"","coordinates":[1.2533586,45.8321352]},{"NomBarreau":"LIMOGES","avNom":"MOREAU","avPrenom":"Lise-Nadine","cbRaisonSociale":"MOREAU LISE-NADINE","cbSiretSiren":"421964768","cbAdresse1":"14 rue Bernard Palissy","cbAdresse2":"","cbCp":"87000","cbVille":"LIMOGES","spLibelle1":"","spLibelle2":"","acDateSerment":"","coordinates":[1.2520302,45.8338445]},{"NomBarreau":"LIMOGES","avNom":"NGUYEN","avPrenom":"Nicolas","cbRaisonSociale":"NGUYEN NICOLAS","cbSiretSiren":"531925378","cbAdresse1":"3 RUE DES ARGENTIERS","cbAdresse2":"","cbCp":"87000","cbVille":"LIMOGES","spLibelle1":"","spLibelle2":"","acDateSerment":"","coordinates":[1.2545972,45.8279343]},{"NomBarreau":"LIMOGES","avNom":"NOGARET","avPrenom":"Marine","cbRaisonSociale":"NOGARET MARINE","cbSiretSiren":"804314839","cbAdresse1":"3 RUE DES ARGENTIERS","cbAdresse2":"","cbCp":"87000","cbVille":"LIMOGES","spLibelle1":"","spLibelle2":"","acDateSerment":"","coordinates":[1.2545972,45.8279343]},{"NomBarreau":"LIMOGES","avNom":"NOUAILHER","avPrenom":"Sophie","cbRaisonSociale":"NOUAILHER SOPHIE","cbSiretSiren":"809061286","cbAdresse1":"58 boulevard GAMBETTA","cbAdresse2":"","cbCp":"87000","cbVille":"LIMOGES","spLibelle1":"","spLibelle2":"","acDateSerment":"","coordinates":[1.2550991,45.8296248]},{"NomBarreau":"LIMOGES","avNom":"OLIVE","avPrenom":"Frédéric","cbRaisonSociale":"OLIVE FREDERIC","cbSiretSiren":"380745380","cbAdresse1":"24 rue du Colonel IMFELD","cbAdresse2":"","cbCp":"87100","cbVille":"LIMOGES","spLibelle1":"","spLibelle2":"","acDateSerment":"","coordinates":[1.2618266,45.8513498]},{"NomBarreau":"LIMOGES","avNom":"OUANGARI","avPrenom":"Sarah","cbRaisonSociale":"MALABRE & OUANGARI AVOCATS","cbSiretSiren":"910371574","cbAdresse1":"6 PLACE STALINGRAD","cbAdresse2":"","cbCp":"87000","cbVille":"LIMOGES","spLibelle1":"","spLibelle2":"","acDateSerment":"","coordinates":[1.2588568,45.832854]},{"NomBarreau":"LIMOGES","avNom":"OUDJEDI","avPrenom":"Amélie","cbRaisonSociale":"SELARL OUDJEDI - RAYNAUD PELAUDEIX","cbSiretSiren":"912553591","cbAdresse1":"24 Avenue FOUCAUD","cbAdresse2":"","cbCp":"87000","cbVille":"LIMOGES","spLibelle1":"","spLibelle2":"","acDateSerment":"","coordinates":[1.2514544,45.8299202]},{"NomBarreau":"LIMOGES","avNom":"PAGNOU","avPrenom":"Sandrine","cbRaisonSociale":"PAGNOU SANDRINE","cbSiretSiren":"415170166","cbAdresse1":"25 BOULEVARD VICTOR HUGO","cbAdresse2":"","cbCp":"87000","cbVille":"LIMOGES","spLibelle1":"","spLibelle2":"","acDateSerment":"","coordinates":[1.2546006,45.8306096]},{"NomBarreau":"LIMOGES","avNom":"PASCAL","avPrenom":"Audrey","cbRaisonSociale":"PASCAL AUDREY","cbSiretSiren":"817538507","cbAdresse1":"24 COURS JOURDAN","cbAdresse2":"","cbCp":"87000","cbVille":"LIMOGES","spLibelle1":"","spLibelle2":"","acDateSerment":"","coordinates":[1.2643734,45.8338101]},{"NomBarreau":"LIMOGES","avNom":"PASTAUD","avPrenom":"Philippe","cbRaisonSociale":"SELARL PASTAUD - WILD PASTAUD - ASTIER","cbSiretSiren":"844898387","cbAdresse1":"75 BOULEVARD GAMBETTA","cbAdresse2":"","cbCp":"87000","cbVille":"LIMOGES","spLibelle1":"","spLibelle2":"","acDateSerment":"","coordinates":[1.2550991,45.8296248]},{"NomBarreau":"LIMOGES","avNom":"PAULIAT-DEFAYE","avPrenom":"Philippe","cbRaisonSociale":"PAULIAT-DEFAYE PHILIPPE","cbSiretSiren":"","cbAdresse1":"25 BOULEVARD VICTOR HUGO","cbAdresse2":"","cbCp":"87000","cbVille":"LIMOGES","spLibelle1":"Droit immobilier","spLibelle2":"Droit public","acDateSerment":"","coordinates":[1.2546006,45.8306096]},{"NomBarreau":"LIMOGES","avNom":"PECAUD","avPrenom":"Olivier","cbRaisonSociale":"SELARL DEMOSTHENE","cbSiretSiren":"853706562","cbAdresse1":"17 PLACE CHURCHILL","cbAdresse2":"","cbCp":"87000","cbVille":"LIMOGES","spLibelle1":"","spLibelle2":"","acDateSerment":"","coordinates":[1.2532429,45.8310553]},{"NomBarreau":"LIMOGES","avNom":"PEREZ","avPrenom":"Frédéric","cbRaisonSociale":"SELARL AJURIS CONSEILS","cbSiretSiren":"803646041","cbAdresse1":"45 rue Turgot","cbAdresse2":"","cbCp":"87000","cbVille":"LIMOGES","spLibelle1":"Droit fiscal et droit douanier","spLibelle2":"","acDateSerment":"","coordinates":[1.255053918672566,45.831007]},{"NomBarreau":"LIMOGES","avNom":"PEUDUPIN","avPrenom":"Aurélie","cbRaisonSociale":"PEUDUPIN AURELIE","cbSiretSiren":"803089846","cbAdresse1":"17 rue de la MAUVENDIERE","cbAdresse2":"","cbCp":"87000","cbVille":"LIMOGES","spLibelle1":"","spLibelle2":"","acDateSerment":"","coordinates":[1.2504485,45.8322584]},{"NomBarreau":"LIMOGES","avNom":"PEYCLET","avPrenom":"Sarah","cbRaisonSociale":"PEYCLET SARAH","cbSiretSiren":"417639275","cbAdresse1":"75 Boulevard Gambetta","cbAdresse2":"","cbCp":"87000","cbVille":"LIMOGES","spLibelle1":"","spLibelle2":"","acDateSerment":"","coordinates":[1.2550991,45.8296248]},{"NomBarreau":"LIMOGES","avNom":"PEYER","avPrenom":"Florence","cbRaisonSociale":"SELARL CDES CONSEIL","cbSiretSiren":"523555951","cbAdresse1":"5 Avenue des Ruchoux","cbAdresse2":"","cbCp":"87000","cbVille":"LIMOGES","spLibelle1":"Droit du sport","spLibelle2":"","acDateSerment":"","coordinates":[1.2470582,45.8340704]},{"NomBarreau":"LIMOGES","avNom":"PION","avPrenom":"Perrine","cbRaisonSociale":"PION PERRINE","cbSiretSiren":"845021849","cbAdresse1":"6 rue RAYMOND COURAUD","cbAdresse2":"","cbCp":"87000","cbVille":"LIMOGES","spLibelle1":"","spLibelle2":"","acDateSerment":"","coordinates":[1.2544992,45.8306414]},{"NomBarreau":"LIMOGES","avNom":"PLAS","avPrenom":"Mathieu","cbRaisonSociale":"PLAS MATHIEU","cbSiretSiren":"480461979","cbAdresse1":"7 TER RUE DE LA MAUVENDIERE","cbAdresse2":"","cbCp":"87000","cbVille":"LIMOGES","spLibelle1":"","spLibelle2":"","acDateSerment":"","coordinates":[1.2504485,45.8322584]},{"NomBarreau":"LIMOGES","avNom":"PLEINEVERT","avPrenom":"Abel-Henri","cbRaisonSociale":"PLEINEVERT DOMINIQUE PLEINEVERT ABEL-HENRI","cbSiretSiren":"343717179","cbAdresse1":"1 rue Brousseau","cbAdresse2":"","cbCp":"87000","cbVille":"LIMOGES","spLibelle1":"Droit du travail","spLibelle2":"Droit pénal","acDateSerment":"","coordinates":[1.2533586,45.8321352]},{"NomBarreau":"LIMOGES","avNom":"PLEINEVERT","avPrenom":"Dominique","cbRaisonSociale":"PLEINEVERT DOMINIQUE PLEINEVERT ABEL-HENRI","cbSiretSiren":"343717179","cbAdresse1":"1 rue Brousseau","cbAdresse2":"","cbCp":"87000","cbVille":"LIMOGES","spLibelle1":"Droit de la famille, des personnes et de leur patrimoine","spLibelle2":"Droit du dommage corporel","acDateSerment":"","coordinates":[1.2533586,45.8321352]},{"NomBarreau":"LIMOGES","avNom":"PREGUIMBEAU","avPrenom":"Nathalie","cbRaisonSociale":"SELARL AEGIS","cbSiretSiren":"501918650","cbAdresse1":"61 Boulevard Gambetta","cbAdresse2":"","cbCp":"87000","cbVille":"LIMOGES","spLibelle1":"","spLibelle2":"","acDateSerment":"","coordinates":[1.2550991,45.8296248]},{"NomBarreau":"LIMOGES","avNom":"RAYNAL","avPrenom":"Emmanuel","cbRaisonSociale":"RAYNAL-DASSE","cbSiretSiren":"523793230","cbAdresse1":"14 rue Bernard Palissy","cbAdresse2":"","cbCp":"87000","cbVille":"LIMOGES","spLibelle1":"","spLibelle2":"","acDateSerment":"","coordinates":[1.2520302,45.8338445]},{"NomBarreau":"LIMOGES","avNom":"RAYNAUD-PELAUDEIX","avPrenom":"Anna","cbRaisonSociale":"SELARL OUDJEDI - RAYNAUD PELAUDEIX","cbSiretSiren":"912553591","cbAdresse1":"24 Avenue FOUCAUD","cbAdresse2":"","cbCp":"87000","cbVille":"LIMOGES","spLibelle1":"","spLibelle2":"","acDateSerment":"","coordinates":[1.2514544,45.8299202]},{"NomBarreau":"LIMOGES","avNom":"REIX","avPrenom":"Julien","cbRaisonSociale":"SELARL JULIEN REIX","cbSiretSiren":"907951578","cbAdresse1":"36 boulevard GAMBETTA","cbAdresse2":"","cbCp":"87000","cbVille":"LIMOGES","spLibelle1":"","spLibelle2":"","acDateSerment":"","coordinates":[1.2550991,45.8296248]},{"NomBarreau":"LIMOGES","avNom":"RIBIERE-DELAGE","avPrenom":"Nathalie","cbRaisonSociale":"SELARL CARMES CONSEILS","cbSiretSiren":"844360560","cbAdresse1":"67 boulevard GAMBETTA","cbAdresse2":"","cbCp":"87000","cbVille":"LIMOGES","spLibelle1":"","spLibelle2":"","acDateSerment":"","coordinates":[1.2552939,45.8291558]},{"NomBarreau":"LIMOGES","avNom":"ROBERT","avPrenom":"Corinne","cbRaisonSociale":"SELARL CORINNE ROBERT","cbSiretSiren":"901575928","cbAdresse1":"19-21 boulevard Victor HUGO","cbAdresse2":"","cbCp":"87000","cbVille":"LIMOGES","spLibelle1":"","spLibelle2":"","acDateSerment":"","coordinates":[1.2546006,45.8306096]},{"NomBarreau":"LIMOGES","avNom":"ROMAND","avPrenom":"Jean-Christophe","cbRaisonSociale":"ROMAND JEAN-CHRISTOPHE","cbSiretSiren":"390097905","cbAdresse1":"20 rue de la Mauvendiere","cbAdresse2":"","cbCp":"87000","cbVille":"LIMOGES","spLibelle1":"","spLibelle2":"","acDateSerment":"","coordinates":[1.2504485,45.8322584]},{"NomBarreau":"LIMOGES","avNom":"ROSAS","avPrenom":"Sylvie","cbRaisonSociale":"ROSAS SYLVIE","cbSiretSiren":"451814834","cbAdresse1":"75 BOULEVARD GAMBETTA","cbAdresse2":"","cbCp":"87000","cbVille":"LIMOGES","spLibelle1":"","spLibelle2":"","acDateSerment":"","coordinates":[1.2550991,45.8296248]},{"NomBarreau":"LIMOGES","avNom":"ROSSIN-BOISSEAU","avPrenom":"Marion","cbRaisonSociale":"SELARL JURILIM","cbSiretSiren":"912555224","cbAdresse1":"15 rue de la Reynie","cbAdresse2":"","cbCp":"87000","cbVille":"LIMOGES","spLibelle1":"","spLibelle2":"","acDateSerment":"","coordinates":[1.2495352,45.833443]},{"NomBarreau":"LIMOGES","avNom":"ROUX","avPrenom":"Emilie","cbRaisonSociale":"SELARL VERGER-MORLHIGHEM ET ASSOCIES","cbSiretSiren":"834097404","cbAdresse1":"2 RUE BROUSSEAU","cbAdresse2":"","cbCp":"87000","cbVille":"LIMOGES","spLibelle1":"","spLibelle2":"","acDateSerment":"","coordinates":[1.2533586,45.8321352]},{"NomBarreau":"LIMOGES","avNom":"ROUX","avPrenom":"Virginie","cbRaisonSociale":"ROUX VIRGINIE","cbSiretSiren":"451723035","cbAdresse1":"7 place d'Aine","cbAdresse2":"","cbCp":"87000","cbVille":"LIMOGES","spLibelle1":"","spLibelle2":"","acDateSerment":"","coordinates":[1.2547973,45.8297634]},{"NomBarreau":"LIMOGES","avNom":"SENAMAUD","avPrenom":"Marie-Laure","cbRaisonSociale":"SELARL AUTEF-FETIS & SENAMAUD","cbSiretSiren":"834116022","cbAdresse1":"2 RUE BROUSSEAU","cbAdresse2":"","cbCp":"87000","cbVille":"LIMOGES","spLibelle1":"","spLibelle2":"","acDateSerment":"","coordinates":[1.2533586,45.8321352]},{"NomBarreau":"LIMOGES","avNom":"SISSOKO","avPrenom":"Aminata","cbRaisonSociale":"SISSOKO AMINATA","cbSiretSiren":"","cbAdresse1":"24 Avenue FOUCAUD","cbAdresse2":"","cbCp":"87000","cbVille":"LIMOGES","spLibelle1":"","spLibelle2":"","acDateSerment":"","coordinates":[1.2514544,45.8299202]},{"NomBarreau":"LIMOGES","avNom":"SOLTNER","avPrenom":"Raphael","cbRaisonSociale":"SELARL SOLTNER-MARTIN","cbSiretSiren":"803858901","cbAdresse1":"24 Avenue Foucaud","cbAdresse2":"","cbCp":"87000","cbVille":"LIMOGES","spLibelle1":"","spLibelle2":"","acDateSerment":"","coordinates":[1.2514544,45.8299202]},{"NomBarreau":"LIMOGES","avNom":"SORIA","avPrenom":"Azilis","cbRaisonSociale":"SORIA AZILIS","cbSiretSiren":"890145980","cbAdresse1":"25 Rue Hubert Curien","cbAdresse2":"","cbCp":"87038","cbVille":"limoges","spLibelle1":"","spLibelle2":"","acDateSerment":"","coordinates":[1.2715243,45.8096922]},{"NomBarreau":"LIMOGES","avNom":"TABARAUD","avPrenom":"Emilie","cbRaisonSociale":"TER AVOCATS","cbSiretSiren":"848547709","cbAdresse1":"5 boulevard VICTOR HUGO","cbAdresse2":"","cbCp":"87000","cbVille":"LIMOGES","spLibelle1":"","spLibelle2":"","acDateSerment":"","coordinates":[1.2546006,45.8306096]},{"NomBarreau":"LIMOGES","avNom":"TAYEB-BEY","avPrenom":"Chérifa","cbRaisonSociale":"TAYEB-BEY CHERFA","cbSiretSiren":"892638693","cbAdresse1":"81 Bd Gambetta","cbAdresse2":"","cbCp":"87000","cbVille":"LIMOGES","spLibelle1":"","spLibelle2":"","acDateSerment":"","coordinates":[1.2549031,45.8297095]},{"NomBarreau":"LIMOGES","avNom":"TERRIEN","avPrenom":"Celine","cbRaisonSociale":"TERRIEN CELINE","cbSiretSiren":"521274159","cbAdresse1":"7 TER rue de la MAUVENDIERE","cbAdresse2":"","cbCp":"87000","cbVille":"LIMOGES","spLibelle1":"","spLibelle2":"","acDateSerment":"","coordinates":[1.2504485,45.8322584]},{"NomBarreau":"LIMOGES","avNom":"TIERNEY-HANCOCK","avPrenom":"Camilla","cbRaisonSociale":"TIERNEY-HANCOCK CAMILLA","cbSiretSiren":"818293623","cbAdresse1":"24 Avenue FOUCAUD","cbAdresse2":"","cbCp":"87000","cbVille":"LIMOGES","spLibelle1":"","spLibelle2":"","acDateSerment":"","coordinates":[1.2514544,45.8299202]},{"NomBarreau":"LIMOGES","avNom":"TOULOUSE","avPrenom":"Arnaud","cbRaisonSociale":"SELARL AVOC'ARENES","cbSiretSiren":"834338873","cbAdresse1":"25 RUE DES ARENES","cbAdresse2":"","cbCp":"87000","cbVille":"LIMOGES","spLibelle1":"","spLibelle2":"","acDateSerment":"","coordinates":[1.2532376,45.8298103]},{"NomBarreau":"LIMOGES","avNom":"TREHONDAT-LE HECH","avPrenom":"Océane","cbRaisonSociale":"TREHONDAT-LE HECH OCEANE","cbSiretSiren":"879980837","cbAdresse1":"75 BOULEVARD GAMBETTA","cbAdresse2":"","cbCp":"87000","cbVille":"LIMOGES","spLibelle1":"","spLibelle2":"","acDateSerment":"","coordinates":[1.2550991,45.8296248]},{"NomBarreau":"LIMOGES","avNom":"TURPIN","avPrenom":"Anne-Sophie","cbRaisonSociale":"TURPIN ANNE-SOPHIE","cbSiretSiren":"447713025","cbAdresse1":"14 rue Bernard Palissy","cbAdresse2":"","cbCp":"87000","cbVille":"LIMOGES","spLibelle1":"","spLibelle2":"","acDateSerment":"","coordinates":[1.2520302,45.8338445]},{"NomBarreau":"LIMOGES","avNom":"VALADE","avPrenom":"Florence","cbRaisonSociale":"VALADE FLORENCE","cbSiretSiren":"808653505","cbAdresse1":"28 Avenue du Midi","cbAdresse2":"","cbCp":"87000","cbVille":"LIMOGES","spLibelle1":"","spLibelle2":"","acDateSerment":"","coordinates":[1.2566716,45.8264276]},{"NomBarreau":"LIMOGES","avNom":"VALIERE-VIALEIX","avPrenom":"Jean","cbRaisonSociale":"SELARL ELIGE LIMOGES - CABINET VALIERE-VIALEIX","cbSiretSiren":"844877563","cbAdresse1":"75 BOULEVARD GAMBETTA","cbAdresse2":"","cbCp":"87000","cbVille":"LIMOGES","spLibelle1":"","spLibelle2":"","acDateSerment":"","coordinates":[1.2550991,45.8296248]},{"NomBarreau":"LIMOGES","avNom":"VALLERON","avPrenom":"Eric","cbRaisonSociale":"VALLERON ERIC","cbSiretSiren":"451719579","cbAdresse1":"13 BOULEVARD GAMBETTA","cbAdresse2":"","cbCp":"87000","cbVille":"LIMOGES","spLibelle1":"","spLibelle2":"","acDateSerment":"","coordinates":[1.2550991,45.8296248]},{"NomBarreau":"LIMOGES","avNom":"VANNIER","avPrenom":"Cristina","cbRaisonSociale":"SELARL CRISTINA VANNIER","cbSiretSiren":"922091483","cbAdresse1":"36 BOULEVARD GAMBETTA","cbAdresse2":"","cbCp":"87000","cbVille":"LIMOGES","spLibelle1":"","spLibelle2":"","acDateSerment":"","coordinates":[1.2550991,45.8296248]},{"NomBarreau":"LIMOGES","avNom":"VARIENGIEN","avPrenom":"Emma","cbRaisonSociale":"VARIENGIEN EMMA","cbSiretSiren":"844943415","cbAdresse1":"14 rue Bernard Palissy","cbAdresse2":"","cbCp":"87000","cbVille":"LIMOGES","spLibelle1":"","spLibelle2":"","acDateSerment":"","coordinates":[1.2520302,45.8338445]},{"NomBarreau":"LIMOGES","avNom":"VERGER","avPrenom":"Damien","cbRaisonSociale":"VERGER DAMIEN","cbSiretSiren":"844943407","cbAdresse1":"12 rue des Anglais","cbAdresse2":"BP 27","cbCp":"87000","cbVille":"LIMOGES","spLibelle1":"","spLibelle2":"","acDateSerment":"","coordinates":[1.2542824,45.8328106]},{"NomBarreau":"LIMOGES","avNom":"VERGNE","avPrenom":"Florent","cbRaisonSociale":"VERGNE FLORENT","cbSiretSiren":"847785433","cbAdresse1":"45 rue Turgot","cbAdresse2":"","cbCp":"87000","cbVille":"LIMOGES","spLibelle1":"","spLibelle2":"","acDateSerment":"","coordinates":[1.255053918672566,45.831007]},{"NomBarreau":"LIMOGES","avNom":"VEYRIRAS","avPrenom":"Catalina","cbRaisonSociale":"VEYRIRAS CATALINA","cbSiretSiren":"825352313","cbAdresse1":"75 boulevard Gambetta","cbAdresse2":"","cbCp":"87000","cbVille":"LIMOGES","spLibelle1":"","spLibelle2":"","acDateSerment":"","coordinates":[1.2550991,45.8296248]},{"NomBarreau":"LIMOGES","avNom":"VILLETTE","avPrenom":"Bertrand","cbRaisonSociale":"DUBOIS DUDOGNON VILLETTE","cbSiretSiren":"487680605","cbAdresse1":"6 rue RAYMOND COURAUD","cbAdresse2":"","cbCp":"87000","cbVille":"LIMOGES","spLibelle1":"","spLibelle2":"","acDateSerment":"","coordinates":[1.2544992,45.8306414]},{"NomBarreau":"LIMOGES","avNom":"WERNER LOMINE","avPrenom":"Véronique","cbRaisonSociale":"WERNER-LOMINE VERONIQUE","cbSiretSiren":"394266837","cbAdresse1":"22 avenue FOUCAUD","cbAdresse2":"","cbCp":"87000","cbVille":"LIMOGES","spLibelle1":"","spLibelle2":"","acDateSerment":"","coordinates":[1.2514544,45.8299202]},{"NomBarreau":"LIMOGES","avNom":"WILD-PASTAUD","avPrenom":"Amélie","cbRaisonSociale":"SELARL PASTAUD - WILD PASTAUD - ASTIER","cbSiretSiren":"844898387","cbAdresse1":"75 BOULEVARD GAMBETTA","cbAdresse2":"","cbCp":"87000","cbVille":"LIMOGES","spLibelle1":"","spLibelle2":"","acDateSerment":"","coordinates":[1.2550991,45.8296248]},{"NomBarreau":"LIMOGES","avNom":"ZBORALA","avPrenom":"Anthony","cbRaisonSociale":"AZ AVOCAT","cbSiretSiren":"920334380","cbAdresse1":"3 rue des Argentiers","cbAdresse2":"","cbCp":"87000","cbVille":"LIMOGES","spLibelle1":"","spLibelle2":"","acDateSerment":"","coordinates":[1.2545972,45.8279343]}]