[{"NomBarreau":"SEINE-SAINT-DENIS","avNom":"BARREAU","avPrenom":"Sabrina","cbRaisonSociale":"BARREAU","cbSiretSiren":"538824921","cbAdresse1":"125 Avenue Aristide Briand","cbAdresse2":"","cbCp":"93190","cbVille":"LIVRY GARGAN","spLibelle1":"Droit de la famille, des personnes et de leur patrimoine","spLibelle2":"","acDateSerment":"","coordinates":[2.5268503,48.9144232]},{"NomBarreau":"SEINE-SAINT-DENIS","avNom":"BOUCHOU","avPrenom":"Djilali","cbRaisonSociale":"BOUCHOU","cbSiretSiren":"838862456","cbAdresse1":"59 Boulevard Jean Moulin","cbAdresse2":"","cbCp":"93190","cbVille":"LIVRY GARGAN","spLibelle1":"","spLibelle2":"","acDateSerment":"","coordinates":[2.5154998,48.9137422]},{"NomBarreau":"SEINE-SAINT-DENIS","avNom":"CHABAUTY","avPrenom":"Stéphanie","cbRaisonSociale":"CHABAUTY","cbSiretSiren":"384642856","cbAdresse1":"3 Boulevard de l'Europe","cbAdresse2":"","cbCp":"93190","cbVille":"LIVRY GARGAN","spLibelle1":"","spLibelle2":"","acDateSerment":"","coordinates":[2.547757,48.9246568]},{"NomBarreau":"SEINE-SAINT-DENIS","avNom":"CHELLAL","avPrenom":"Samira","cbRaisonSociale":"CHELLAL","cbSiretSiren":"804270882","cbAdresse1":"3 Boulevard de l'Europe","cbAdresse2":"","cbCp":"93190","cbVille":"LIVRY GARGAN","spLibelle1":"","spLibelle2":"","acDateSerment":"","coordinates":[2.547757,48.9246568]},{"NomBarreau":"SEINE-SAINT-DENIS","avNom":"COURIER","avPrenom":"Anais","cbRaisonSociale":"COURIER","cbSiretSiren":"847738341","cbAdresse1":"3 Boulevard de l'Europe","cbAdresse2":"","cbCp":"93190","cbVille":"LIVRY GARGAN","spLibelle1":"","spLibelle2":"","acDateSerment":"","coordinates":[2.547757,48.9246568]},{"NomBarreau":"SEINE-SAINT-DENIS","avNom":"DAHMANI","avPrenom":"Ajer","cbRaisonSociale":"DAHMANI MOHSENZADEGAN","cbSiretSiren":"895052074","cbAdresse1":"59 Boulevard Jean Moulin","cbAdresse2":"","cbCp":"93190","cbVille":"LIVRY GARGAN","spLibelle1":"","spLibelle2":"","acDateSerment":"","coordinates":[2.5154998,48.9137422]},{"NomBarreau":"SEINE-SAINT-DENIS","avNom":"DESTAING","avPrenom":"Sylvie","cbRaisonSociale":"DESTAING","cbSiretSiren":"381717438","cbAdresse1":"3 Boulevard de l'EUROPE","cbAdresse2":"","cbCp":"93190","cbVille":"LIVRY GARGAN","spLibelle1":"","spLibelle2":"","acDateSerment":"","coordinates":[2.547757,48.9246568]},{"NomBarreau":"SEINE-SAINT-DENIS","avNom":"LINOSSIER","avPrenom":"Laetitia","cbRaisonSociale":"LINOSSIER","cbSiretSiren":"807995758","cbAdresse1":"3 Boulevard de l'Europe","cbAdresse2":"","cbCp":"93190","cbVille":"LIVRY GARGAN","spLibelle1":"","spLibelle2":"","acDateSerment":"","coordinates":[2.547757,48.9246568]},{"NomBarreau":"SEINE-SAINT-DENIS","avNom":"MOHSENZADEGAN","avPrenom":"Sanam","cbRaisonSociale":"DAHMANI MOHSENZADEGAN","cbSiretSiren":"895052074","cbAdresse1":"59 Boulevard Jean Moulin","cbAdresse2":"","cbCp":"93190","cbVille":"LIVRY GARGAN","spLibelle1":"","spLibelle2":"","acDateSerment":"","coordinates":[2.5154998,48.9137422]},{"NomBarreau":"SEINE-SAINT-DENIS","avNom":"RICHARD","avPrenom":"Régis","cbRaisonSociale":"RICHARD","cbSiretSiren":"324236819","cbAdresse1":"23 Avenue Vauban","cbAdresse2":"","cbCp":"93190","cbVille":"LIVRY GARGAN","spLibelle1":"","spLibelle2":"","acDateSerment":"","coordinates":[2.5221722,48.9167076]},{"NomBarreau":"SEINE-SAINT-DENIS","avNom":"SMAIL","avPrenom":"Nadia","cbRaisonSociale":"SMAIL","cbSiretSiren":"538910928","cbAdresse1":"93 Avenue Montesquieu","cbAdresse2":"","cbCp":"93190","cbVille":"LIVRY GARGAN","spLibelle1":"","spLibelle2":"","acDateSerment":"","coordinates":[2.5316682,48.9244396]},{"NomBarreau":"SEINE-SAINT-DENIS","avNom":"TOSCANI","avPrenom":"Lydia","cbRaisonSociale":"TOSCANI","cbSiretSiren":"488416900","cbAdresse1":"3 Boulevard de l'Europe","cbAdresse2":"","cbCp":"93190","cbVille":"LIVRY GARGAN","spLibelle1":"","spLibelle2":"","acDateSerment":"","coordinates":[2.547757,48.9246568]}]