[{"NomBarreau":"JURA","avNom":"BILLAUDEL","avPrenom":"Stéphane","cbRaisonSociale":"FAVOULET - BILLAUDEL - DODANE","cbSiretSiren":"348568411","cbAdresse1":"190 avenue de la Marseillaise","cbAdresse2":"","cbCp":"39000","cbVille":"LONS LE SAUNIER","spLibelle1":"","spLibelle2":"","acDateSerment":"","coordinates":[5.5570927,46.6727066]},{"NomBarreau":"JURA","avNom":"BON","avPrenom":"Céline","cbRaisonSociale":"BON CELINE","cbSiretSiren":"878850031","cbAdresse1":"21 avenue Jean Moulin","cbAdresse2":"","cbCp":"39000","cbVille":"LONS LE SAUNIER","spLibelle1":"","spLibelle2":"","acDateSerment":"","coordinates":[5.5562118,46.6729393]},{"NomBarreau":"JURA","avNom":"COMTE","avPrenom":"Claire","cbRaisonSociale":"COMTE","cbSiretSiren":"509575734","cbAdresse1":"1 Avenue Aristide Briand","cbAdresse2":"","cbCp":"39000","cbVille":"LONS LE SAUNIER","spLibelle1":"","spLibelle2":"","acDateSerment":"","coordinates":[5.5514231,46.6731665]},{"NomBarreau":"JURA","avNom":"DEGOURNAY","avPrenom":"Aurélie","cbRaisonSociale":"AGIS AVOCATS","cbSiretSiren":"822848487","cbAdresse1":"19 Rue Jean Moulin","cbAdresse2":"","cbCp":"39000","cbVille":"LONS LE SAUNIER","spLibelle1":"","spLibelle2":"","acDateSerment":"","coordinates":[5.9022622,46.749965]},{"NomBarreau":"JURA","avNom":"DODANE","avPrenom":"Quentin","cbRaisonSociale":"FAVOULET - BILLAUDEL - DODANE","cbSiretSiren":"348568411","cbAdresse1":"190 avenue de la Marseillaise","cbAdresse2":"","cbCp":"39000","cbVille":"LONS LE SAUNIER","spLibelle1":"","spLibelle2":"","acDateSerment":"","coordinates":[5.5570927,46.6727066]},{"NomBarreau":"JURA","avNom":"EGLOFF","avPrenom":"Brigitte","cbRaisonSociale":"EGLOFF BRIGITTE","cbSiretSiren":"394604524","cbAdresse1":"316 rue Regard","cbAdresse2":"","cbCp":"39000","cbVille":"LONS LE SAUNIER","spLibelle1":"","spLibelle2":"","acDateSerment":"","coordinates":[5.5483671,46.6751989]},{"NomBarreau":"JURA","avNom":"FAVOULET","avPrenom":"Jean-Pierre","cbRaisonSociale":"FAVOULET - BILLAUDEL - DODANE","cbSiretSiren":"348568411","cbAdresse1":"190 avenue de la Marseillaise","cbAdresse2":"","cbCp":"39000","cbVille":"LONS LE SAUNIER","spLibelle1":"Droit commercial, des affaires et de la concurrence","spLibelle2":"Droit du travail","acDateSerment":"","coordinates":[5.5570927,46.6727066]},{"NomBarreau":"JURA","avNom":"GEERSSEN","avPrenom":"Constance","cbRaisonSociale":"GEERSSEN CONSTANCE","cbSiretSiren":"880769781","cbAdresse1":"3 rue Pasteur","cbAdresse2":"","cbCp":"39000","cbVille":"LONS LE SAUNIER","spLibelle1":"","spLibelle2":"","acDateSerment":"","coordinates":[5.5554858,46.6735521]},{"NomBarreau":"JURA","avNom":"GEORGEON","avPrenom":"Amandine","cbRaisonSociale":"FAILLENET-ELVEZI & GEORGEON","cbSiretSiren":"825293301","cbAdresse1":"320 rue Georges Trouillot","cbAdresse2":"","cbCp":"39000","cbVille":"LONS LE SAUNIER","spLibelle1":"","spLibelle2":"","acDateSerment":"","coordinates":[5.5563922,46.6790614]},{"NomBarreau":"JURA","avNom":"GONIN","avPrenom":"Laurent","cbRaisonSociale":"GONIN","cbSiretSiren":"511507717","cbAdresse1":"13 rue de Pavigny","cbAdresse2":"","cbCp":"39000","cbVille":"LONS LE SAUNIER","spLibelle1":"","spLibelle2":"","acDateSerment":"","coordinates":[5.560632146098405,46.6712183]},{"NomBarreau":"JURA","avNom":"GOY LETONDOR","avPrenom":"Hélène","cbRaisonSociale":"LETONDOR - GOY LETONDOR - MAIROT","cbSiretSiren":"320926330","cbAdresse1":"3 rue Pasteur","cbAdresse2":"","cbCp":"39000","cbVille":"LONS LE SAUNIER","spLibelle1":"Droit de la famille, des personnes et de leur patrimoine","spLibelle2":"","acDateSerment":"","coordinates":[5.5554858,46.6735521]},{"NomBarreau":"JURA","avNom":"HELOU","avPrenom":"Sylvie","cbRaisonSociale":"HELOU","cbSiretSiren":"385221221","cbAdresse1":"17 avenue Jean Moulin","cbAdresse2":"","cbCp":"39000","cbVille":"LONS LE SAUNIER","spLibelle1":"Droit commercial, des affaires et de la concurrence","spLibelle2":"Droit des sociétés","acDateSerment":"","coordinates":[5.5565565,46.6729652]},{"NomBarreau":"JURA","avNom":"KINDELBERGER","avPrenom":"Sara","cbRaisonSociale":"KINDELBERGER SARA","cbSiretSiren":"882225964","cbAdresse1":"3 rue du Colonel Mahon","cbAdresse2":"","cbCp":"39000","cbVille":"LONS LE SAUNIER","spLibelle1":"","spLibelle2":"","acDateSerment":"","coordinates":[5.5482271,46.6736965]},{"NomBarreau":"JURA","avNom":"LANCERY","avPrenom":"Dominique","cbRaisonSociale":"LANCERY","cbSiretSiren":"423158468","cbAdresse1":"1 Avenue Aristide Briand","cbAdresse2":"","cbCp":"39000","cbVille":"LONS LE SAUNIER","spLibelle1":"","spLibelle2":"","acDateSerment":"","coordinates":[5.5514231,46.6731665]},{"NomBarreau":"JURA","avNom":"LASSAUGE","avPrenom":"Boris","cbRaisonSociale":"SENTINELLE AVOCATS","cbSiretSiren":"423857721","cbAdresse1":"39 avenue Jean Moulin","cbAdresse2":"","cbCp":"39000","cbVille":"LONS LE SAUNIER","spLibelle1":"","spLibelle2":"","acDateSerment":"","coordinates":[5.5553025,46.6729558]},{"NomBarreau":"JURA","avNom":"LE GOFF","avPrenom":"Marie-Laure","cbRaisonSociale":"LE GOFF","cbSiretSiren":"400619128","cbAdresse1":"13 rue de Pavigny","cbAdresse2":"","cbCp":"39000","cbVille":"LONS LE SAUNIER","spLibelle1":"","spLibelle2":"","acDateSerment":"","coordinates":[5.560632146098405,46.6712183]},{"NomBarreau":"JURA","avNom":"LETONDOR","avPrenom":"Jean-Marie","cbRaisonSociale":"LETONDOR - GOY LETONDOR - MAIROT","cbSiretSiren":"320926330","cbAdresse1":"3 rue Pasteur","cbAdresse2":"","cbCp":"39000","cbVille":"LONS LE SAUNIER","spLibelle1":"","spLibelle2":"","acDateSerment":"","coordinates":[5.5554858,46.6735521]},{"NomBarreau":"JURA","avNom":"LOMBARDOT","avPrenom":"Carole","cbRaisonSociale":"LOMBARDOT","cbSiretSiren":"424990380","cbAdresse1":"5 avenue Jean Moulin","cbAdresse2":"","cbCp":"39000","cbVille":"LONS LE SAUNIER","spLibelle1":"","spLibelle2":"","acDateSerment":"","coordinates":[5.5579221,46.6729628]},{"NomBarreau":"JURA","avNom":"LOMBARDOT","avPrenom":"Virginie","cbRaisonSociale":"LOMBARDOT VIRGINIE","cbSiretSiren":"919770065","cbAdresse1":"190 avenue de la Marseillaise","cbAdresse2":"","cbCp":"39000","cbVille":"LONS LE SAUNIER","spLibelle1":"","spLibelle2":"","acDateSerment":"","coordinates":[5.5570927,46.6727066]},{"NomBarreau":"JURA","avNom":"MAILLOT","avPrenom":"Alexandre","cbRaisonSociale":"MAILLOT - VIGNERON","cbSiretSiren":"489404368","cbAdresse1":"21 avenue Jean Moulin","cbAdresse2":"","cbCp":"39000","cbVille":"LONS LE SAUNIER","spLibelle1":"","spLibelle2":"","acDateSerment":"","coordinates":[5.5562118,46.6729393]},{"NomBarreau":"JURA","avNom":"MAIROT","avPrenom":"Adrien","cbRaisonSociale":"LETONDOR - GOY LETONDOR - MAIROT","cbSiretSiren":"320926330","cbAdresse1":"3 rue Pasteur","cbAdresse2":"","cbCp":"39000","cbVille":"LONS LE SAUNIER","spLibelle1":"","spLibelle2":"","acDateSerment":"","coordinates":[5.5554858,46.6735521]},{"NomBarreau":"JURA","avNom":"MARRAUD DES GROTTES","avPrenom":"Benjamin","cbRaisonSociale":"MARRAUD DES GROTTES","cbSiretSiren":"480306745","cbAdresse1":"29 Avenue Jean Moulin","cbAdresse2":"","cbCp":"39000","cbVille":"LONS LE SAUNIER","spLibelle1":"","spLibelle2":"","acDateSerment":"","coordinates":[5.5557847,46.6729566]},{"NomBarreau":"JURA","avNom":"MORAND","avPrenom":"André","cbRaisonSociale":"MORAND","cbSiretSiren":"404132441","cbAdresse1":"25 avenue Jean Moulin","cbAdresse2":"","cbCp":"39000","cbVille":"LONS LE SAUNIER","spLibelle1":"","spLibelle2":"","acDateSerment":"","coordinates":[5.5559807,46.6729597]},{"NomBarreau":"JURA","avNom":"NARJOZ DELATOUR","avPrenom":"Jean-Philippe","cbRaisonSociale":"JURIS FRANCHE-COMTE","cbSiretSiren":"398875211","cbAdresse1":"13 rue de Pavigny","cbAdresse2":"","cbCp":"39000","cbVille":"LONS LE SAUNIER","spLibelle1":"","spLibelle2":"","acDateSerment":"","coordinates":[5.560632146098405,46.6712183]},{"NomBarreau":"JURA","avNom":"REMOND","avPrenom":"Jean-Yves","cbRaisonSociale":"REMOND JEAN YVES","cbSiretSiren":"381225234","cbAdresse1":"3 rue du Colonel Mahon","cbAdresse2":"","cbCp":"39000","cbVille":"LONS LE SAUNIER","spLibelle1":"","spLibelle2":"","acDateSerment":"","coordinates":[5.5482271,46.6736965]},{"NomBarreau":"JURA","avNom":"ROLAND","avPrenom":"Fabrice","cbRaisonSociale":"FABRICE ROLAND AVOCATS","cbSiretSiren":"839836236","cbAdresse1":"13 rue Louis Rousseau","cbAdresse2":"","cbCp":"39000","cbVille":"LONS LE SAUNIER","spLibelle1":"Droit de la sécurité sociale et de la protection sociale","spLibelle2":"Droit du travail","acDateSerment":"","coordinates":[5.5579074,46.6715331]},{"NomBarreau":"JURA","avNom":"SAULNIER","avPrenom":"Laurence","cbRaisonSociale":"SAULNIER","cbSiretSiren":"405210451","cbAdresse1":"5 avenue Jean Moulin","cbAdresse2":"","cbCp":"39000","cbVille":"LONS LE SAUNIER","spLibelle1":"","spLibelle2":"","acDateSerment":"","coordinates":[5.5579221,46.6729628]},{"NomBarreau":"JURA","avNom":"VIGNERON","avPrenom":"Anne","cbRaisonSociale":"MAILLOT - VIGNERON","cbSiretSiren":"489404368","cbAdresse1":"21 avenue Jean Moulin","cbAdresse2":"","cbCp":"39000","cbVille":"LONS LE SAUNIER","spLibelle1":"","spLibelle2":"","acDateSerment":"","coordinates":[5.5562118,46.6729393]}]