[{"NomBarreau":"MARSEILLE","avNom":"PINEL","avPrenom":"Christophe","cbRaisonSociale":"PINEL CHRISTOPHE","cbSiretSiren":"379401565","cbAdresse1":"40 rue montgrand","cbAdresse2":"","cbCp":"13006","cbVille":"MARSEILLE","spLibelle1":"","spLibelle2":"","acDateSerment":"","coordinates":[5.3776205,43.291469]},{"NomBarreau":"MARSEILLE","avNom":"PINNELLI-CHARRIER","avPrenom":"Catherine","cbRaisonSociale":"PINNELLI-CHARRIER","cbSiretSiren":"352217319","cbAdresse1":"42 rue Sainte","cbAdresse2":"","cbCp":"13001","cbVille":"MARSEILLE","spLibelle1":"Droit de la famille, des personnes et de leur patrimoine","spLibelle2":"Droit immobilier","acDateSerment":"","coordinates":[5.374259,43.2923133]},{"NomBarreau":"MARSEILLE","avNom":"PINTURIER-POLACCI","avPrenom":"Jérome","cbRaisonSociale":"PINTURIER-POLACCI JEROME","cbSiretSiren":"381725076","cbAdresse1":"14 rue Fortia","cbAdresse2":"","cbCp":"13001","cbVille":"MARSEILLE","spLibelle1":"","spLibelle2":"","acDateSerment":"","coordinates":[5.3735583,43.2931011]},{"NomBarreau":"MARSEILLE","avNom":"PION","avPrenom":"Cécile","cbRaisonSociale":"GOBERT & ASSOCIES","cbSiretSiren":"499051886","cbAdresse1":"32 Rue Grignan","cbAdresse2":"","cbCp":"13001","cbVille":"MARSEILLE","spLibelle1":"","spLibelle2":"","acDateSerment":"","coordinates":[5.377548,43.292339]},{"NomBarreau":"MARSEILLE","avNom":"PIPEROGLOU","avPrenom":"Nicolas","cbRaisonSociale":"PIPEROGLOU NICOLAS","cbSiretSiren":"880830492","cbAdresse1":"60 Bd des Dames","cbAdresse2":"","cbCp":"13002","cbVille":"MARSEILLE","spLibelle1":"","spLibelle2":"","acDateSerment":"","coordinates":[5.3700526,43.3024822]},{"NomBarreau":"MARSEILLE","avNom":"PIQUET","avPrenom":"Marie","cbRaisonSociale":"PIQUET MARIE","cbSiretSiren":"909109407","cbAdresse1":"4 place Felix Baret","cbAdresse2":"","cbCp":"13006","cbVille":"MARSEILLE","spLibelle1":"","spLibelle2":"","acDateSerment":"","coordinates":[5.379070956057616,43.2913566]},{"NomBarreau":"MARSEILLE","avNom":"PIQUET","avPrenom":"Muriel","cbRaisonSociale":"PIQUET MURIEL","cbSiretSiren":"429709249","cbAdresse1":"2 rue edouard delanglade","cbAdresse2":"","cbCp":"13006","cbVille":"MARSEILLE","spLibelle1":"","spLibelle2":"","acDateSerment":"","coordinates":[5.3759631,43.2893892]},{"NomBarreau":"MARSEILLE","avNom":"PIRASTRU","avPrenom":"Evelyne","cbRaisonSociale":"PIRASTRU EVELYNE","cbSiretSiren":"489783621","cbAdresse1":"73 rue Saint Jacques","cbAdresse2":"","cbCp":"13006","cbVille":"MARSEILLE","spLibelle1":"","spLibelle2":"","acDateSerment":"","coordinates":[5.3770724,43.2880781]},{"NomBarreau":"MARSEILLE","avNom":"PIRO","avPrenom":"André","cbRaisonSociale":"PIRO ANDRE","cbSiretSiren":"482238730","cbAdresse1":"2 rue Odette Jasse","cbAdresse2":"","cbCp":"13015","cbVille":"MARSEILLE","spLibelle1":"","spLibelle2":"","acDateSerment":"","coordinates":[5.3708808,43.3429259]},{"NomBarreau":"MARSEILLE","avNom":"PITIOT","avPrenom":"Fabienne","cbRaisonSociale":"PITIOT FABIENNE","cbSiretSiren":"749912341","cbAdresse1":"67 rue de Rome","cbAdresse2":"","cbCp":"13001","cbVille":"MARSEILLE","spLibelle1":"","spLibelle2":"","acDateSerment":"","coordinates":[5.3795249,43.2934036]},{"NomBarreau":"MARSEILLE","avNom":"PITON","avPrenom":"Marion","cbRaisonSociale":"PITON MARION","cbSiretSiren":"488557802","cbAdresse1":"4 place felix baret","cbAdresse2":"","cbCp":"13006","cbVille":"MARSEILLE","spLibelle1":"","spLibelle2":"","acDateSerment":"","coordinates":[5.379070956057616,43.2913566]},{"NomBarreau":"MARSEILLE","avNom":"PITTALIS","avPrenom":"Anne-Laure","cbRaisonSociale":"AVOCATS JURIS CONSEIL","cbSiretSiren":"69801082","cbAdresse1":"23 rue sylvabelle","cbAdresse2":"","cbCp":"13006","cbVille":"MARSEILLE","spLibelle1":"","spLibelle2":"","acDateSerment":"","coordinates":[5.3802746,43.2896126]},{"NomBarreau":"MARSEILLE","avNom":"PIZARRO","avPrenom":"Xavier","cbRaisonSociale":"PIZARRO XAVIER","cbSiretSiren":"847578598","cbAdresse1":"15 cours Joseph Thierry","cbAdresse2":"","cbCp":"13001","cbVille":"MARSEILLE","spLibelle1":"","spLibelle2":"","acDateSerment":"","coordinates":[5.3862328,43.3006297]},{"NomBarreau":"MARSEILLE","avNom":"PLANCHE","avPrenom":"Aurélia","cbRaisonSociale":"PLANCHE AURELIA","cbSiretSiren":"847786985","cbAdresse1":"444 rue Paradis","cbAdresse2":"","cbCp":"13008","cbVille":"MARSEILLE","spLibelle1":"","spLibelle2":"","acDateSerment":"","coordinates":[5.3868028,43.269916]},{"NomBarreau":"MARSEILLE","avNom":"PLANTIN","avPrenom":"Aurélie","cbRaisonSociale":"PLANTIN AURELIE","cbSiretSiren":"817927932","cbAdresse1":"13/15 rue Roux de Brignoles","cbAdresse2":"","cbCp":"13006","cbVille":"MARSEILLE","spLibelle1":"","spLibelle2":"","acDateSerment":"","coordinates":[5.3745328,43.2895446]},{"NomBarreau":"MARSEILLE","avNom":"PODA","avPrenom":"Baimanai Angelain","cbRaisonSociale":"PODA BAIMANAI ANGELAIN","cbSiretSiren":"817895998","cbAdresse1":"90 RUE DE ROME","cbAdresse2":"","cbCp":"13006","cbVille":"MARSEILLE","spLibelle1":"","spLibelle2":"","acDateSerment":"","coordinates":[5.3803884,43.2917317]},{"NomBarreau":"MARSEILLE","avNom":"POINSO-POURTAL","avPrenom":"Marie-Dominique","cbRaisonSociale":"POINSO POURTAL - VILLATTE DE PEUFEILHOUX","cbSiretSiren":"910894153","cbAdresse1":"1 rue Montgrand","cbAdresse2":"","cbCp":"13006","cbVille":"MARSEILLE","spLibelle1":"","spLibelle2":"","acDateSerment":"","coordinates":[5.3776205,43.291469]},{"NomBarreau":"MARSEILLE","avNom":"POISOT","avPrenom":"Marilou","cbRaisonSociale":"POISOT  MARILOU","cbSiretSiren":"948032933","cbAdresse1":"12 rue Breteuil","cbAdresse2":"","cbCp":"13001","cbVille":"MARSEILLE","spLibelle1":"","spLibelle2":"","acDateSerment":"","coordinates":[5.3749879,43.2921816]},{"NomBarreau":"MARSEILLE","avNom":"POITEVIN","avPrenom":"Gaetan","cbRaisonSociale":"POITEVIN GAETAN","cbSiretSiren":"809586100","cbAdresse1":"66 rue grignan","cbAdresse2":"","cbCp":"13001","cbVille":"MARSEILLE","spLibelle1":"","spLibelle2":"","acDateSerment":"","coordinates":[5.3749743,43.2917319]},{"NomBarreau":"MARSEILLE","avNom":"POLETTI","avPrenom":"Lionel","cbRaisonSociale":"POLETTI LIONEL","cbSiretSiren":"383198835","cbAdresse1":"126 boulevard Bara","cbAdresse2":"Zone Héliopolis II","cbCp":"13013","cbVille":"MARSEILLE","spLibelle1":"","spLibelle2":"","acDateSerment":"","coordinates":[5.4508354,43.346969]},{"NomBarreau":"MARSEILLE","avNom":"POLSKI","avPrenom":"Jonathan","cbRaisonSociale":"SCP BRAUNSTEIN & ASSOCIES","cbSiretSiren":"348723362","cbAdresse1":"16 Rue Breteuil","cbAdresse2":"","cbCp":"13001","cbVille":"MARSEILLE","spLibelle1":"","spLibelle2":"","acDateSerment":"","coordinates":[5.3750594,43.292007]},{"NomBarreau":"MARSEILLE","avNom":"PONCELET","avPrenom":"Zoé","cbRaisonSociale":"PONCELET ZOE","cbSiretSiren":"817677495","cbAdresse1":"127 rue de Rome","cbAdresse2":"","cbCp":"13006","cbVille":"MARSEILLE","spLibelle1":"","spLibelle2":"","acDateSerment":"","coordinates":[5.3816495,43.2898767]},{"NomBarreau":"MARSEILLE","avNom":"PONS","avPrenom":"Christophe","cbRaisonSociale":"PONS CHRISTOPHE","cbSiretSiren":"451944342","cbAdresse1":"488 rue paradis","cbAdresse2":"","cbCp":"13008","cbVille":"MARSEILLE","spLibelle1":"","spLibelle2":"","acDateSerment":"","coordinates":[5.3868028,43.269916]},{"NomBarreau":"MARSEILLE","avNom":"PONTHIEU","avPrenom":"François","cbRaisonSociale":"PONTHIEU AVOCAT","cbSiretSiren":"823469135","cbAdresse1":"301 avenue du prado","cbAdresse2":"","cbCp":"13008","cbVille":"MARSEILLE","spLibelle1":"","spLibelle2":"","acDateSerment":"","coordinates":[5.3908981,43.2717793]},{"NomBarreau":"MARSEILLE","avNom":"PONTIER","avPrenom":"Sylvain","cbRaisonSociale":"ABEILLE & ASSOCIES","cbSiretSiren":"453617193","cbAdresse1":"13 cours pierre puget","cbAdresse2":"","cbCp":"13006","cbVille":"MARSEILLE","spLibelle1":"Droit public","spLibelle2":"","acDateSerment":"","coordinates":[5.373849,43.2902405]},{"NomBarreau":"MARSEILLE","avNom":"PONTIER DE VALON","avPrenom":"Catherine","cbRaisonSociale":"DE VALON / PONTIER DE VALON","cbSiretSiren":"487444275","cbAdresse1":"12 rue Edmond Rostand","cbAdresse2":"","cbCp":"13006","cbVille":"MARSEILLE","spLibelle1":"","spLibelle2":"","acDateSerment":"","coordinates":[5.3806855,43.2874178]},{"NomBarreau":"MARSEILLE","avNom":"PONTILLO","avPrenom":"François","cbRaisonSociale":"PONTILLO FRANCOIS","cbSiretSiren":"814621900","cbAdresse1":"57 rue Paradis","cbAdresse2":"","cbCp":"13006","cbVille":"MARSEILLE","spLibelle1":"","spLibelle2":"","acDateSerment":"","coordinates":[5.3775471,43.2917892]},{"NomBarreau":"MARSEILLE","avNom":"PONTILLO","avPrenom":"Olivia","cbRaisonSociale":"PONTILLO OLIVIA","cbSiretSiren":"447471673","cbAdresse1":"57 RUE PARADIS","cbAdresse2":"","cbCp":"13006","cbVille":"MARSEILLE","spLibelle1":"","spLibelle2":"","acDateSerment":"","coordinates":[5.3775471,43.2917892]},{"NomBarreau":"MARSEILLE","avNom":"PONZIO","avPrenom":"Camille","cbRaisonSociale":"PONZIO CAMILLE","cbSiretSiren":"827902768","cbAdresse1":"3 Bd  de louvain","cbAdresse2":"","cbCp":"13008","cbVille":"MARSEILLE","spLibelle1":"","spLibelle2":"","acDateSerment":"","coordinates":[5.3904343,43.2763824]},{"NomBarreau":"MARSEILLE","avNom":"PORIN","avPrenom":"Cedric","cbRaisonSociale":"PORIN CEDRIC","cbSiretSiren":"492967062","cbAdresse1":"135 rue paradis","cbAdresse2":"","cbCp":"13006","cbVille":"MARSEILLE","spLibelle1":"","spLibelle2":"","acDateSerment":"","coordinates":[5.3792034,43.2878843]},{"NomBarreau":"MARSEILLE","avNom":"PORRU","avPrenom":"Audrey","cbRaisonSociale":"PORRU AUDREY","cbSiretSiren":"847528817","cbAdresse1":"2 Rue Grignan","cbAdresse2":"","cbCp":"13001","cbVille":"MARSEILLE","spLibelle1":"","spLibelle2":"","acDateSerment":"","coordinates":[5.3795436,43.2928093]},{"NomBarreau":"MARSEILLE","avNom":"PORTAL","avPrenom":"Béatrice","cbRaisonSociale":"PORTAL BEATRICE","cbSiretSiren":"335065413","cbAdresse1":"34 RUE BRETEUIL","cbAdresse2":"","cbCp":"13006","cbVille":"MARSEILLE","spLibelle1":"","spLibelle2":"","acDateSerment":"","coordinates":[5.3760234,43.2896523]},{"NomBarreau":"MARSEILLE","avNom":"PORTALIS","avPrenom":"Melanie","cbRaisonSociale":"PORTALIS MELANIE","cbSiretSiren":"880287511","cbAdresse1":"29 cours Pierre Puget","cbAdresse2":"","cbCp":"13006","cbVille":"MARSEILLE","spLibelle1":"","spLibelle2":"","acDateSerment":"","coordinates":[5.373849,43.2902405]},{"NomBarreau":"MARSEILLE","avNom":"PORTEHAULT","avPrenom":"Aude","cbRaisonSociale":"PORTEHAULT AUDE","cbSiretSiren":"800171472","cbAdresse1":"32 RUE GRIGNAN","cbAdresse2":"","cbCp":"13001","cbVille":"MARSEILLE","spLibelle1":"","spLibelle2":"","acDateSerment":"","coordinates":[5.377548,43.292339]},{"NomBarreau":"MARSEILLE","avNom":"PORTIER","avPrenom":"Hadrien","cbRaisonSociale":"PORTIER HADRIEN","cbSiretSiren":"838673747","cbAdresse1":"1 rue jules isaac","cbAdresse2":"","cbCp":"13009","cbVille":"MARSEILLE","spLibelle1":"","spLibelle2":"","acDateSerment":"","coordinates":[5.4012998,43.2513359]},{"NomBarreau":"MARSEILLE","avNom":"POSTEL-VINAY","avPrenom":"Marie","cbRaisonSociale":"POSTEL-VINAY MARIE","cbSiretSiren":"817722960","cbAdresse1":"43-45 rue breteuil","cbAdresse2":"","cbCp":"13006","cbVille":"MARSEILLE","spLibelle1":"","spLibelle2":"","acDateSerment":"","coordinates":[5.3758106,43.2903364]},{"NomBarreau":"MARSEILLE","avNom":"POTIER","avPrenom":"Olivier","cbRaisonSociale":"POTIER OLIVIER","cbSiretSiren":"908903222","cbAdresse1":"46 Rue saint jacques","cbAdresse2":"","cbCp":"13006","cbVille":"MARSEILLE","spLibelle1":"","spLibelle2":"","acDateSerment":"","coordinates":[5.3777745,43.288335]},{"NomBarreau":"MARSEILLE","avNom":"POUILLAUDE","avPrenom":"Jérome","cbRaisonSociale":"POUILLAUDE JEROME","cbSiretSiren":"790224752","cbAdresse1":"64 rue Sainte","cbAdresse2":"","cbCp":"13001","cbVille":"MARSEILLE","spLibelle1":"","spLibelle2":"","acDateSerment":"","coordinates":[5.3724735,43.2919012]},{"NomBarreau":"MARSEILLE","avNom":"POULAIN","avPrenom":"Axel","cbRaisonSociale":"POULAIN AXEL","cbSiretSiren":"481366474","cbAdresse1":"10 rue Montaigne","cbAdresse2":"","cbCp":"13012","cbVille":"MARSEILLE","spLibelle1":"","spLibelle2":"","acDateSerment":"","coordinates":[5.4183434,43.3038915]},{"NomBarreau":"MARSEILLE","avNom":"POULARD","avPrenom":"Thomas","cbRaisonSociale":"CAMILLE MIALOT AVOCAT","cbSiretSiren":"803657980","cbAdresse1":"15 rue Fortia","cbAdresse2":"","cbCp":"13001","cbVille":"MARSEILLE","spLibelle1":"Droit public","spLibelle2":"","acDateSerment":"","coordinates":[5.3741603,43.2920196]},{"NomBarreau":"MARSEILLE","avNom":"POURCIN","avPrenom":"Adeline","cbRaisonSociale":"ADELINE POURCIN AVOCAT","cbSiretSiren":"894554591","cbAdresse1":"2 rue Edouard Delanglade","cbAdresse2":"","cbCp":"13006","cbVille":"MARSEILLE","spLibelle1":"","spLibelle2":"","acDateSerment":"","coordinates":[5.3759631,43.2893892]},{"NomBarreau":"MARSEILLE","avNom":"POURREYRON","avPrenom":"Charlotte","cbRaisonSociale":"POURREYRON CHARLOTTE","cbSiretSiren":"488861832","cbAdresse1":"25 Cours pierre puget","cbAdresse2":"","cbCp":"13006","cbVille":"MARSEILLE","spLibelle1":"","spLibelle2":"","acDateSerment":"","coordinates":[5.3734474,43.2900237]},{"NomBarreau":"MARSEILLE","avNom":"POURRIERE","avPrenom":"Frédéric","cbRaisonSociale":"SOCIETE D'AVOCATS MICHEL PEZET ET ASSOCIES","cbSiretSiren":"452481377","cbAdresse1":"66 rue Grignan","cbAdresse2":"","cbCp":"13001","cbVille":"MARSEILLE","spLibelle1":"","spLibelle2":"","acDateSerment":"","coordinates":[5.3749743,43.2917319]},{"NomBarreau":"MARSEILLE","avNom":"POURTAL","avPrenom":"Isabelle","cbRaisonSociale":"POURTAL ISABELLE","cbSiretSiren":"353271471","cbAdresse1":"21 cours Pierre Puget","cbAdresse2":"","cbCp":"13006","cbVille":"MARSEILLE","spLibelle1":"","spLibelle2":"","acDateSerment":"","coordinates":[5.3734474,43.2900237]},{"NomBarreau":"MARSEILLE","avNom":"PRENTCZYNSKI","avPrenom":"Alice","cbRaisonSociale":"PRENTCZYNSKI ALICE","cbSiretSiren":"904656188","cbAdresse1":"7 rue Bel Air","cbAdresse2":"","cbCp":"13006","cbVille":"MARSEILLE","spLibelle1":"","spLibelle2":"","acDateSerment":"","coordinates":[5.3823994,43.2895604]},{"NomBarreau":"MARSEILLE","avNom":"PRUŠTRE","avPrenom":"Céline","cbRaisonSociale":"PRUŠTRE  CELINE","cbSiretSiren":"825276942","cbAdresse1":"35 rue Michel Gachet","cbAdresse2":"","cbCp":"13007","cbVille":"MARSEILLE","spLibelle1":"","spLibelle2":"","acDateSerment":"","coordinates":[5.3620084,43.2836995]},{"NomBarreau":"MARSEILLE","avNom":"PREVOST","avPrenom":"Yann","cbRaisonSociale":"PREVOST & ASSOCIES","cbSiretSiren":"833418551","cbAdresse1":"19 rue de la Paix Marcel Paul","cbAdresse2":"","cbCp":"13001","cbVille":"MARSEILLE","spLibelle1":"","spLibelle2":"","acDateSerment":"","coordinates":[5.372608,43.2929117]},{"NomBarreau":"MARSEILLE","avNom":"PREZIOSI","avPrenom":"Jacques-Antoine","cbRaisonSociale":"PREZIOSI CECCALDI ALBENOIS","cbSiretSiren":"441705738","cbAdresse1":"171 BIS Chemin de la Madrague-ville","cbAdresse2":"","cbCp":"13002","cbVille":"MARSEILLE","spLibelle1":"","spLibelle2":"","acDateSerment":"","coordinates":[5.3632066,43.3236863]},{"NomBarreau":"MARSEILLE","avNom":"PRIAMI","avPrenom":"Sacha","cbRaisonSociale":"PRIAMI SACHA","cbSiretSiren":"","cbAdresse1":"43-45 rue breteuil","cbAdresse2":"","cbCp":"13006","cbVille":"MARSEILLE","spLibelle1":"","spLibelle2":"","acDateSerment":"","coordinates":[5.3758106,43.2903364]},{"NomBarreau":"MARSEILLE","avNom":"PRIEUR","avPrenom":"Cyril","cbRaisonSociale":"PRIEUR CYRIL","cbSiretSiren":"825057425","cbAdresse1":"20 rue montgrand","cbAdresse2":"","cbCp":"13006","cbVille":"MARSEILLE","spLibelle1":"","spLibelle2":"","acDateSerment":"","coordinates":[5.3776205,43.291469]},{"NomBarreau":"MARSEILLE","avNom":"PRIEUR","avPrenom":"Danièle","cbRaisonSociale":"ONE","cbSiretSiren":"493362792","cbAdresse1":"1 Place Felix Baret","cbAdresse2":"","cbCp":"13006","cbVille":"MARSEILLE","spLibelle1":"","spLibelle2":"","acDateSerment":"","coordinates":[5.379532551369564,43.29133385]},{"NomBarreau":"MARSEILLE","avNom":"PRIMA","avPrenom":"Marie-Hélène","cbRaisonSociale":"PRIMA MARIE-HELENE","cbSiretSiren":"378211692","cbAdresse1":"40 rue sainte","cbAdresse2":"","cbCp":"13001","cbVille":"MARSEILLE","spLibelle1":"","spLibelle2":"","acDateSerment":"","coordinates":[5.374394,43.2923449]},{"NomBarreau":"MARSEILLE","avNom":"PRIOUX","avPrenom":"Martin","cbRaisonSociale":"PRIOUX MARTIN","cbSiretSiren":"833468697","cbAdresse1":"5 rue Grignan","cbAdresse2":"","cbCp":"13006","cbVille":"MARSEILLE","spLibelle1":"","spLibelle2":"","acDateSerment":"","coordinates":[5.3766265,43.2920719]},{"NomBarreau":"MARSEILLE","avNom":"PROCIDA","avPrenom":"Cécile","cbRaisonSociale":"PROCIDA CECILE","cbSiretSiren":"488679093","cbAdresse1":"19 rue Neuve Sainte Catherine","cbAdresse2":"Le Phoénicia Batiment A","cbCp":"13007","cbVille":"MARSEILLE","spLibelle1":"","spLibelle2":"","acDateSerment":"","coordinates":[5.369266003818644,43.29201925]},{"NomBarreau":"MARSEILLE","avNom":"PROSPERI-SAHAGUIAN","avPrenom":"Sandrine","cbRaisonSociale":"PROSPERI-SAHAGUIAN SANDRINE","cbSiretSiren":"413724204","cbAdresse1":"42 rue Paradis","cbAdresse2":"","cbCp":"13001","cbVille":"MARSEILLE","spLibelle1":"","spLibelle2":"","acDateSerment":"","coordinates":[5.3770572,43.2927949]},{"NomBarreau":"MARSEILLE","avNom":"PROVENCAL","avPrenom":"Magali","cbRaisonSociale":"CHASSANY WATRELOT ET ASSOCIES","cbSiretSiren":"353560063","cbAdresse1":"1 Place Felix Baret","cbAdresse2":"","cbCp":"13006","cbVille":"MARSEILLE","spLibelle1":"","spLibelle2":"","acDateSerment":"","coordinates":[5.379532551369564,43.29133385]},{"NomBarreau":"MARSEILLE","avNom":"PUIGRENIER","avPrenom":"Sarah","cbRaisonSociale":"A&P ASSOCIES","cbSiretSiren":"840274609","cbAdresse1":"23 cours Pierre Puget","cbAdresse2":"","cbCp":"13006","cbVille":"MARSEILLE","spLibelle1":"","spLibelle2":"","acDateSerment":"","coordinates":[5.3734474,43.2900237]},{"NomBarreau":"MARSEILLE","avNom":"PUJOL","avPrenom":"Alice","cbRaisonSociale":"PUJOL ALICE","cbSiretSiren":"834734147","cbAdresse1":"43 rue montgrand","cbAdresse2":"","cbCp":"13006","cbVille":"MARSEILLE","spLibelle1":"","spLibelle2":"","acDateSerment":"","coordinates":[5.3758338,43.2910315]},{"NomBarreau":"MARSEILLE","avNom":"PUVENEL","avPrenom":"Jocelyne","cbRaisonSociale":"PUVENEL JOCELYNE","cbSiretSiren":"383223203","cbAdresse1":"90 rue de Rome","cbAdresse2":"","cbCp":"13006","cbVille":"MARSEILLE","spLibelle1":"","spLibelle2":"","acDateSerment":"","coordinates":[5.3803884,43.2917317]},{"NomBarreau":"MARSEILLE","avNom":"QUERUB","avPrenom":"Eglantine","cbRaisonSociale":"QUERUB EGLANTINE","cbSiretSiren":"799986559","cbAdresse1":"67 rue Breteuil","cbAdresse2":"","cbCp":"13006","cbVille":"MARSEILLE","spLibelle1":"","spLibelle2":"","acDateSerment":"","coordinates":[5.3763147,43.2892393]},{"NomBarreau":"MARSEILLE","avNom":"QUINSON","avPrenom":"Laurie","cbRaisonSociale":"QUINSON LAURIE","cbSiretSiren":"529748493","cbAdresse1":"41 boulevard Paul Peytral","cbAdresse2":"","cbCp":"13006","cbVille":"MARSEILLE","spLibelle1":"","spLibelle2":"","acDateSerment":"","coordinates":[5.3796251,43.290433]},{"NomBarreau":"MARSEILLE","avNom":"RACHLIN","avPrenom":"Frédéric","cbRaisonSociale":"RACHLIN FREDERIC","cbSiretSiren":"411185465","cbAdresse1":"1 rue Montgrand","cbAdresse2":"","cbCp":"13006","cbVille":"MARSEILLE","spLibelle1":"","spLibelle2":"","acDateSerment":"","coordinates":[5.3776205,43.291469]},{"NomBarreau":"MARSEILLE","avNom":"RACINE","avPrenom":"Rémi","cbRaisonSociale":"RACINE REMI","cbSiretSiren":"834622078","cbAdresse1":"42 rue Montgrand","cbAdresse2":"","cbCp":"13006","cbVille":"MARSEILLE","spLibelle1":"","spLibelle2":"","acDateSerment":"","coordinates":[5.3776205,43.291469]},{"NomBarreau":"MARSEILLE","avNom":"RADIUS","avPrenom":"Marion","cbRaisonSociale":"RADIUS MARION","cbSiretSiren":"797912995","cbAdresse1":"35 rue Saint Jacques","cbAdresse2":"","cbCp":"13006","cbVille":"MARSEILLE","spLibelle1":"","spLibelle2":"","acDateSerment":"","coordinates":[5.3796427,43.2887757]},{"NomBarreau":"MARSEILLE","avNom":"RAIDY-LORMANT","avPrenom":"Anne","cbRaisonSociale":"RAIDY-LORMANT ANNE","cbSiretSiren":"493423396","cbAdresse1":"35 rue Saint Jacques","cbAdresse2":"","cbCp":"13006","cbVille":"MARSEILLE","spLibelle1":"","spLibelle2":"","acDateSerment":"","coordinates":[5.3796427,43.2887757]},{"NomBarreau":"MARSEILLE","avNom":"RALLO","avPrenom":"Benjamin","cbRaisonSociale":"RALLO BENJAMIN","cbSiretSiren":"809006802","cbAdresse1":"8 rue Falque","cbAdresse2":"","cbCp":"13006","cbVille":"MARSEILLE","spLibelle1":"","spLibelle2":"","acDateSerment":"","coordinates":[5.3834171,43.284543]},{"NomBarreau":"MARSEILLE","avNom":"RAMBALDI","avPrenom":"Jérome","cbRaisonSociale":"RAMBALDI JEROME","cbSiretSiren":"410903751","cbAdresse1":"12 rue stanislas torrents","cbAdresse2":"","cbCp":"13006","cbVille":"MARSEILLE","spLibelle1":"","spLibelle2":"","acDateSerment":"","coordinates":[5.3790088,43.286346]},{"NomBarreau":"MARSEILLE","avNom":"RAMBIER","avPrenom":"Marion","cbRaisonSociale":"RAMBIER MARION","cbSiretSiren":"520414996","cbAdresse1":"16 cours Pierre Puget","cbAdresse2":"","cbCp":"13006","cbVille":"MARSEILLE","spLibelle1":"","spLibelle2":"","acDateSerment":"","coordinates":[5.373849,43.2902405]},{"NomBarreau":"MARSEILLE","avNom":"RAMIREZ","avPrenom":"Dominique","cbRaisonSociale":"RAMIREZ DOMINIQUE","cbSiretSiren":"445408883","cbAdresse1":"27 rue paradis","cbAdresse2":"","cbCp":"13001","cbVille":"MARSEILLE","spLibelle1":"","spLibelle2":"","acDateSerment":"","coordinates":[5.3770572,43.2927949]},{"NomBarreau":"MARSEILLE","avNom":"RAMOS","avPrenom":"Bernadette","cbRaisonSociale":"RAMOS CONSEIL","cbSiretSiren":"440611382","cbAdresse1":"20 Rue Montgrand","cbAdresse2":"","cbCp":"13006","cbVille":"MARSEILLE","spLibelle1":"","spLibelle2":"","acDateSerment":"","coordinates":[5.3776205,43.291469]},{"NomBarreau":"MARSEILLE","avNom":"RAMOS","avPrenom":"Lisa","cbRaisonSociale":"RAMOS LISA","cbSiretSiren":"817677859","cbAdresse1":"16 rue Saint Jacques","cbAdresse2":"","cbCp":"13006","cbVille":"MARSEILLE","spLibelle1":"","spLibelle2":"","acDateSerment":"","coordinates":[5.3779425,43.288342]},{"NomBarreau":"MARSEILLE","avNom":"RAMOS-DARMENDRAIL","avPrenom":"Margaux","cbRaisonSociale":"RAMOS-DARMENDRAIL MARGAUX","cbSiretSiren":"","cbAdresse1":"43-45 rue Breteuil","cbAdresse2":"","cbCp":"13006","cbVille":"MARSEILLE","spLibelle1":"","spLibelle2":"","acDateSerment":"","coordinates":[5.3758106,43.2903364]},{"NomBarreau":"MARSEILLE","avNom":"RAMPAL","avPrenom":"Nathalie","cbRaisonSociale":"RAMPAL NATHALIE","cbSiretSiren":"385088091","cbAdresse1":"5 rue Grignan","cbAdresse2":"","cbCp":"13006","cbVille":"MARSEILLE","spLibelle1":"","spLibelle2":"","acDateSerment":"","coordinates":[5.3766265,43.2920719]},{"NomBarreau":"MARSEILLE","avNom":"RAMUZ","avPrenom":"Louis","cbRaisonSociale":"RAMUZ LOUIS","cbSiretSiren":"802292433","cbAdresse1":"24 COURS PIERRE PUGET","cbAdresse2":"","cbCp":"13006","cbVille":"MARSEILLE","spLibelle1":"","spLibelle2":"","acDateSerment":"","coordinates":[5.373849,43.2902405]},{"NomBarreau":"MARSEILLE","avNom":"RAOUX","avPrenom":"Nathalie","cbRaisonSociale":"RAOUX NATHALIE","cbSiretSiren":"407632330","cbAdresse1":"69 Rue Breteuil","cbAdresse2":"","cbCp":"13006","cbVille":"MARSEILLE","spLibelle1":"","spLibelle2":"","acDateSerment":"","coordinates":[5.3763814,43.2890737]},{"NomBarreau":"MARSEILLE","avNom":"RAPPA","avPrenom":"Marielle","cbRaisonSociale":"RAPPA MARIELLE","cbSiretSiren":"422013581","cbAdresse1":"67 rue breteuil","cbAdresse2":"","cbCp":"13006","cbVille":"MARSEILLE","spLibelle1":"","spLibelle2":"","acDateSerment":"","coordinates":[5.3763147,43.2892393]},{"NomBarreau":"MARSEILLE","avNom":"RATOUIT","avPrenom":"Lise Marie","cbRaisonSociale":"RATOUIT LISE MARIE","cbSiretSiren":"539175893","cbAdresse1":"27-29 rue grignan","cbAdresse2":"","cbCp":"13006","cbVille":"MARSEILLE","spLibelle1":"","spLibelle2":"","acDateSerment":"","coordinates":[5.3766265,43.2920719]},{"NomBarreau":"MARSEILLE","avNom":"RAULY","avPrenom":"Marine","cbRaisonSociale":"RAULY MARINE","cbSiretSiren":"","cbAdresse1":"24 cours Pierre Puget","cbAdresse2":"","cbCp":"13006","cbVille":"MARSEILLE","spLibelle1":"","spLibelle2":"","acDateSerment":"","coordinates":[5.373849,43.2902405]},{"NomBarreau":"MARSEILLE","avNom":"RAVIER","avPrenom":"Laetitia","cbRaisonSociale":"RAVIER LAETITIA","cbSiretSiren":"502627813","cbAdresse1":"35 rue Montgrand","cbAdresse2":"","cbCp":"13006","cbVille":"MARSEILLE","spLibelle1":"","spLibelle2":"","acDateSerment":"","coordinates":[5.3776205,43.291469]},{"NomBarreau":"MARSEILLE","avNom":"RAYBAUD GELINOT","avPrenom":"Flora","cbRaisonSociale":"RAYBAUD GELINOT FLORA","cbSiretSiren":"908808587","cbAdresse1":"68 boulevard de Saint Julien","cbAdresse2":"Saint Barnabé Faubourg","cbCp":"13012","cbVille":"MARSEILLE","spLibelle1":"","spLibelle2":"","acDateSerment":"","coordinates":[5.4364084,43.3147922]},{"NomBarreau":"MARSEILLE","avNom":"REBOUL","avPrenom":"Jean-Philippe","cbRaisonSociale":"CABINET BERENGER, BLANC, BURTEZ-DOUCEDE & ASSOCIES","cbSiretSiren":"324042787","cbAdresse1":"69 Rue Sainte","cbAdresse2":"","cbCp":"13001","cbVille":"MARSEILLE","spLibelle1":"","spLibelle2":"","acDateSerment":"","coordinates":[5.3723535,43.2917739]},{"NomBarreau":"MARSEILLE","avNom":"REBUFAT","avPrenom":"Denis","cbRaisonSociale":"CABINET DENIS REBUFAT & ASSOCIES","cbSiretSiren":"799063375","cbAdresse1":"6 cours Pierre Puget","cbAdresse2":"","cbCp":"13006","cbVille":"MARSEILLE","spLibelle1":"Droit commercial, des affaires et de la concurrence","spLibelle2":"Droit de la famille, des personnes et de leur patrimoine","acDateSerment":"","coordinates":[5.373849,43.2902405]},{"NomBarreau":"MARSEILLE","avNom":"REBUFAT","avPrenom":"Mathilde","cbRaisonSociale":"REBUFAT MATHILDE","cbSiretSiren":"818181281","cbAdresse1":"171 BIS Chemin de la Madrague-ville","cbAdresse2":"","cbCp":"13002","cbVille":"MARSEILLE","spLibelle1":"","spLibelle2":"","acDateSerment":"","coordinates":[5.3632066,43.3236863]},{"NomBarreau":"MARSEILLE","avNom":"REBUFAT","avPrenom":"Régis","cbRaisonSociale":"REBUFAT REGIS","cbSiretSiren":"318246428","cbAdresse1":"6 cours pierre puget","cbAdresse2":"","cbCp":"13006","cbVille":"MARSEILLE","spLibelle1":"","spLibelle2":"","acDateSerment":"","coordinates":[5.373849,43.2902405]},{"NomBarreau":"MARSEILLE","avNom":"REBUFAT-FRILET","avPrenom":"Geneviève","cbRaisonSociale":"REBUFAT-FRILET GENEVIEVE","cbSiretSiren":"402715320","cbAdresse1":"2 impasse Vermer","cbAdresse2":"","cbCp":"13007","cbVille":"MARSEILLE","spLibelle1":"Droit des garanties, des saretés et des mesures d'exécution","spLibelle2":"Droit immobilier","acDateSerment":"","coordinates":[5.3595192,43.2805166]},{"NomBarreau":"MARSEILLE","avNom":"REDE-TORT","avPrenom":"Anne Hélène","cbRaisonSociale":"REDE-TORT  ANNE HELENE","cbSiretSiren":"502266489","cbAdresse1":"63 rue Paradis","cbAdresse2":"","cbCp":"13006","cbVille":"MARSEILLE","spLibelle1":"","spLibelle2":"","acDateSerment":"","coordinates":[5.3776349,43.291585]},{"NomBarreau":"MARSEILLE","avNom":"REGADE","avPrenom":"Anais","cbRaisonSociale":"AMENC ANAIS","cbSiretSiren":"800051591","cbAdresse1":"66D rue Sainte","cbAdresse2":"","cbCp":"13001","cbVille":"MARSEILLE","spLibelle1":"","spLibelle2":"","acDateSerment":"","coordinates":[5.3730225,43.2919745]},{"NomBarreau":"MARSEILLE","avNom":"REISSER","avPrenom":"Pierre","cbRaisonSociale":"REISSER PIERRE","cbSiretSiren":"947996575","cbAdresse1":"4 place Sadi Carnot","cbAdresse2":"4eme étage","cbCp":"13002","cbVille":"MARSEILLE","spLibelle1":"","spLibelle2":"","acDateSerment":"","coordinates":[5.3714872,43.2995326]},{"NomBarreau":"MARSEILLE","avNom":"REMUSAT","avPrenom":"Camille","cbRaisonSociale":"CRM AVOCATS","cbSiretSiren":"812457646","cbAdresse1":"54 cours pierre puget","cbAdresse2":"","cbCp":"13006","cbVille":"MARSEILLE","spLibelle1":"","spLibelle2":"","acDateSerment":"","coordinates":[5.372856534928409,43.29035865]},{"NomBarreau":"MARSEILLE","avNom":"REMUZAT","avPrenom":"Isabelle","cbRaisonSociale":"IRC SOCIETE D'AVOCATS","cbSiretSiren":"887921864","cbAdresse1":"38 rue Grignan","cbAdresse2":"","cbCp":"13006","cbVille":"MARSEILLE","spLibelle1":"","spLibelle2":"","acDateSerment":"","coordinates":[5.3766265,43.2920719]},{"NomBarreau":"MARSEILLE","avNom":"REMY","avPrenom":"Tiphaine","cbRaisonSociale":"REMY TIPHAINE","cbSiretSiren":"825377286","cbAdresse1":"16 rue Saint-Jacques","cbAdresse2":"","cbCp":"13006","cbVille":"MARSEILLE","spLibelle1":"","spLibelle2":"","acDateSerment":"","coordinates":[5.3779425,43.288342]},{"NomBarreau":"MARSEILLE","avNom":"RENARD","avPrenom":"Leopold","cbRaisonSociale":"SELARL RENARD & ASSOCIES","cbSiretSiren":"482866415","cbAdresse1":"27 Cours Pierre Puget","cbAdresse2":"","cbCp":"13006","cbVille":"MARSEILLE","spLibelle1":"","spLibelle2":"","acDateSerment":"","coordinates":[5.373849,43.2902405]},{"NomBarreau":"MARSEILLE","avNom":"RENAUD","avPrenom":"Coralie","cbRaisonSociale":"LEANDRI&ASSOCIES","cbSiretSiren":"784712259","cbAdresse1":"2 rue Lafon","cbAdresse2":"","cbCp":"13006","cbVille":"MARSEILLE","spLibelle1":"","spLibelle2":"","acDateSerment":"","coordinates":[5.3809887,43.2912099]},{"NomBarreau":"MARSEILLE","avNom":"RENOUX","avPrenom":"Valentin","cbRaisonSociale":"RENOUX VALENTIN","cbSiretSiren":"882537822","cbAdresse1":"38 rue Grignan","cbAdresse2":"","cbCp":"13001","cbVille":"MARSEILLE","spLibelle1":"","spLibelle2":"","acDateSerment":"","coordinates":[5.3766265,43.2920719]},{"NomBarreau":"MARSEILLE","avNom":"REQUIN","avPrenom":"Julie","cbRaisonSociale":"CABINET REQUIN","cbSiretSiren":"851478743","cbAdresse1":"18C rue Jules Moulet","cbAdresse2":"","cbCp":"13006","cbVille":"MARSEILLE","spLibelle1":"","spLibelle2":"","acDateSerment":"","coordinates":[5.3726472,43.2879051]},{"NomBarreau":"MARSEILLE","avNom":"REVEST","avPrenom":"Manon","cbRaisonSociale":"REVEST MANON","cbSiretSiren":"818178923","cbAdresse1":"48 Quai du lazaret","cbAdresse2":"le calypso","cbCp":"13002","cbVille":"MARSEILLE","spLibelle1":"","spLibelle2":"","acDateSerment":"","coordinates":[5.3655634,43.306115]},{"NomBarreau":"MARSEILLE","avNom":"REY","avPrenom":"Martin","cbRaisonSociale":"REY MARTIN","cbSiretSiren":"893747048","cbAdresse1":"66 D rue sainte","cbAdresse2":"","cbCp":"13001","cbVille":"MARSEILLE","spLibelle1":"","spLibelle2":"","acDateSerment":"","coordinates":[5.3730225,43.2919745]},{"NomBarreau":"MARSEILLE","avNom":"REYMOND","avPrenom":"Aurélie","cbRaisonSociale":"DUPIELET-REYMOND","cbSiretSiren":"815318498","cbAdresse1":"23-25 RUE GRIGNAN","cbAdresse2":"","cbCp":"13006","cbVille":"MARSEILLE","spLibelle1":"","spLibelle2":"","acDateSerment":"","coordinates":[5.3766265,43.2920719]},{"NomBarreau":"MARSEILLE","avNom":"REYNAUD","avPrenom":"Dominique","cbRaisonSociale":"REYNAUD DOMINIQUE","cbSiretSiren":"384379525","cbAdresse1":"146 rue Paradis","cbAdresse2":"","cbCp":"13006","cbVille":"MARSEILLE","spLibelle1":"Droit fiscal et droit douanier","spLibelle2":"","acDateSerment":"","coordinates":[5.3794026,43.2867734]},{"NomBarreau":"MARSEILLE","avNom":"REYNAUD","avPrenom":"Elodie","cbRaisonSociale":"AVOCATS JURIS CONSEIL","cbSiretSiren":"69801082","cbAdresse1":"23 rue sylvabelle","cbAdresse2":"","cbCp":"13006","cbVille":"MARSEILLE","spLibelle1":"","spLibelle2":"","acDateSerment":"","coordinates":[5.3802746,43.2896126]},{"NomBarreau":"MARSEILLE","avNom":"REYNAUD","avPrenom":"Virgile","cbRaisonSociale":"REYNAUD VIRGILE","cbSiretSiren":"488583444","cbAdresse1":"71 bd oddo","cbAdresse2":"","cbCp":"13015","cbVille":"MARSEILLE","spLibelle1":"","spLibelle2":"","acDateSerment":"","coordinates":[5.3622914,43.3283792]},{"NomBarreau":"MARSEILLE","avNom":"REYNE","avPrenom":"Alexis","cbRaisonSociale":"AVOCATIA","cbSiretSiren":"838256642","cbAdresse1":"23/25 rue Edmond Rostand","cbAdresse2":"","cbCp":"13006","cbVille":"MARSEILLE","spLibelle1":"","spLibelle2":"","acDateSerment":"","coordinates":[5.3806855,43.2874178]},{"NomBarreau":"MARSEILLE","avNom":"REYNE","avPrenom":"Michel","cbRaisonSociale":"REYNE AVOCATS","cbSiretSiren":"318673175","cbAdresse1":"23-25 rue Edmond Rostand","cbAdresse2":"","cbCp":"13006","cbVille":"MARSEILLE","spLibelle1":"Droit des sociétés","spLibelle2":"Droit fiscal et droit douanier","acDateSerment":"","coordinates":[5.3806855,43.2874178]},{"NomBarreau":"MARSEILLE","avNom":"RHENTER","avPrenom":"Pauline","cbRaisonSociale":"RHENTER PAULINE","cbSiretSiren":"795127687","cbAdresse1":"127 rue de Rome","cbAdresse2":"","cbCp":"13006","cbVille":"MARSEILLE","spLibelle1":"","spLibelle2":"","acDateSerment":"","coordinates":[5.3816495,43.2898767]},{"NomBarreau":"MARSEILLE","avNom":"RIAHI","avPrenom":"Makram","cbRaisonSociale":"HAMCHACHE-RIAHI","cbSiretSiren":"828489963","cbAdresse1":"18 rue Bonneterie","cbAdresse2":"","cbCp":"13002","cbVille":"MARSEILLE","spLibelle1":"","spLibelle2":"","acDateSerment":"","coordinates":[5.3716487,43.2973845]},{"NomBarreau":"MARSEILLE","avNom":"RIBES","avPrenom":"Laurianne","cbRaisonSociale":"STREAM","cbSiretSiren":"440614196","cbAdresse1":"24 cours pierre puget","cbAdresse2":"","cbCp":"13006","cbVille":"MARSEILLE","spLibelle1":"","spLibelle2":"","acDateSerment":"","coordinates":[5.373849,43.2902405]},{"NomBarreau":"MARSEILLE","avNom":"RICCIOTTI","avPrenom":"Ornella","cbRaisonSociale":"ESSERE AVOCATS","cbSiretSiren":"","cbAdresse1":"6 cours Pierre Puget","cbAdresse2":"","cbCp":"13006","cbVille":"MARSEILLE","spLibelle1":"","spLibelle2":"","acDateSerment":"","coordinates":[5.373849,43.2902405]},{"NomBarreau":"MARSEILLE","avNom":"RICHARD","avPrenom":"Florence","cbRaisonSociale":"RICHARD FLORENCE","cbSiretSiren":"422010181","cbAdresse1":"32 rue grignan","cbAdresse2":"","cbCp":"13001","cbVille":"MARSEILLE","spLibelle1":"","spLibelle2":"","acDateSerment":"","coordinates":[5.377548,43.292339]},{"NomBarreau":"MARSEILLE","avNom":"RICHARD-FLACHAIRE","avPrenom":"Flora","cbRaisonSociale":"RICHARD FLORA","cbSiretSiren":"835212713","cbAdresse1":"47 rue Grignan","cbAdresse2":"","cbCp":"13006","cbVille":"MARSEILLE","spLibelle1":"","spLibelle2":"","acDateSerment":"","coordinates":[5.3766265,43.2920719]},{"NomBarreau":"MARSEILLE","avNom":"RICHARDSON","avPrenom":"Caroline","cbRaisonSociale":"RICHARDSON CAROLINE","cbSiretSiren":"452773559","cbAdresse1":"16 cours Pierre Puget","cbAdresse2":"","cbCp":"13006","cbVille":"MARSEILLE","spLibelle1":"","spLibelle2":"","acDateSerment":"","coordinates":[5.373849,43.2902405]},{"NomBarreau":"MARSEILLE","avNom":"RICHEBOEUF","avPrenom":"Alban ","cbRaisonSociale":"RICHEBOEUF ALBAN YANN MARIE","cbSiretSiren":"838898807","cbAdresse1":"66 rue Grignan","cbAdresse2":"","cbCp":"13001","cbVille":"MARSEILLE","spLibelle1":"","spLibelle2":"","acDateSerment":"","coordinates":[5.3749743,43.2917319]},{"NomBarreau":"MARSEILLE","avNom":"RICHELME","avPrenom":"Pola","cbRaisonSociale":"RICHELME POLA","cbSiretSiren":"528266349","cbAdresse1":"16 rue breteuil","cbAdresse2":"","cbCp":"13001","cbVille":"MARSEILLE","spLibelle1":"","spLibelle2":"","acDateSerment":"","coordinates":[5.3750594,43.292007]},{"NomBarreau":"MARSEILLE","avNom":"RICHELME-BOUTIERE","avPrenom":"Sophie","cbRaisonSociale":"CABINET BRINGUIER-RICHELME-ROUSSET","cbSiretSiren":"417572005","cbAdresse1":"44 Rue Sainte","cbAdresse2":"","cbCp":"13001","cbVille":"MARSEILLE","spLibelle1":"","spLibelle2":"","acDateSerment":"","coordinates":[5.3738506,43.2922198]},{"NomBarreau":"MARSEILLE","avNom":"RICHTER-IKRELEF","avPrenom":"Peggy","cbRaisonSociale":"RICHTER-IKRELEF PEGGY","cbSiretSiren":"809181811","cbAdresse1":"12 Rue Pascal  Xavier COSTE","cbAdresse2":"CAP SUD","cbCp":"13016","cbVille":"MARSEILLE","spLibelle1":"","spLibelle2":"","acDateSerment":"","coordinates":[5.3366884,43.3589044]},{"NomBarreau":"MARSEILLE","avNom":"RICOEUR","avPrenom":"Marion","cbRaisonSociale":"ACHILLEE AVOCATS","cbSiretSiren":"899653836","cbAdresse1":"42 rue Montgrand","cbAdresse2":"","cbCp":"13006","cbVille":"MARSEILLE","spLibelle1":"","spLibelle2":"","acDateSerment":"","coordinates":[5.3776205,43.291469]},{"NomBarreau":"MARSEILLE","avNom":"RIGAL","avPrenom":"Pierre","cbRaisonSociale":"RIGAL PIERRE","cbSiretSiren":"750213258","cbAdresse1":"43 bis rue Condorcet","cbAdresse2":"","cbCp":"13016","cbVille":"MARSEILLE","spLibelle1":"","spLibelle2":"","acDateSerment":"","coordinates":[5.3380418,43.3575428]},{"NomBarreau":"MARSEILLE","avNom":"RIGHI","avPrenom":"Stéphane","cbRaisonSociale":"CALISTE AVOCATS","cbSiretSiren":"834116436","cbAdresse1":"54 rue Paradis","cbAdresse2":"","cbCp":"13006","cbVille":"MARSEILLE","spLibelle1":"","spLibelle2":"","acDateSerment":"","coordinates":[5.377298,43.2920334]},{"NomBarreau":"MARSEILLE","avNom":"RIGOULOT","avPrenom":"Célandine","cbRaisonSociale":"CABINET RIGOULOT AVOCAT","cbSiretSiren":"823948120","cbAdresse1":"44 rue Montgrand","cbAdresse2":"","cbCp":"13006","cbVille":"MARSEILLE","spLibelle1":"","spLibelle2":"","acDateSerment":"","coordinates":[5.3776205,43.291469]},{"NomBarreau":"MARSEILLE","avNom":"RIKABI","avPrenom":"Mouaz","cbRaisonSociale":"RIKABI MOUAZ","cbSiretSiren":"948098405","cbAdresse1":"16 Rue Breteuil","cbAdresse2":"","cbCp":"13001","cbVille":"MARSEILLE","spLibelle1":"","spLibelle2":"","acDateSerment":"","coordinates":[5.3750594,43.292007]},{"NomBarreau":"MARSEILLE","avNom":"RINGENBACH","avPrenom":"Lucile","cbRaisonSociale":"RINGENBACH LUCILE","cbSiretSiren":"791036064","cbAdresse1":"96 rue Sainte","cbAdresse2":"","cbCp":"13007","cbVille":"MARSEILLE","spLibelle1":"","spLibelle2":"","acDateSerment":"","coordinates":[5.3650542,43.2904893]},{"NomBarreau":"MARSEILLE","avNom":"RINGUE","avPrenom":"Alexis","cbRaisonSociale":"RINGUE ALEXIS","cbSiretSiren":"899710982","cbAdresse1":"38 rue grignan","cbAdresse2":"","cbCp":"13001","cbVille":"MARSEILLE","spLibelle1":"","spLibelle2":"","acDateSerment":"","coordinates":[5.3766265,43.2920719]},{"NomBarreau":"MARSEILLE","avNom":"RIOU","avPrenom":"Guilhem","cbRaisonSociale":"RIOU GUILHEM","cbSiretSiren":"502499650","cbAdresse1":"37 boulevard Notre Dame","cbAdresse2":"","cbCp":"13006","cbVille":"MARSEILLE","spLibelle1":"","spLibelle2":"","acDateSerment":"","coordinates":[5.3733457,43.2884524]},{"NomBarreau":"MARSEILLE","avNom":"RIQUAND-RICHARD","avPrenom":"Arlette","cbRaisonSociale":"RIQUAND-RICHARD ARLETTE","cbSiretSiren":"402772891","cbAdresse1":"47 rue Grignan","cbAdresse2":"","cbCp":"13006","cbVille":"MARSEILLE","spLibelle1":"","spLibelle2":"","acDateSerment":"","coordinates":[5.3766265,43.2920719]},{"NomBarreau":"MARSEILLE","avNom":"RIVAT","avPrenom":"Solenne","cbRaisonSociale":"CAPSTAN - PYTHEAS","cbSiretSiren":"495125478","cbAdresse1":"23 rue sylvabelle","cbAdresse2":"","cbCp":"13006","cbVille":"MARSEILLE","spLibelle1":"Droit du travail","spLibelle2":"","acDateSerment":"","coordinates":[5.3802746,43.2896126]},{"NomBarreau":"MARSEILLE","avNom":"RIVIERE","avPrenom":"Manon","cbRaisonSociale":"RIVIERE MANON","cbSiretSiren":"847582830","cbAdresse1":"23/25 rue Edmond Rostand","cbAdresse2":"","cbCp":"13006","cbVille":"MARSEILLE","spLibelle1":"","spLibelle2":"","acDateSerment":"","coordinates":[5.3806855,43.2874178]},{"NomBarreau":"MARSEILLE","avNom":"RIVOLLET","avPrenom":"Henri-Pierre","cbRaisonSociale":"RIVOLLET HENRI-PIERRE","cbSiretSiren":"327519476","cbAdresse1":"65 rue breteuil","cbAdresse2":"","cbCp":"13006","cbVille":"MARSEILLE","spLibelle1":"Droit commercial, des affaires et de la concurrence","spLibelle2":"Droit des transports","acDateSerment":"","coordinates":[5.3762148,43.2894993]},{"NomBarreau":"MARSEILLE","avNom":"ROBELET","avPrenom":"Alexandre","cbRaisonSociale":"ROBELET ALEXANDRE","cbSiretSiren":"434477915","cbAdresse1":"104 rue Paradis","cbAdresse2":"","cbCp":"13006","cbVille":"MARSEILLE","spLibelle1":"","spLibelle2":"","acDateSerment":"","coordinates":[5.3785635,43.2890167]},{"NomBarreau":"MARSEILLE","avNom":"ROBERT","avPrenom":"Alexandre","cbRaisonSociale":"ROBERT ALEXANDRE","cbSiretSiren":"","cbAdresse1":"10 place de la Joliette","cbAdresse2":"LES DOCKS ATRIUM 10.1","cbCp":"13002","cbVille":"MARSEILLE","spLibelle1":"","spLibelle2":"","acDateSerment":"","coordinates":[5.3661466,43.3055264]},{"NomBarreau":"MARSEILLE","avNom":"ROBERT","avPrenom":"Sophie","cbRaisonSociale":"SCP CHABAS ET ASSOCIES","cbSiretSiren":"378278675","cbAdresse1":"67 cours pierre puget","cbAdresse2":"","cbCp":"13006","cbVille":"MARSEILLE","spLibelle1":"Droit de la sécurité sociale et de la protection sociale","spLibelle2":"Droit du travail","acDateSerment":"","coordinates":[5.373849,43.2902405]},{"NomBarreau":"MARSEILLE","avNom":"ROBIN","avPrenom":"Mélanie","cbRaisonSociale":"ROBIN MELANIE","cbSiretSiren":"451744445","cbAdresse1":"6 rue grignan","cbAdresse2":"","cbCp":"13001","cbVille":"MARSEILLE","spLibelle1":"","spLibelle2":"","acDateSerment":"","coordinates":[5.3792114,43.29273]},{"NomBarreau":"MARSEILLE","avNom":"ROBINE","avPrenom":"Nicolas ","cbRaisonSociale":"ROBINE NICOLAS","cbSiretSiren":"851964882","cbAdresse1":"96 rue Sainte","cbAdresse2":"","cbCp":"13007","cbVille":"MARSEILLE","spLibelle1":"","spLibelle2":"","acDateSerment":"","coordinates":[5.3650542,43.2904893]},{"NomBarreau":"MARSEILLE","avNom":"ROBLOT DE COULANGE","avPrenom":"Pascale","cbRaisonSociale":"LINARES/ ROBLOT DE COULANGE","cbSiretSiren":"348722810","cbAdresse1":"23-25 Rue Edmond Rostand","cbAdresse2":"","cbCp":"13006","cbVille":"MARSEILLE","spLibelle1":"","spLibelle2":"","acDateSerment":"","coordinates":[5.3806855,43.2874178]},{"NomBarreau":"MARSEILLE","avNom":"ROCCA SERRA","avPrenom":"Marie-Joseph","cbRaisonSociale":"ROCCASERRA MARIE-JOSEPHE","cbSiretSiren":"380009423","cbAdresse1":"1 rue Montgrand","cbAdresse2":"","cbCp":"13006","cbVille":"MARSEILLE","spLibelle1":"","spLibelle2":"","acDateSerment":"","coordinates":[5.3776205,43.291469]},{"NomBarreau":"MARSEILLE","avNom":"ROCCARO","avPrenom":"Loic","cbRaisonSociale":"ROCCARO LOIC","cbSiretSiren":"824597801","cbAdresse1":"99 rue de Rome","cbAdresse2":"","cbCp":"13006","cbVille":"MARSEILLE","spLibelle1":"","spLibelle2":"","acDateSerment":"","coordinates":[5.3805591,43.2917043]},{"NomBarreau":"MARSEILLE","avNom":"ROCCHESANI","avPrenom":"Philippe","cbRaisonSociale":"SCP PIERI / ROCCHESANI","cbSiretSiren":"538686221","cbAdresse1":"9 rue gustave ricard","cbAdresse2":"","cbCp":"13006","cbVille":"MARSEILLE","spLibelle1":"","spLibelle2":"","acDateSerment":"","coordinates":[5.3770611,43.2913564]},{"NomBarreau":"MARSEILLE","avNom":"RODRIGUEZ","avPrenom":"Laurence","cbRaisonSociale":"RODRIGUEZ LAURENCE","cbSiretSiren":"350440301","cbAdresse1":"38 rue Sainte","cbAdresse2":"","cbCp":"13001","cbVille":"MARSEILLE","spLibelle1":"","spLibelle2":"","acDateSerment":"","coordinates":[5.374529,43.2923766]},{"NomBarreau":"MARSEILLE","avNom":"ROGER","avPrenom":"Carine","cbRaisonSociale":"PACTA JURIS","cbSiretSiren":"847497575","cbAdresse1":"3 rue de Village","cbAdresse2":"","cbCp":"13006","cbVille":"MARSEILLE","spLibelle1":"","spLibelle2":"","acDateSerment":"","coordinates":[5.3853073,43.2884994]},{"NomBarreau":"MARSEILLE","avNom":"ROGER-PETIT","avPrenom":"Claire","cbRaisonSociale":"ROGER-PETIT CLAIRE","cbSiretSiren":"907617534","cbAdresse1":"24 rue Edouard Delanglade","cbAdresse2":"","cbCp":"13006","cbVille":"MARSEILLE","spLibelle1":"","spLibelle2":"","acDateSerment":"","coordinates":[5.3743744,43.2890258]},{"NomBarreau":"MARSEILLE","avNom":"ROGLIANO","avPrenom":"Fannelie","cbRaisonSociale":"ROGLIANO FANNELIE","cbSiretSiren":"447760679","cbAdresse1":"21 rue Montgrand","cbAdresse2":"","cbCp":"13006","cbVille":"MARSEILLE","spLibelle1":"","spLibelle2":"","acDateSerment":"","coordinates":[5.3777817,43.2914539]},{"NomBarreau":"MARSEILLE","avNom":"ROLLAND","avPrenom":"Sophie","cbRaisonSociale":"ROLLAND SOPHIE","cbSiretSiren":"539873539","cbAdresse1":"60 rue grignan","cbAdresse2":"","cbCp":"13001","cbVille":"MARSEILLE","spLibelle1":"","spLibelle2":"","acDateSerment":"","coordinates":[5.3758409,43.2919343]},{"NomBarreau":"MARSEILLE","avNom":"ROMAN","avPrenom":"Julie","cbRaisonSociale":"ROMAN JULIE","cbSiretSiren":"897580288","cbAdresse1":"40 rue Edouard Delanglade","cbAdresse2":"","cbCp":"13006","cbVille":"MARSEILLE","spLibelle1":"","spLibelle2":"","acDateSerment":"","coordinates":[5.3733122,43.2887927]},{"NomBarreau":"MARSEILLE","avNom":"ROMANO","avPrenom":"Vanessa","cbRaisonSociale":"ROMANO VANESSA","cbSiretSiren":"487486714","cbAdresse1":"37 Rue Montgrand","cbAdresse2":"","cbCp":"13006","cbVille":"MARSEILLE","spLibelle1":"","spLibelle2":"","acDateSerment":"","coordinates":[5.3776205,43.291469]},{"NomBarreau":"MARSEILLE","avNom":"RONDEAU-ABOULY","avPrenom":"Véronique","cbRaisonSociale":"RONDEAU-ABOULY VERONIQUE","cbSiretSiren":"347531824","cbAdresse1":"69 rue Sainte","cbAdresse2":"Le Grignan entrée B","cbCp":"13001","cbVille":"MARSEILLE","spLibelle1":"","spLibelle2":"","acDateSerment":"","coordinates":[5.3723535,43.2917739]},{"NomBarreau":"MARSEILLE","avNom":"ROQUES","avPrenom":"Olivier","cbRaisonSociale":"CAPELA","cbSiretSiren":"845261726","cbAdresse1":"17 rue Venture","cbAdresse2":"","cbCp":"13001","cbVille":"MARSEILLE","spLibelle1":"","spLibelle2":"","acDateSerment":"","coordinates":[5.3775776,43.2929145]},{"NomBarreau":"MARSEILLE","avNom":"ROSALA","avPrenom":"Jennifer","cbRaisonSociale":"ROSALA JENNIFER","cbSiretSiren":"845293349","cbAdresse1":"51 rue Sainte","cbAdresse2":"","cbCp":"13001","cbVille":"MARSEILLE","spLibelle1":"","spLibelle2":"","acDateSerment":"","coordinates":[5.3736877,43.2920892]},{"NomBarreau":"MARSEILLE","avNom":"ROSATO","avPrenom":"Olivier","cbRaisonSociale":"ROSATO OLIVIER","cbSiretSiren":"491546016","cbAdresse1":"3 quai de la joliette","cbAdresse2":"","cbCp":"13002","cbVille":"MARSEILLE","spLibelle1":"","spLibelle2":"","acDateSerment":"","coordinates":[5.3653039,43.3040807]},{"NomBarreau":"MARSEILLE","avNom":"ROSENFELD","avPrenom":"François","cbRaisonSociale":"CABINET ROSENFELD & ASSOCIES","cbSiretSiren":"413365362","cbAdresse1":"13-15 Rue Roux de Brignoles","cbAdresse2":"","cbCp":"13006","cbVille":"MARSEILLE","spLibelle1":"Droit immobilier","spLibelle2":"","acDateSerment":"","coordinates":[5.3745328,43.2895446]},{"NomBarreau":"MARSEILLE","avNom":"ROSENFELD","avPrenom":"Grégoire","cbRaisonSociale":"CABINET ROSENFELD & ASSOCIES","cbSiretSiren":"413365362","cbAdresse1":"13-15 Rue Roux de Brignoles","cbAdresse2":"","cbCp":"13006","cbVille":"MARSEILLE","spLibelle1":"","spLibelle2":"","acDateSerment":"","coordinates":[5.3745328,43.2895446]},{"NomBarreau":"MARSEILLE","avNom":"ROSENFELD","avPrenom":"Virginie","cbRaisonSociale":"CABINET ROSENFELD & ASSOCIES","cbSiretSiren":"413365362","cbAdresse1":"13-15 Rue Roux de Brignoles","cbAdresse2":"","cbCp":"13006","cbVille":"MARSEILLE","spLibelle1":"","spLibelle2":"","acDateSerment":"","coordinates":[5.3745328,43.2895446]},{"NomBarreau":"MARSEILLE","avNom":"ROSSI","avPrenom":"Virginie","cbRaisonSociale":"ROSSI VIRGINIE","cbSiretSiren":"477768154","cbAdresse1":"63 rue Paradis","cbAdresse2":"","cbCp":"13006","cbVille":"MARSEILLE","spLibelle1":"","spLibelle2":"","acDateSerment":"","coordinates":[5.3776349,43.291585]},{"NomBarreau":"MARSEILLE","avNom":"ROSSI-ARNAUD","avPrenom":"Silvio","cbRaisonSociale":"SOPHIE BOTTAI & SILVIO ROSSI-ARNAUD","cbSiretSiren":"493716237","cbAdresse1":"2 Rue edouard delanglade","cbAdresse2":"","cbCp":"13006","cbVille":"MARSEILLE","spLibelle1":"Droit de la propriété intellectuelle","spLibelle2":"","acDateSerment":"","coordinates":[5.3759631,43.2893892]},{"NomBarreau":"MARSEILLE","avNom":"ROSSINI","avPrenom":"Livia","cbRaisonSociale":"CABINET BERENGER, BLANC, BURTEZ-DOUCEDE & ASSOCIES","cbSiretSiren":"324042787","cbAdresse1":"69 Rue Sainte","cbAdresse2":"","cbCp":"13001","cbVille":"MARSEILLE","spLibelle1":"","spLibelle2":"","acDateSerment":"","coordinates":[5.3723535,43.2917739]},{"NomBarreau":"MARSEILLE","avNom":"ROSSO","avPrenom":"Benjamin","cbRaisonSociale":"NUMA AVOCATS","cbSiretSiren":"753924752","cbAdresse1":"469 avenue du Prado","cbAdresse2":"","cbCp":"13008","cbVille":"MARSEILLE","spLibelle1":"","spLibelle2":"","acDateSerment":"","coordinates":[5.3820595,43.2662856]},{"NomBarreau":"MARSEILLE","avNom":"ROSSO ROIG","avPrenom":"Anna","cbRaisonSociale":"ROSSO ROIG ANNA","cbSiretSiren":"847623311","cbAdresse1":"7 traverse Valette","cbAdresse2":"","cbCp":"13009","cbVille":"MARSEILLE","spLibelle1":"","spLibelle2":"","acDateSerment":"","coordinates":[5.404042,43.2347009]},{"NomBarreau":"MARSEILLE","avNom":"ROSSO-TOSOLINI","avPrenom":"Maxime ","cbRaisonSociale":"ROSSO-TOSOLINI MAXIME","cbSiretSiren":"","cbAdresse1":"469 avenue du Prado","cbAdresse2":"","cbCp":"13008","cbVille":"MARSEILLE","spLibelle1":"","spLibelle2":"","acDateSerment":"","coordinates":[5.3820595,43.2662856]},{"NomBarreau":"MARSEILLE","avNom":"ROSTANE","avPrenom":"Béatrice","cbRaisonSociale":"DANJOU & ASSOCIES","cbSiretSiren":"880135694","cbAdresse1":"12 rue Edmond Rostand","cbAdresse2":"","cbCp":"13006","cbVille":"MARSEILLE","spLibelle1":"","spLibelle2":"","acDateSerment":"","coordinates":[5.3806855,43.2874178]},{"NomBarreau":"MARSEILLE","avNom":"ROSTINI","avPrenom":"Aurélie","cbRaisonSociale":"ROSTINI  AURELIE","cbSiretSiren":"791381221","cbAdresse1":"69 rue Sainte","cbAdresse2":"","cbCp":"13001","cbVille":"MARSEILLE","spLibelle1":"","spLibelle2":"","acDateSerment":"","coordinates":[5.3723535,43.2917739]},{"NomBarreau":"MARSEILLE","avNom":"ROUBAUD","avPrenom":"Pascal","cbRaisonSociale":"ROUBAUD  PASCAL","cbSiretSiren":"434829925","cbAdresse1":"1 rue Sainte","cbAdresse2":"","cbCp":"13001","cbVille":"MARSEILLE","spLibelle1":"","spLibelle2":"","acDateSerment":"","coordinates":[5.3768147,43.2928128]},{"NomBarreau":"MARSEILLE","avNom":"ROUGIER","avPrenom":"Bruno","cbRaisonSociale":"ROUGIER BRUNO","cbSiretSiren":"817429855","cbAdresse1":"424 avenue du Prado","cbAdresse2":"","cbCp":"13008","cbVille":"MARSEILLE","spLibelle1":"","spLibelle2":"","acDateSerment":"","coordinates":[5.3845782,43.2684612]},{"NomBarreau":"MARSEILLE","avNom":"ROUSSEAU","avPrenom":"Louis-Renan","cbRaisonSociale":"ROUSSEAU LOUIS-RENAN","cbSiretSiren":"840588446","cbAdresse1":"43-45 rue breteuil","cbAdresse2":"","cbCp":"13006","cbVille":"MARSEILLE","spLibelle1":"","spLibelle2":"","acDateSerment":"","coordinates":[5.3758106,43.2903364]},{"NomBarreau":"MARSEILLE","avNom":"ROUSSEL","avPrenom":"Hubert","cbRaisonSociale":"CABINET ROUSSEL-CABAYE","cbSiretSiren":"316227750","cbAdresse1":"11 A Rue Armeny","cbAdresse2":"","cbCp":"13006","cbVille":"MARSEILLE","spLibelle1":"","spLibelle2":"","acDateSerment":"","coordinates":[5.3794262,43.2908267]},{"NomBarreau":"MARSEILLE","avNom":"ROUSSEL","avPrenom":"Morgane","cbRaisonSociale":"ROUSSEL  MORGANE","cbSiretSiren":"824956775","cbAdresse1":"3 quai de la joliette","cbAdresse2":"","cbCp":"13002","cbVille":"MARSEILLE","spLibelle1":"","spLibelle2":"","acDateSerment":"","coordinates":[5.3653039,43.3040807]},{"NomBarreau":"MARSEILLE","avNom":"ROUSSELIN","avPrenom":"Anne-Sophie","cbRaisonSociale":"ROUSSELIN ANNE-SOPHIE","cbSiretSiren":"488655812","cbAdresse1":"13 cours pierre puget","cbAdresse2":"","cbCp":"13006","cbVille":"MARSEILLE","spLibelle1":"","spLibelle2":"","acDateSerment":"","coordinates":[5.373849,43.2902405]},{"NomBarreau":"MARSEILLE","avNom":"ROUSSET","avPrenom":"Anne-Laure","cbRaisonSociale":"CABINET BRINGUIER-RICHELME-ROUSSET","cbSiretSiren":"417572005","cbAdresse1":"44 Rue Sainte","cbAdresse2":"","cbCp":"13001","cbVille":"MARSEILLE","spLibelle1":"","spLibelle2":"","acDateSerment":"","coordinates":[5.3738506,43.2922198]},{"NomBarreau":"MARSEILLE","avNom":"ROUSSET-ROUVIERE","avPrenom":"Stéphanie","cbRaisonSociale":"NOVA PARTNERS","cbSiretSiren":"539311928","cbAdresse1":"42 A rue Montgrand","cbAdresse2":"","cbCp":"13006","cbVille":"MARSEILLE","spLibelle1":"","spLibelle2":"","acDateSerment":"","coordinates":[5.3776205,43.291469]},{"NomBarreau":"MARSEILLE","avNom":"ROUX","avPrenom":"Lionel","cbRaisonSociale":"PACTA JURIS","cbSiretSiren":"847497575","cbAdresse1":"3 rue de Village","cbAdresse2":"","cbCp":"13006","cbVille":"MARSEILLE","spLibelle1":"","spLibelle2":"","acDateSerment":"","coordinates":[5.3853073,43.2884994]},{"NomBarreau":"MARSEILLE","avNom":"ROUX-COUSSY","avPrenom":"Valentine","cbRaisonSociale":"ROUX-COUSSY VALENTINE","cbSiretSiren":"534362587","cbAdresse1":"16 Rue Breteuil","cbAdresse2":"","cbCp":"13001","cbVille":"MARSEILLE","spLibelle1":"","spLibelle2":"","acDateSerment":"","coordinates":[5.3750594,43.292007]},{"NomBarreau":"MARSEILLE","avNom":"ROYER","avPrenom":"Alexis","cbRaisonSociale":"ROYER ALEXIS","cbSiretSiren":"832802532","cbAdresse1":"19 rue de la Paix Marcel Paul","cbAdresse2":"","cbCp":"13001","cbVille":"MARSEILLE","spLibelle1":"","spLibelle2":"","acDateSerment":"","coordinates":[5.372608,43.2929117]},{"NomBarreau":"MARSEILLE","avNom":"RUBIN","avPrenom":"Martine","cbRaisonSociale":"RUBIN MARTINE","cbSiretSiren":"313127698","cbAdresse1":"60 Rue Grignan","cbAdresse2":"","cbCp":"13001","cbVille":"MARSEILLE","spLibelle1":"Droit commercial, des affaires et de la concurrence","spLibelle2":"Droit de la famille, des personnes et de leur patrimoine","acDateSerment":"","coordinates":[5.3758409,43.2919343]},{"NomBarreau":"MARSEILLE","avNom":"RUDLOFF","avPrenom":"Constance","cbRaisonSociale":"RUDLOFF CONSTANCE","cbSiretSiren":"800151201","cbAdresse1":"24A rue Fort Notre Dame","cbAdresse2":"","cbCp":"13007","cbVille":"MARSEILLE","spLibelle1":"","spLibelle2":"","acDateSerment":"","coordinates":[5.3714892,43.2924767]},{"NomBarreau":"MARSEILLE","avNom":"RUSSO","avPrenom":"Florence","cbRaisonSociale":"RUSSO FLORENCE","cbSiretSiren":"880690169","cbAdresse1":"2 rue Edouard Delanglade","cbAdresse2":"","cbCp":"13006","cbVille":"MARSEILLE","spLibelle1":"","spLibelle2":"","acDateSerment":"","coordinates":[5.3759631,43.2893892]},{"NomBarreau":"MARSEILLE","avNom":"RUSSO","avPrenom":"Gaelle","cbRaisonSociale":"RUSSO GAELLE","cbSiretSiren":"529672727","cbAdresse1":"58 rue Grignan","cbAdresse2":"","cbCp":"13001","cbVille":"MARSEILLE","spLibelle1":"","spLibelle2":"","acDateSerment":"","coordinates":[5.3759321,43.2919555]},{"NomBarreau":"MARSEILLE","avNom":"RYCX","avPrenom":"Jean-François","cbRaisonSociale":"RYCX JEAN-FRANCOIS","cbSiretSiren":"382836617","cbAdresse1":"40 rue sainte","cbAdresse2":"","cbCp":"13001","cbVille":"MARSEILLE","spLibelle1":"","spLibelle2":"","acDateSerment":"","coordinates":[5.374394,43.2923449]},{"NomBarreau":"MARSEILLE","avNom":"SABBAH","avPrenom":"Karine","cbRaisonSociale":"SABBAH KARINE","cbSiretSiren":"453295149","cbAdresse1":"1 rue roux de brignoles","cbAdresse2":"","cbCp":"13006","cbVille":"MARSEILLE","spLibelle1":"","spLibelle2":"","acDateSerment":"","coordinates":[5.3756345,43.2898187]},{"NomBarreau":"MARSEILLE","avNom":"SABRI","avPrenom":"Mohamed-Mouldi","cbRaisonSociale":"SABRI MOHAMED-MOULDI","cbSiretSiren":"518005475","cbAdresse1":"28 bd national","cbAdresse2":"","cbCp":"13001","cbVille":"MARSEILLE","spLibelle1":"","spLibelle2":"","acDateSerment":"","coordinates":[5.3866672,43.30283]},{"NomBarreau":"MARSEILLE","avNom":"SACCOCCIO","avPrenom":"Audrey","cbRaisonSociale":"SACCOCCIO  AUDREY","cbSiretSiren":"750467342","cbAdresse1":"72 rue Sainte","cbAdresse2":"","cbCp":"13007","cbVille":"MARSEILLE","spLibelle1":"","spLibelle2":"","acDateSerment":"","coordinates":[5.3650542,43.2904893]},{"NomBarreau":"MARSEILLE","avNom":"SACOUN","avPrenom":"Etienne","cbRaisonSociale":"E.S. AVOCATS","cbSiretSiren":"790588636","cbAdresse1":"27 rue Grignan","cbAdresse2":"","cbCp":"13006","cbVille":"MARSEILLE","spLibelle1":"","spLibelle2":"","acDateSerment":"","coordinates":[5.3766265,43.2920719]},{"NomBarreau":"MARSEILLE","avNom":"SADKI","avPrenom":"Cyrielle","cbRaisonSociale":"SADKI CYRIELLE","cbSiretSiren":"893420935","cbAdresse1":"21 cours Pierre Puget","cbAdresse2":"","cbCp":"13006","cbVille":"MARSEILLE","spLibelle1":"","spLibelle2":"","acDateSerment":"","coordinates":[5.3734474,43.2900237]},{"NomBarreau":"MARSEILLE","avNom":"SADOUN","avPrenom":"Gilles","cbRaisonSociale":"SADOUN GILLES","cbSiretSiren":"381722511","cbAdresse1":"42 rue montgrand","cbAdresse2":"","cbCp":"13006","cbVille":"MARSEILLE","spLibelle1":"","spLibelle2":"","acDateSerment":"","coordinates":[5.3776205,43.291469]},{"NomBarreau":"MARSEILLE","avNom":"SAETTI- LEBRETON","avPrenom":"Estelle","cbRaisonSociale":"SAETTI- LEBRETON ESTELLE","cbSiretSiren":"433387537","cbAdresse1":"2 rue Albert Chabanon","cbAdresse2":"","cbCp":"13006","cbVille":"MARSEILLE","spLibelle1":"","spLibelle2":"","acDateSerment":"","coordinates":[5.3815413,43.2900167]},{"NomBarreau":"MARSEILLE","avNom":"SAGHROUN-ARDITTI","avPrenom":"Rebecca","cbRaisonSociale":"SAGHROUN-ARDITTI REBECCA","cbSiretSiren":"790439517","cbAdresse1":"305 A avenue du prado","cbAdresse2":"","cbCp":"13008","cbVille":"MARSEILLE","spLibelle1":"","spLibelle2":"","acDateSerment":"","coordinates":[5.3905475,43.2717321]},{"NomBarreau":"MARSEILLE","avNom":"SAGNA","avPrenom":"Andréa","cbRaisonSociale":"SAGNA ANDREA","cbSiretSiren":"809004724","cbAdresse1":"82 rue Grignan","cbAdresse2":"","cbCp":"13001","cbVille":"MARSEILLE","spLibelle1":"","spLibelle2":"","acDateSerment":"","coordinates":[5.3740043,43.291505]},{"NomBarreau":"MARSEILLE","avNom":"SAGUI","avPrenom":"Aymeric","cbRaisonSociale":"SAGUI AYMERIC","cbSiretSiren":"","cbAdresse1":"16 Rue Neuve Sainte Catherine","cbAdresse2":"","cbCp":"13007","cbVille":"MARSEILLE","spLibelle1":"","spLibelle2":"","acDateSerment":"","coordinates":[5.3698022,43.2922561]},{"NomBarreau":"MARSEILLE","avNom":"SAHRAOUI","avPrenom":"Hedi","cbRaisonSociale":"SAHRAOUI HEDI","cbSiretSiren":"835291709","cbAdresse1":"22 rue Edouard Delanglade","cbAdresse2":"","cbCp":"13006","cbVille":"MARSEILLE","spLibelle1":"","spLibelle2":"","acDateSerment":"","coordinates":[5.3745002,43.2890533]},{"NomBarreau":"MARSEILLE","avNom":"SAAB","avPrenom":"Claire","cbRaisonSociale":"SAAB  CLAIRE","cbSiretSiren":"880980537","cbAdresse1":"45 rue Paradis","cbAdresse2":"","cbCp":"13001","cbVille":"MARSEILLE","spLibelle1":"","spLibelle2":"","acDateSerment":"","coordinates":[5.3770572,43.2927949]},{"NomBarreau":"MARSEILLE","avNom":"SAIMAN","avPrenom":"Francis","cbRaisonSociale":"SAIMAN FRANCIS","cbSiretSiren":"390374007","cbAdresse1":"16 rue Saint Jacques","cbAdresse2":"","cbCp":"13006","cbVille":"MARSEILLE","spLibelle1":"","spLibelle2":"","acDateSerment":"","coordinates":[5.3779425,43.288342]},{"NomBarreau":"MARSEILLE","avNom":"SAINT-DENIS","avPrenom":"Laure","cbRaisonSociale":"SAINT-DENIS LAURE","cbSiretSiren":"809661218","cbAdresse1":"22 rue Edouard Delanglade","cbAdresse2":"","cbCp":"13006","cbVille":"MARSEILLE","spLibelle1":"","spLibelle2":"","acDateSerment":"","coordinates":[5.3745002,43.2890533]},{"NomBarreau":"MARSEILLE","avNom":"SAINT-OYANT","avPrenom":"Liza","cbRaisonSociale":"SAINT-OYANT LIZA","cbSiretSiren":"532592979","cbAdresse1":"13 cours Pierre Puget","cbAdresse2":"","cbCp":"13006","cbVille":"MARSEILLE","spLibelle1":"","spLibelle2":"","acDateSerment":"","coordinates":[5.373849,43.2902405]},{"NomBarreau":"MARSEILLE","avNom":"SAINT-PIERRE","avPrenom":"Louis","cbRaisonSociale":"LELIEVRE SAINT PIERRE","cbSiretSiren":"834635633","cbAdresse1":"103 boulevard Notre Dame","cbAdresse2":"","cbCp":"13006","cbVille":"MARSEILLE","spLibelle1":"Droit du dommage corporel","spLibelle2":"","acDateSerment":"","coordinates":[5.3747393,43.2851607]},{"NomBarreau":"MARSEILLE","avNom":"SALAVERT-BULLOT","avPrenom":"Caroline","cbRaisonSociale":"SALAVERT- BULLOT CAROLINE","cbSiretSiren":"400479309","cbAdresse1":"16 rue Breteuil","cbAdresse2":"","cbCp":"13001","cbVille":"MARSEILLE","spLibelle1":"","spLibelle2":"","acDateSerment":"","coordinates":[5.3750594,43.292007]},{"NomBarreau":"MARSEILLE","avNom":"SALFATI","avPrenom":"Gilles","cbRaisonSociale":"SALFATI GILLES","cbSiretSiren":"341327799","cbAdresse1":"54 Cours Pierre Puget","cbAdresse2":"","cbCp":"13006","cbVille":"MARSEILLE","spLibelle1":"","spLibelle2":"","acDateSerment":"","coordinates":[5.372856534928409,43.29035865]},{"NomBarreau":"MARSEILLE","avNom":"SALINESI-FERRE","avPrenom":"Martine","cbRaisonSociale":"SALINESI-FERRE MARTINE","cbSiretSiren":"395390008","cbAdresse1":"13 cours pierre puget","cbAdresse2":"","cbCp":"13006","cbVille":"MARSEILLE","spLibelle1":"","spLibelle2":"","acDateSerment":"","coordinates":[5.373849,43.2902405]},{"NomBarreau":"MARSEILLE","avNom":"SALLES","avPrenom":"Sebastien","cbRaisonSociale":"THELYS AVOCATS","cbSiretSiren":"819166190","cbAdresse1":"35 rue saint jacques","cbAdresse2":"","cbCp":"13006","cbVille":"MARSEILLE","spLibelle1":"","spLibelle2":"","acDateSerment":"","coordinates":[5.3796427,43.2887757]},{"NomBarreau":"MARSEILLE","avNom":"SALMIERI","avPrenom":"Cyril","cbRaisonSociale":"SALMIERI CYRIL","cbSiretSiren":"482414422","cbAdresse1":"7 rue Bel Air","cbAdresse2":"","cbCp":"13006","cbVille":"MARSEILLE","spLibelle1":"","spLibelle2":"","acDateSerment":"","coordinates":[5.3823994,43.2895604]},{"NomBarreau":"MARSEILLE","avNom":"SALVADO","avPrenom":"Emilie","cbRaisonSociale":"SALVADO EMILIE","cbSiretSiren":"488540667","cbAdresse1":"16 avenue de Saint Antoine","cbAdresse2":"Les bureaux du Littoral","cbCp":"13015","cbVille":"MARSEILLE","spLibelle1":"Droit de la sécurité sociale et de la protection sociale","spLibelle2":"Droit du travail","acDateSerment":"","coordinates":[5.3568657,43.3659235]},{"NomBarreau":"MARSEILLE","avNom":"SAMMARTANO","avPrenom":"Carla","cbRaisonSociale":"SAMMARTANO AVOCAT","cbSiretSiren":"852618461","cbAdresse1":"44 rue Montgrand","cbAdresse2":"","cbCp":"13006","cbVille":"MARSEILLE","spLibelle1":"","spLibelle2":"","acDateSerment":"","coordinates":[5.3776205,43.291469]},{"NomBarreau":"MARSEILLE","avNom":"SANCHEZ","avPrenom":"Frédéric","cbRaisonSociale":"SANCHEZ FREDERIC","cbSiretSiren":"403873144","cbAdresse1":"27 rue grignan","cbAdresse2":"","cbCp":"13006","cbVille":"MARSEILLE","spLibelle1":"","spLibelle2":"","acDateSerment":"","coordinates":[5.3766265,43.2920719]},{"NomBarreau":"MARSEILLE","avNom":"SANCHEZ","avPrenom":"Lugdivine","cbRaisonSociale":"JURISBELAIR","cbSiretSiren":"482118486","cbAdresse1":"50 rue Breteuil","cbAdresse2":"","cbCp":"13006","cbVille":"MARSEILLE","spLibelle1":"","spLibelle2":"","acDateSerment":"","coordinates":[5.376356,43.2888239]},{"NomBarreau":"MARSEILLE","avNom":"SANGUINETTI","avPrenom":"Eliette","cbRaisonSociale":"SANGUINETTI ELIETTE","cbSiretSiren":"411185622","cbAdresse1":"18 C rue Jules Moulet","cbAdresse2":"","cbCp":"13006","cbVille":"MARSEILLE","spLibelle1":"","spLibelle2":"","acDateSerment":"","coordinates":[5.3726472,43.2879051]},{"NomBarreau":"MARSEILLE","avNom":"SANTANA-MARC","avPrenom":"Anne","cbRaisonSociale":"SANTANA-MARC ANNE","cbSiretSiren":"531821080","cbAdresse1":"2 rue Lafon","cbAdresse2":"","cbCp":"13006","cbVille":"MARSEILLE","spLibelle1":"","spLibelle2":"","acDateSerment":"","coordinates":[5.3809887,43.2912099]},{"NomBarreau":"MARSEILLE","avNom":"SANTELLI","avPrenom":"Jean-Louis","cbRaisonSociale":"SANTELLI JEAN-LOUIS","cbSiretSiren":"352186969","cbAdresse1":"68 rue Montgrand","cbAdresse2":"","cbCp":"13006","cbVille":"MARSEILLE","spLibelle1":"","spLibelle2":"","acDateSerment":"","coordinates":[5.3758043,43.291135]},{"NomBarreau":"MARSEILLE","avNom":"SANTIAGO","avPrenom":"Christelle","cbRaisonSociale":"SANTIAGO CHRISTELLE","cbSiretSiren":"502281405","cbAdresse1":"126 boulevard Bara","cbAdresse2":"Zone Héliopolis II","cbCp":"13013","cbVille":"MARSEILLE","spLibelle1":"","spLibelle2":"","acDateSerment":"","coordinates":[5.4508354,43.346969]},{"NomBarreau":"MARSEILLE","avNom":"SANTIAGO","avPrenom":"Fanny","cbRaisonSociale":"SANTIAGO FANNY","cbSiretSiren":"811568351","cbAdresse1":"86 rue Edmond Rostand","cbAdresse2":"","cbCp":"13006","cbVille":"MARSEILLE","spLibelle1":"","spLibelle2":"","acDateSerment":"","coordinates":[5.3806855,43.2874178]},{"NomBarreau":"MARSEILLE","avNom":"SAOUDI","avPrenom":"Hedy","cbRaisonSociale":"FIDUCIAIRE JURIDIQUE ET FISCALE DE FRANCE FIDAL","cbSiretSiren":"525031522","cbAdresse1":"79 bd de dunkerque","cbAdresse2":"Immeuble l'Astrolabe","cbCp":"13235","cbVille":"MARSEILLE","spLibelle1":"","spLibelle2":"","acDateSerment":"","coordinates":[5.3677873,43.3094033]},{"NomBarreau":"MARSEILLE","avNom":"SAOUDI","avPrenom":"Sabrina","cbRaisonSociale":"FIDUCIAIRE JURIDIQUE ET FISCALE DE FRANCE FIDAL","cbSiretSiren":"525031522","cbAdresse1":"79 bd de dunkerque","cbAdresse2":"Immeuble l'Astrolabe","cbCp":"13235","cbVille":"MARSEILLE","spLibelle1":"","spLibelle2":"","acDateSerment":"","coordinates":[5.3677873,43.3094033]},{"NomBarreau":"MARSEILLE","avNom":"SAPAZIAN","avPrenom":"Virginie","cbRaisonSociale":"SAPAZIAN VIRGINIE","cbSiretSiren":"488304742","cbAdresse1":"26 rue Edouard Delanglade","cbAdresse2":"","cbCp":"13006","cbVille":"MARSEILLE","spLibelle1":"","spLibelle2":"","acDateSerment":"","coordinates":[5.3742061,43.288989]},{"NomBarreau":"MARSEILLE","avNom":"SARFATI","avPrenom":"Lionel","cbRaisonSociale":"SARFATI LIONEL","cbSiretSiren":"529887820","cbAdresse1":"56 rue paradis","cbAdresse2":"","cbCp":"13006","cbVille":"MARSEILLE","spLibelle1":"","spLibelle2":"","acDateSerment":"","coordinates":[5.3773971,43.2918029]},{"NomBarreau":"MARSEILLE","avNom":"SARKISSIAN","avPrenom":"Laura","cbRaisonSociale":"GAZIELLO SARKISSIAN ","cbSiretSiren":"848089819","cbAdresse1":"122 rue Breteuil","cbAdresse2":"","cbCp":"13006","cbVille":"MARSEILLE","spLibelle1":"","spLibelle2":"","acDateSerment":"","coordinates":[5.3777279,43.2853114]},{"NomBarreau":"MARSEILLE","avNom":"SARRAILH","avPrenom":"Anna","cbRaisonSociale":"SARRAILH ANNA","cbSiretSiren":"909158297","cbAdresse1":"12 rue Pascal Xavier COSTE","cbAdresse2":"Cap Sud","cbCp":"13016","cbVille":"MARSEILLE","spLibelle1":"","spLibelle2":"","acDateSerment":"","coordinates":[5.3366884,43.3589044]},{"NomBarreau":"MARSEILLE","avNom":"SASSATELLI","avPrenom":"Jean-Claude","cbRaisonSociale":"SASSATELLI JEAN-CLAUDE","cbSiretSiren":"387472079","cbAdresse1":"21 rue sylvabelle","cbAdresse2":"","cbCp":"13006","cbVille":"MARSEILLE","spLibelle1":"","spLibelle2":"","acDateSerment":"","coordinates":[5.3804935,43.2896723]},{"NomBarreau":"MARSEILLE","avNom":"SAUER","avPrenom":"Daria","cbRaisonSociale":"SELARL SENSE AVOCATS","cbSiretSiren":"487808347","cbAdresse1":"2 rue odette jasse","cbAdresse2":"","cbCp":"13015","cbVille":"MARSEILLE","spLibelle1":"","spLibelle2":"","acDateSerment":"","coordinates":[5.3708808,43.3429259]},{"NomBarreau":"MARSEILLE","avNom":"SAUVAT-BOURLAND","avPrenom":"Virginie","cbRaisonSociale":"CAPSTAN - PYTHEAS","cbSiretSiren":"495125478","cbAdresse1":"23 rue sylvabelle","cbAdresse2":"","cbCp":"13006","cbVille":"MARSEILLE","spLibelle1":"Droit du travail","spLibelle2":"","acDateSerment":"","coordinates":[5.3802746,43.2896126]},{"NomBarreau":"MARSEILLE","avNom":"SAVAADES","avPrenom":"Sophie","cbRaisonSociale":"SAVAADES SOPHIE","cbSiretSiren":"790514749","cbAdresse1":"12 rue Edmond Rostand","cbAdresse2":"","cbCp":"13006","cbVille":"MARSEILLE","spLibelle1":"","spLibelle2":"","acDateSerment":"","coordinates":[5.3806855,43.2874178]},{"NomBarreau":"MARSEILLE","avNom":"SAVELLI","avPrenom":"Melanie","cbRaisonSociale":"SAVELLI MELANIE","cbSiretSiren":"539919928","cbAdresse1":"8 rue Falque","cbAdresse2":"","cbCp":"13006","cbVille":"MARSEILLE","spLibelle1":"","spLibelle2":"","acDateSerment":"","coordinates":[5.3834171,43.284543]},{"NomBarreau":"MARSEILLE","avNom":"SAVI","avPrenom":"Julie","cbRaisonSociale":"SAVI JULIE","cbSiretSiren":"422012997","cbAdresse1":"16 rue Paradis","cbAdresse2":"","cbCp":"13001","cbVille":"MARSEILLE","spLibelle1":"","spLibelle2":"","acDateSerment":"","coordinates":[5.3770572,43.2927949]},{"NomBarreau":"MARSEILLE","avNom":"SAVIC","avPrenom":"Antoine","cbRaisonSociale":"SAVIC ANTOINE","cbSiretSiren":"800326860","cbAdresse1":"71 boulevard Oddo","cbAdresse2":"","cbCp":"13015","cbVille":"MARSEILLE","spLibelle1":"","spLibelle2":"","acDateSerment":"","coordinates":[5.3622914,43.3283792]},{"NomBarreau":"MARSEILLE","avNom":"SAVIOZ","avPrenom":"Gilbert","cbRaisonSociale":"SAVIOZ GILBERT","cbSiretSiren":"387525173","cbAdresse1":"38 rue Sainte","cbAdresse2":"","cbCp":"13001","cbVille":"MARSEILLE","spLibelle1":"","spLibelle2":"","acDateSerment":"","coordinates":[5.374529,43.2923766]},{"NomBarreau":"MARSEILLE","avNom":"SAVOYE","avPrenom":"Angèle","cbRaisonSociale":"CABINET SAVOYE","cbSiretSiren":"823332432","cbAdresse1":"63 rue Breteuil","cbAdresse2":"","cbCp":"13006","cbVille":"MARSEILLE","spLibelle1":"","spLibelle2":"","acDateSerment":"","coordinates":[5.3761566,43.2896406]},{"NomBarreau":"MARSEILLE","avNom":"SAYAG","avPrenom":"Caroline","cbRaisonSociale":"BOLLET & ASSOCIES","cbSiretSiren":"327489126","cbAdresse1":"4 Rue gaston castel","cbAdresse2":"","cbCp":"13016","cbVille":"MARSEILLE","spLibelle1":"","spLibelle2":"","acDateSerment":"","coordinates":[5.3366998,43.3576706]},{"NomBarreau":"MARSEILLE","avNom":"SCELLIER-FOURNIER","avPrenom":"Christine","cbRaisonSociale":"SCELLIER-FOURNIER CHRISTINE","cbSiretSiren":"335019246","cbAdresse1":"68 rue de Rome","cbAdresse2":"","cbCp":"13006","cbVille":"MARSEILLE","spLibelle1":"Droit du travail","spLibelle2":"","acDateSerment":"","coordinates":[5.3798796,43.2926317]},{"NomBarreau":"MARSEILLE","avNom":"SCEMAMA","avPrenom":"Lisa","cbRaisonSociale":"SCEMAMA LISA","cbSiretSiren":"880733597","cbAdresse1":"5 rue Grignan","cbAdresse2":"","cbCp":"13006","cbVille":"MARSEILLE","spLibelle1":"","spLibelle2":"","acDateSerment":"","coordinates":[5.3766265,43.2920719]},{"NomBarreau":"MARSEILLE","avNom":"SCHAFFUSER","avPrenom":"Julie","cbRaisonSociale":"SCHAFFUSER JULIE","cbSiretSiren":"835079245","cbAdresse1":"64 rue montgrand","cbAdresse2":"","cbCp":"13006","cbVille":"MARSEILLE","spLibelle1":"","spLibelle2":"","acDateSerment":"","coordinates":[5.3759693,43.291175]},{"NomBarreau":"MARSEILLE","avNom":"SCHALL","avPrenom":"Olivier","cbRaisonSociale":"SCHALL OLIVIER","cbSiretSiren":"444052104","cbAdresse1":"25 rue Sylvabelle","cbAdresse2":"","cbCp":"13006","cbVille":"MARSEILLE","spLibelle1":"","spLibelle2":"","acDateSerment":"","coordinates":[5.3801147,43.2895691]},{"NomBarreau":"MARSEILLE","avNom":"SCHENONE","avPrenom":"Isabelle","cbRaisonSociale":"SCHENONE ISABELLE","cbSiretSiren":"381881457","cbAdresse1":"36 rue Edouard Delanglade","cbAdresse2":"","cbCp":"13006","cbVille":"MARSEILLE","spLibelle1":"","spLibelle2":"","acDateSerment":"","coordinates":[5.3730052,43.2885942]},{"NomBarreau":"MARSEILLE","avNom":"SCHMITT","avPrenom":"Florian","cbRaisonSociale":"SCHMITT FLORIAN","cbSiretSiren":"","cbAdresse1":"452-456 avenue du Prado","cbAdresse2":"","cbCp":"13008","cbVille":"MARSEILLE","spLibelle1":"","spLibelle2":"","acDateSerment":"","coordinates":[5.3767537,43.2631488]},{"NomBarreau":"MARSEILLE","avNom":"SCHMITT","avPrenom":"Laetitia","cbRaisonSociale":"ERNST & YOUNG SOCIETE D'AVOCATS","cbSiretSiren":"448683789","cbAdresse1":"48 quai du Lazaret","cbAdresse2":"Le Calypso, quartier Euromed","cbCp":"13002","cbVille":"MARSEILLE","spLibelle1":"","spLibelle2":"","acDateSerment":"","coordinates":[5.3655634,43.306115]},{"NomBarreau":"MARSEILLE","avNom":"SCHNEEGANS","avPrenom":"Vincent","cbRaisonSociale":"SCHNEEGANS VINCENT","cbSiretSiren":"411205412","cbAdresse1":"21 rue sylvabelle","cbAdresse2":"","cbCp":"13006","cbVille":"MARSEILLE","spLibelle1":"","spLibelle2":"","acDateSerment":"","coordinates":[5.3804935,43.2896723]},{"NomBarreau":"MARSEILLE","avNom":"SCHOPPHOFF","avPrenom":"Céline","cbRaisonSociale":"SCHOPPHOFF CELINE","cbSiretSiren":"514251925","cbAdresse1":"21 Rue Sylvabelle","cbAdresse2":"4ème étage","cbCp":"13006","cbVille":"MARSEILLE","spLibelle1":"","spLibelle2":"","acDateSerment":"","coordinates":[5.3804935,43.2896723]},{"NomBarreau":"MARSEILLE","avNom":"SCHRODER","avPrenom":"Stéphanie","cbRaisonSociale":"SCHRODER STEPHANIE","cbSiretSiren":"790514657","cbAdresse1":"76 rue Dragon","cbAdresse2":"","cbCp":"13006","cbVille":"MARSEILLE","spLibelle1":"","spLibelle2":"","acDateSerment":"","coordinates":[5.3776372,43.2876531]},{"NomBarreau":"MARSEILLE","avNom":"SCHWING","avPrenom":"Christel","cbRaisonSociale":"SELARL GRIMALDI ET ASSOCIES","cbSiretSiren":"520595505","cbAdresse1":"4 place Felix Baret","cbAdresse2":"","cbCp":"13006","cbVille":"MARSEILLE","spLibelle1":"","spLibelle2":"","acDateSerment":"","coordinates":[5.379070956057616,43.2913566]},{"NomBarreau":"MARSEILLE","avNom":"SCIACQUA","avPrenom":"Laurent-Attilio","cbRaisonSociale":"EY VENTURY AVOCATS","cbSiretSiren":"501363667","cbAdresse1":"48 quai du Lazaret","cbAdresse2":"Immeuble le Calypso","cbCp":"13002","cbVille":"MARSEILLE","spLibelle1":"","spLibelle2":"","acDateSerment":"","coordinates":[5.3655634,43.306115]},{"NomBarreau":"MARSEILLE","avNom":"SCOTTI","avPrenom":"Jean-Charles","cbRaisonSociale":"SCOTTI JEAN-CHARLES","cbSiretSiren":"431484583","cbAdresse1":"55 rue Paradis","cbAdresse2":"","cbCp":"13006","cbVille":"MARSEILLE","spLibelle1":"","spLibelle2":"","acDateSerment":"","coordinates":[5.377597018836735,43.29190295]},{"NomBarreau":"MARSEILLE","avNom":"SCOTTO DI LIGUORI","avPrenom":"Ornella","cbRaisonSociale":"SCOTTO DI LIGUORI ORNELLA","cbSiretSiren":"519286843","cbAdresse1":"12 rue Breteuil","cbAdresse2":"","cbCp":"13001","cbVille":"MARSEILLE","spLibelle1":"","spLibelle2":"","acDateSerment":"","coordinates":[5.3749879,43.2921816]},{"NomBarreau":"MARSEILLE","avNom":"SEGHBOYAN","avPrenom":"Lola","cbRaisonSociale":"SEGHBOYAN LOLA","cbSiretSiren":"894055862","cbAdresse1":"32 RUE GRIGNAN","cbAdresse2":"","cbCp":"13001","cbVille":"MARSEILLE","spLibelle1":"","spLibelle2":"","acDateSerment":"","coordinates":[5.377548,43.292339]},{"NomBarreau":"MARSEILLE","avNom":"SEGOND","avPrenom":"Julie","cbRaisonSociale":"SEGOND JULIE","cbSiretSiren":"791456544","cbAdresse1":"12 Rue Pascal Xavier COSTE","cbAdresse2":"CAP SUD","cbCp":"13016","cbVille":"MARSEILLE","spLibelle1":"","spLibelle2":"","acDateSerment":"","coordinates":[5.3366884,43.3589044]},{"NomBarreau":"MARSEILLE","avNom":"SEGUIER","avPrenom":"Hadrien","cbRaisonSociale":"SEGUIER HADRIEN","cbSiretSiren":"810832832","cbAdresse1":"469 avenue du Prado","cbAdresse2":"","cbCp":"13008","cbVille":"MARSEILLE","spLibelle1":"","spLibelle2":"","acDateSerment":"","coordinates":[5.3820595,43.2662856]},{"NomBarreau":"MARSEILLE","avNom":"SEIGUE","avPrenom":"Yannis","cbRaisonSociale":"SCP BRAUNSTEIN & ASSOCIES","cbSiretSiren":"348723362","cbAdresse1":"16 Rue Breteuil","cbAdresse2":"","cbCp":"13001","cbVille":"MARSEILLE","spLibelle1":"Droit fiscal et droit douanier","spLibelle2":"","acDateSerment":"","coordinates":[5.3750594,43.292007]},{"NomBarreau":"MARSEILLE","avNom":"SEKLY","avPrenom":"Edouard","cbRaisonSociale":"SEKLY EDOUARD-PAUL","cbSiretSiren":"394746499","cbAdresse1":"132 rue Paradis","cbAdresse2":"","cbCp":"13006","cbVille":"MARSEILLE","spLibelle1":"","spLibelle2":"","acDateSerment":"","coordinates":[5.3791162,43.2877342]},{"NomBarreau":"MARSEILLE","avNom":"SEKLY-LIVRATI","avPrenom":"Dorine","cbRaisonSociale":"SEKLY-LIVRATI DORINE","cbSiretSiren":"828734087","cbAdresse1":"132 rue Paradis","cbAdresse2":"","cbCp":"13006","cbVille":"MARSEILLE","spLibelle1":"","spLibelle2":"","acDateSerment":"","coordinates":[5.3791162,43.2877342]},{"NomBarreau":"MARSEILLE","avNom":"SELLES-GILOT","avPrenom":"Audrey","cbRaisonSociale":"SELLES-GILOT AUDREY","cbSiretSiren":"791268519","cbAdresse1":"133 rue de Rome","cbAdresse2":"","cbCp":"13006","cbVille":"MARSEILLE","spLibelle1":"Droit du dommage corporel","spLibelle2":"Droit du dommage corporel","acDateSerment":"","coordinates":[5.381777,43.2896507]},{"NomBarreau":"MARSEILLE","avNom":"SELLIER","avPrenom":"Charlotte","cbRaisonSociale":"CHARLOTTE SELLIER","cbSiretSiren":"","cbAdresse1":"66 rue Grignan","cbAdresse2":"","cbCp":"13001","cbVille":"MARSEILLE","spLibelle1":"","spLibelle2":"","acDateSerment":"","coordinates":[5.3749743,43.2917319]},{"NomBarreau":"MARSEILLE","avNom":"SELMI","avPrenom":"Chehid","cbRaisonSociale":"SELMI CHEHID","cbSiretSiren":"521416412","cbAdresse1":"20 cours pierre puget","cbAdresse2":"","cbCp":"13006","cbVille":"MARSEILLE","spLibelle1":"","spLibelle2":"","acDateSerment":"","coordinates":[5.3734474,43.2900237]},{"NomBarreau":"MARSEILLE","avNom":"SEMELAIGNE","avPrenom":"Eric","cbRaisonSociale":"LOMBARD-SEMELAIGNE-DUPUY-DELCROIX","cbSiretSiren":"390879492","cbAdresse1":"24 COURS PIERRE PUGET","cbAdresse2":"","cbCp":"13006","cbVille":"MARSEILLE","spLibelle1":"Droit commercial, des affaires et de la concurrence","spLibelle2":"Droit des sociétés","acDateSerment":"","coordinates":[5.373849,43.2902405]},{"NomBarreau":"MARSEILLE","avNom":"SEMERIVA","avPrenom":"Sophie","cbRaisonSociale":"SEMERIVA  SOPHIE","cbSiretSiren":"449441914","cbAdresse1":"24A rue Fort Notre Dame","cbAdresse2":"","cbCp":"13007","cbVille":"MARSEILLE","spLibelle1":"","spLibelle2":"","acDateSerment":"","coordinates":[5.3714892,43.2924767]},{"NomBarreau":"MARSEILLE","avNom":"SEMIDEI","avPrenom":"Paul","cbRaisonSociale":"DE ANGELIS-SEMIDEI-VUILLQUEZ-HABART-MELKI-BARDON","cbSiretSiren":"380796946","cbAdresse1":"12 rue Pascal Xavier COSTE","cbAdresse2":"Cap Sud","cbCp":"13016","cbVille":"MARSEILLE","spLibelle1":"Droit immobilier","spLibelle2":"","acDateSerment":"","coordinates":[5.3366884,43.3589044]},{"NomBarreau":"MARSEILLE","avNom":"SENDRA","avPrenom":"Anne","cbRaisonSociale":"ERNST & YOUNG SOCIETE D'AVOCATS","cbSiretSiren":"448683789","cbAdresse1":"48 quai du Lazaret","cbAdresse2":"Le Calypso, quartier Euromed","cbCp":"13002","cbVille":"MARSEILLE","spLibelle1":"","spLibelle2":"","acDateSerment":"","coordinates":[5.3655634,43.306115]},{"NomBarreau":"MARSEILLE","avNom":"SENNAOUI","avPrenom":"Linda","cbRaisonSociale":"SENNAOUI LINDA","cbSiretSiren":"509792123","cbAdresse1":"33 rue Sylvabelle","cbAdresse2":"","cbCp":"13006","cbVille":"MARSEILLE","spLibelle1":"","spLibelle2":"","acDateSerment":"","coordinates":[5.3794047,43.2894004]},{"NomBarreau":"MARSEILLE","avNom":"SEPULCRE","avPrenom":"Julia","cbRaisonSociale":"SEPULCRE JULIA","cbSiretSiren":"791456676","cbAdresse1":"50 rue de Rome","cbAdresse2":"","cbCp":"13001","cbVille":"MARSEILLE","spLibelle1":"","spLibelle2":"","acDateSerment":"","coordinates":[5.3795249,43.2934036]},{"NomBarreau":"MARSEILLE","avNom":"SEPULCRE","avPrenom":"Leo","cbRaisonSociale":"SEPULCRE LEO","cbSiretSiren":"880953633","cbAdresse1":"50 rue de Rome","cbAdresse2":"","cbCp":"13001","cbVille":"MARSEILLE","spLibelle1":"","spLibelle2":"","acDateSerment":"","coordinates":[5.3795249,43.2934036]},{"NomBarreau":"MARSEILLE","avNom":"SERAFINI","avPrenom":"Jean Luc","cbRaisonSociale":"SERAFINI JEAN LUC","cbSiretSiren":"403163454","cbAdresse1":"40 rue Paradis","cbAdresse2":"","cbCp":"13001","cbVille":"MARSEILLE","spLibelle1":"","spLibelle2":"","acDateSerment":"","coordinates":[5.3770572,43.2927949]},{"NomBarreau":"MARSEILLE","avNom":"SEROUSSI","avPrenom":"Hervé","cbRaisonSociale":"SEROUSSI HERVE","cbSiretSiren":"488969064","cbAdresse1":"14 place felix baret","cbAdresse2":"","cbCp":"13006","cbVille":"MARSEILLE","spLibelle1":"","spLibelle2":"","acDateSerment":"","coordinates":[5.3793421,43.2909978]},{"NomBarreau":"MARSEILLE","avNom":"SERROR","avPrenom":"Corinne","cbRaisonSociale":"SERROR CORINNE","cbSiretSiren":"382835577","cbAdresse1":"171 BIS chemin de la madrague ville","cbAdresse2":"","cbCp":"13002","cbVille":"MARSEILLE","spLibelle1":"","spLibelle2":"","acDateSerment":"","coordinates":[5.3632066,43.3236863]},{"NomBarreau":"MARSEILLE","avNom":"SERVANT","avPrenom":"Jean-Christophe","cbRaisonSociale":"OMNIAJURIS AVOCATS","cbSiretSiren":"840740443","cbAdresse1":"47 rue Grignan","cbAdresse2":"","cbCp":"13006","cbVille":"MARSEILLE","spLibelle1":"","spLibelle2":"","acDateSerment":"","coordinates":[5.3766265,43.2920719]},{"NomBarreau":"MARSEILLE","avNom":"SERVE","avPrenom":"Jean-Pascal","cbRaisonSociale":"SERVE JEAN-PASCAL","cbSiretSiren":"434572483","cbAdresse1":"17 rue venture","cbAdresse2":"","cbCp":"13001","cbVille":"MARSEILLE","spLibelle1":"","spLibelle2":"","acDateSerment":"","coordinates":[5.3775776,43.2929145]},{"NomBarreau":"MARSEILLE","avNom":"SETBON","avPrenom":"Olivia","cbRaisonSociale":"SETBON OLIVIA","cbSiretSiren":"791456627","cbAdresse1":"40 boulevard Michelet","cbAdresse2":"","cbCp":"13008","cbVille":"MARSEILLE","spLibelle1":"","spLibelle2":"","acDateSerment":"","coordinates":[5.3945332,43.2665322]},{"NomBarreau":"MARSEILLE","avNom":"SETTEMBRE","avPrenom":"Sabrina","cbRaisonSociale":"SETTEMBRE SABRINA","cbSiretSiren":"881006787","cbAdresse1":"57 rue Grignan","cbAdresse2":"","cbCp":"13006","cbVille":"MARSEILLE","spLibelle1":"","spLibelle2":"","acDateSerment":"","coordinates":[5.3766265,43.2920719]},{"NomBarreau":"MARSEILLE","avNom":"SEUVIC-CONROY","avPrenom":"Marie-Caroline","cbRaisonSociale":"SEUVIC-CONROY MARIE-CAROLINE","cbSiretSiren":"504924945","cbAdresse1":"23 rue sylvabelle","cbAdresse2":"","cbCp":"13006","cbVille":"MARSEILLE","spLibelle1":"","spLibelle2":"","acDateSerment":"","coordinates":[5.3802746,43.2896126]},{"NomBarreau":"MARSEILLE","avNom":"SIAHOU","avPrenom":"Sarah","cbRaisonSociale":"SIAHOU SARAH","cbSiretSiren":"447470923","cbAdresse1":"3 rue d'arcole","cbAdresse2":"","cbCp":"13006","cbVille":"MARSEILLE","spLibelle1":"","spLibelle2":"","acDateSerment":"","coordinates":[5.3762733,43.2893911]},{"NomBarreau":"MARSEILLE","avNom":"SIARY","avPrenom":"Odile","cbRaisonSociale":"SIARY AVOCAT","cbSiretSiren":"913558078","cbAdresse1":"171 chemin de la Madrague Ville","cbAdresse2":"","cbCp":"13015","cbVille":"MARSEILLE","spLibelle1":"","spLibelle2":"","acDateSerment":"","coordinates":[5.3595969,43.3280856]},{"NomBarreau":"MARSEILLE","avNom":"SIBEL","avPrenom":"Agnès","cbRaisonSociale":"SIBEL AVOCATS","cbSiretSiren":"898490941","cbAdresse1":"10 place de la Joliette","cbAdresse2":"Les Docks Atrium 10.3","cbCp":"13002","cbVille":"MARSEILLE","spLibelle1":"","spLibelle2":"","acDateSerment":"","coordinates":[5.3661466,43.3055264]},{"NomBarreau":"MARSEILLE","avNom":"SIGAUD","avPrenom":"Sophie","cbRaisonSociale":"CABINET SOPHIE SIGAUD","cbSiretSiren":"482381167","cbAdresse1":"67 rue de Rome","cbAdresse2":"","cbCp":"13001","cbVille":"MARSEILLE","spLibelle1":"Droit des sociétés","spLibelle2":"","acDateSerment":"","coordinates":[5.3795249,43.2934036]},{"NomBarreau":"MARSEILLE","avNom":"SIGNOURET","avPrenom":"Charlotte","cbRaisonSociale":"ENSEN AVOCATS","cbSiretSiren":"908538416","cbAdresse1":"6 cours Pierre Puget","cbAdresse2":"","cbCp":"13006","cbVille":"MARSEILLE","spLibelle1":"","spLibelle2":"","acDateSerment":"","coordinates":[5.373849,43.2902405]},{"NomBarreau":"MARSEILLE","avNom":"SIGNOURET","avPrenom":"Florence","cbRaisonSociale":"SIGNOURET FLORENCE","cbSiretSiren":"429801285","cbAdresse1":"171 BIS chemin de la madrague ville","cbAdresse2":"","cbCp":"13002","cbVille":"MARSEILLE","spLibelle1":"","spLibelle2":"","acDateSerment":"","coordinates":[5.3632066,43.3236863]},{"NomBarreau":"MARSEILLE","avNom":"SIGRIST","avPrenom":"Arthur","cbRaisonSociale":"SIGRIST ARTHUR","cbSiretSiren":"520300518","cbAdresse1":"77 cours pierre puget","cbAdresse2":"","cbCp":"13006","cbVille":"MARSEILLE","spLibelle1":"","spLibelle2":"","acDateSerment":"","coordinates":[5.373849,43.2902405]},{"NomBarreau":"MARSEILLE","avNom":"SILLAM","avPrenom":"Karine","cbRaisonSociale":"SAJEF AVOCATS","cbSiretSiren":"501698054","cbAdresse1":"6 rue Edmond Rostand","cbAdresse2":"","cbCp":"13006","cbVille":"MARSEILLE","spLibelle1":"","spLibelle2":"","acDateSerment":"","coordinates":[5.3806855,43.2874178]},{"NomBarreau":"MARSEILLE","avNom":"SILVESTRI","avPrenom":"Catherine","cbRaisonSociale":"FIDUCIAIRE JURIDIQUE ET FISCALE DE FRANCE FIDAL","cbSiretSiren":"525031522","cbAdresse1":"79 bd de dunkerque","cbAdresse2":"Immeuble l'Astrolabe","cbCp":"13235","cbVille":"MARSEILLE","spLibelle1":"Droit fiscal et droit douanier","spLibelle2":"","acDateSerment":"","coordinates":[5.3677873,43.3094033]},{"NomBarreau":"MARSEILLE","avNom":"SIMONI","avPrenom":"Vanina","cbRaisonSociale":"SIMONI  VANINA","cbSiretSiren":"451533244","cbAdresse1":"3 rue d arcole","cbAdresse2":"","cbCp":"13006","cbVille":"MARSEILLE","spLibelle1":"","spLibelle2":"","acDateSerment":"","coordinates":[5.3762733,43.2893911]},{"NomBarreau":"MARSEILLE","avNom":"SINAN","avPrenom":"Lina","cbRaisonSociale":"SINAN LINA","cbSiretSiren":"878706647","cbAdresse1":"36 cours Lieutaud","cbAdresse2":"","cbCp":"13001","cbVille":"MARSEILLE","spLibelle1":"","spLibelle2":"","acDateSerment":"","coordinates":[5.3819537,43.2946076]},{"NomBarreau":"MARSEILLE","avNom":"SINDRES","avPrenom":"Gilbert","cbRaisonSociale":"SINDRES GILBERT","cbSiretSiren":"483760484","cbAdresse1":"40 rue Edouard Delanglade","cbAdresse2":"","cbCp":"13006","cbVille":"MARSEILLE","spLibelle1":"","spLibelle2":"","acDateSerment":"","coordinates":[5.3733122,43.2887927]},{"NomBarreau":"MARSEILLE","avNom":"SINGER","avPrenom":"Audrey","cbRaisonSociale":"ENSEN AVOCATS","cbSiretSiren":"908538416","cbAdresse1":"6 cours Pierre Puget","cbAdresse2":"","cbCp":"13006","cbVille":"MARSEILLE","spLibelle1":"","spLibelle2":"","acDateSerment":"","coordinates":[5.373849,43.2902405]},{"NomBarreau":"MARSEILLE","avNom":"SIOEN-GALLINA","avPrenom":"Stéphanie","cbRaisonSociale":"SIOEN-GALLINA  STEPHANIE","cbSiretSiren":"481469567","cbAdresse1":"64 rue montgrand","cbAdresse2":"","cbCp":"13006","cbVille":"MARSEILLE","spLibelle1":"Droit de la propriété intellectuelle","spLibelle2":"Droit du numérique et des communications","acDateSerment":"","coordinates":[5.3759693,43.291175]},{"NomBarreau":"MARSEILLE","avNom":"SION","avPrenom":"Yael","cbRaisonSociale":"SION YAEL","cbSiretSiren":"809832637","cbAdresse1":"565 avenue du Prado","cbAdresse2":"","cbCp":"13008","cbVille":"MARSEILLE","spLibelle1":"","spLibelle2":"","acDateSerment":"","coordinates":[5.3767223,43.2628615]},{"NomBarreau":"MARSEILLE","avNom":"SIRI","avPrenom":"Bernard","cbRaisonSociale":"SIRI BERNARD","cbSiretSiren":"409215407","cbAdresse1":"123 traverse parangon","cbAdresse2":"residence marseilleveyre  bat FI","cbCp":"13008","cbVille":"MARSEILLE","spLibelle1":"","spLibelle2":"","acDateSerment":"","coordinates":[5.3777244,43.2380817]},{"NomBarreau":"MARSEILLE","avNom":"SITRI","avPrenom":"David","cbRaisonSociale":"SELARL SENSE AVOCATS","cbSiretSiren":"487808347","cbAdresse1":"2 rue odette jasse","cbAdresse2":"","cbCp":"13015","cbVille":"MARSEILLE","spLibelle1":"Droit fiscal et droit douanier","spLibelle2":"","acDateSerment":"","coordinates":[5.3708808,43.3429259]},{"NomBarreau":"MARSEILLE","avNom":"SLUCKI","avPrenom":"Marianne","cbRaisonSociale":"SLUCKI MARIANNE","cbSiretSiren":"325401487","cbAdresse1":"104 rue Paradis","cbAdresse2":"","cbCp":"13006","cbVille":"MARSEILLE","spLibelle1":"","spLibelle2":"","acDateSerment":"","coordinates":[5.3785635,43.2890167]},{"NomBarreau":"MARSEILLE","avNom":"SMER-GEOFFROY","avPrenom":"Laurence","cbRaisonSociale":"SMER  LAURENCE","cbSiretSiren":"529749236","cbAdresse1":"26 rue Montgrand","cbAdresse2":"","cbCp":"13006","cbVille":"MARSEILLE","spLibelle1":"","spLibelle2":"","acDateSerment":"","coordinates":[5.3782545,43.2916442]},{"NomBarreau":"MARSEILLE","avNom":"SOCRATE","avPrenom":"Jean-Marc","cbRaisonSociale":"SOCRATE JEAN-MARC","cbSiretSiren":"389027483","cbAdresse1":"57 rue Paradis","cbAdresse2":"","cbCp":"13006","cbVille":"MARSEILLE","spLibelle1":"","spLibelle2":"","acDateSerment":"","coordinates":[5.3775471,43.2917892]},{"NomBarreau":"MARSEILLE","avNom":"SOGLO","avPrenom":"Honoré Romain","cbRaisonSociale":"SOGLO HONORE ROMAIN","cbSiretSiren":"882758766","cbAdresse1":"21 Grignan","cbAdresse2":"","cbCp":"13006","cbVille":"MARSEILLE","spLibelle1":"","spLibelle2":"","acDateSerment":"","coordinates":[5.3779076,43.2923309]},{"NomBarreau":"MARSEILLE","avNom":"SOLAGNA","avPrenom":"Cathy","cbRaisonSociale":"SOLAGNA CATHY","cbSiretSiren":"828976621","cbAdresse1":"8 rue Falque","cbAdresse2":"","cbCp":"13006","cbVille":"MARSEILLE","spLibelle1":"","spLibelle2":"","acDateSerment":"","coordinates":[5.3834171,43.284543]},{"NomBarreau":"MARSEILLE","avNom":"SOLER","avPrenom":"Céline","cbRaisonSociale":"SOLER CELINE","cbSiretSiren":"751674664","cbAdresse1":"222 avenue de Mazargues","cbAdresse2":"Résidence Tourville","cbCp":"13008","cbVille":"MARSEILLE","spLibelle1":"","spLibelle2":"","acDateSerment":"","coordinates":[5.3908182,43.2651435]},{"NomBarreau":"MARSEILLE","avNom":"SOLER","avPrenom":"Marion","cbRaisonSociale":"SOLER MARION","cbSiretSiren":"848442794","cbAdresse1":"23 rue sylvabelle","cbAdresse2":"","cbCp":"13006","cbVille":"MARSEILLE","spLibelle1":"","spLibelle2":"","acDateSerment":"","coordinates":[5.3802746,43.2896126]},{"NomBarreau":"MARSEILLE","avNom":"SONGUE-BALOUKI","avPrenom":"Mawaba","cbRaisonSociale":"SONGUE-BALOUKI MAWABA","cbSiretSiren":"539326892","cbAdresse1":"7 rue Gustave Ricard","cbAdresse2":"","cbCp":"13006","cbVille":"MARSEILLE","spLibelle1":"","spLibelle2":"","acDateSerment":"","coordinates":[5.3770611,43.2913564]},{"NomBarreau":"MARSEILLE","avNom":"SOOBEN","avPrenom":"Velen","cbRaisonSociale":"PIOS AVOCATS","cbSiretSiren":"508968096","cbAdresse1":"135 rue Paradis","cbAdresse2":"","cbCp":"13006","cbVille":"MARSEILLE","spLibelle1":"","spLibelle2":"","acDateSerment":"","coordinates":[5.3792034,43.2878843]},{"NomBarreau":"MARSEILLE","avNom":"SOPHIE","avPrenom":"Aurélie","cbRaisonSociale":"SOPHIE AURELIE","cbSiretSiren":"790577613","cbAdresse1":"15 rue Fortia","cbAdresse2":"","cbCp":"13001","cbVille":"MARSEILLE","spLibelle1":"","spLibelle2":"","acDateSerment":"","coordinates":[5.3741603,43.2920196]},{"NomBarreau":"MARSEILLE","avNom":"SOUCHE-MARTINEZ","avPrenom":"Christine","cbRaisonSociale":"MASSILIA SOCIAL CODE","cbSiretSiren":"789832219","cbAdresse1":"19 A rue venture","cbAdresse2":"","cbCp":"13001","cbVille":"MARSEILLE","spLibelle1":"Droit de la sécurité sociale et de la protection sociale","spLibelle2":"Droit du travail","acDateSerment":"","coordinates":[5.3773868,43.2928451]},{"NomBarreau":"MARSEILLE","avNom":"SOUCHON","avPrenom":"Marie","cbRaisonSociale":"SOUCHON MARIE","cbSiretSiren":"948004148","cbAdresse1":"12 rue Breteuil","cbAdresse2":"","cbCp":"13001","cbVille":"MARSEILLE","spLibelle1":"","spLibelle2":"","acDateSerment":"","coordinates":[5.3749879,43.2921816]},{"NomBarreau":"MARSEILLE","avNom":"SOUDRY","avPrenom":"Elie-Raphael","cbRaisonSociale":"SOUDRY ELIE-RAPHAEL","cbSiretSiren":"","cbAdresse1":"305 A avenue du prado","cbAdresse2":"","cbCp":"13008","cbVille":"MARSEILLE","spLibelle1":"","spLibelle2":"","acDateSerment":"","coordinates":[5.3905475,43.2717321]},{"NomBarreau":"MARSEILLE","avNom":"SOULAN","avPrenom":"Nadine","cbRaisonSociale":"SOULAN NADINE","cbSiretSiren":"410792501","cbAdresse1":"66 rue grignan","cbAdresse2":"","cbCp":"13001","cbVille":"MARSEILLE","spLibelle1":"","spLibelle2":"","acDateSerment":"","coordinates":[5.3749743,43.2917319]},{"NomBarreau":"MARSEILLE","avNom":"SOULAS","avPrenom":"Dorothée","cbRaisonSociale":"LESCUDIER & ASSOCIES","cbSiretSiren":"912400660","cbAdresse1":"15 Cours Pierre Puget","cbAdresse2":"","cbCp":"13006","cbVille":"MARSEILLE","spLibelle1":"","spLibelle2":"","acDateSerment":"","coordinates":[5.3734474,43.2900237]},{"NomBarreau":"MARSEILLE","avNom":"SPADOLA","avPrenom":"René","cbRaisonSociale":"HAUSSMAN-PARADIS","cbSiretSiren":"750440604","cbAdresse1":"135 rue paradis","cbAdresse2":"","cbCp":"13006","cbVille":"MARSEILLE","spLibelle1":"","spLibelle2":"","acDateSerment":"","coordinates":[5.3792034,43.2878843]},{"NomBarreau":"MARSEILLE","avNom":"SPERANZA","avPrenom":"Richard","cbRaisonSociale":"SPERANZA RICHARD","cbSiretSiren":"433835857","cbAdresse1":"14 rue Fortia","cbAdresse2":"","cbCp":"13001","cbVille":"MARSEILLE","spLibelle1":"","spLibelle2":"","acDateSerment":"","coordinates":[5.3735583,43.2931011]},{"NomBarreau":"MARSEILLE","avNom":"SPINELLI","avPrenom":"Sylvie","cbRaisonSociale":"SPINELLI  SYLVIE","cbSiretSiren":"389085572","cbAdresse1":"232 avenue du Prado","cbAdresse2":"","cbCp":"13008","cbVille":"MARSEILLE","spLibelle1":"","spLibelle2":"","acDateSerment":"","coordinates":[5.3890416,43.2758342]},{"NomBarreau":"MARSEILLE","avNom":"SPITERI","avPrenom":"Stéphanie","cbRaisonSociale":"SPITERI STEPHANIE","cbSiretSiren":"524469343","cbAdresse1":"99 rue de Rome","cbAdresse2":"","cbCp":"13006","cbVille":"MARSEILLE","spLibelle1":"","spLibelle2":"","acDateSerment":"","coordinates":[5.3805591,43.2917043]},{"NomBarreau":"MARSEILLE","avNom":"STALLA","avPrenom":"Agnès","cbRaisonSociale":"STALLA AGNES","cbSiretSiren":"400481024","cbAdresse1":"16 passage timon david","cbAdresse2":"","cbCp":"13001","cbVille":"MARSEILLE","spLibelle1":"","spLibelle2":"","acDateSerment":"","coordinates":[5.3746635,43.2917911]},{"NomBarreau":"MARSEILLE","avNom":"STARK","avPrenom":"Jasna","cbRaisonSociale":"STARK JASNA","cbSiretSiren":"432413557","cbAdresse1":"2 rue lafon","cbAdresse2":"","cbCp":"13006","cbVille":"MARSEILLE","spLibelle1":"","spLibelle2":"","acDateSerment":"","coordinates":[5.3809887,43.2912099]},{"NomBarreau":"MARSEILLE","avNom":"STEIN","avPrenom":"Shéhérazade","cbRaisonSociale":"STEIN SHEHERAZADE","cbSiretSiren":"908110992","cbAdresse1":"64 rue sylvabelle","cbAdresse2":"","cbCp":"13006","cbVille":"MARSEILLE","spLibelle1":"","spLibelle2":"","acDateSerment":"","coordinates":[5.3769073,43.2887831]},{"NomBarreau":"MARSEILLE","avNom":"STELLA","avPrenom":"Rémy","cbRaisonSociale":"DEFENZ","cbSiretSiren":"481471902","cbAdresse1":"64 rue montgrand","cbAdresse2":"","cbCp":"13006","cbVille":"MARSEILLE","spLibelle1":"","spLibelle2":"","acDateSerment":"","coordinates":[5.3759693,43.291175]},{"NomBarreau":"MARSEILLE","avNom":"STIOUI","avPrenom":"Julie","cbRaisonSociale":"KARAA","cbSiretSiren":"894370048","cbAdresse1":"36 cours Lieutaud","cbAdresse2":"","cbCp":"13001","cbVille":"MARSEILLE","spLibelle1":"","spLibelle2":"","acDateSerment":"","coordinates":[5.3819537,43.2946076]},{"NomBarreau":"MARSEILLE","avNom":"STOFATI","avPrenom":"Marion","cbRaisonSociale":"STOFATI MARION","cbSiretSiren":"849745393","cbAdresse1":"10 place de la Joliette","cbAdresse2":"Les Docks atrium 10.4","cbCp":"13002","cbVille":"MARSEILLE","spLibelle1":"","spLibelle2":"","acDateSerment":"","coordinates":[5.3661466,43.3055264]},{"NomBarreau":"MARSEILLE","avNom":"STRABONI","avPrenom":"Louisa","cbRaisonSociale":"VIDAPARM","cbSiretSiren":"848018214","cbAdresse1":"119 rue Paradis","cbAdresse2":"","cbCp":"13006","cbVille":"MARSEILLE","spLibelle1":"","spLibelle2":"","acDateSerment":"","coordinates":[5.3789407,43.288512]},{"NomBarreau":"MARSEILLE","avNom":"STUCKEY","avPrenom":"Robin","cbRaisonSociale":"ONE","cbSiretSiren":"493362792","cbAdresse1":"1 Place Felix Baret","cbAdresse2":"","cbCp":"13006","cbVille":"MARSEILLE","spLibelle1":"","spLibelle2":"","acDateSerment":"","coordinates":[5.379532551369564,43.29133385]},{"NomBarreau":"MARSEILLE","avNom":"SUBE","avPrenom":"Julien","cbRaisonSociale":"SUBE JULIEN","cbSiretSiren":"530037266","cbAdresse1":"36 rue Edouard Delanglade","cbAdresse2":"","cbCp":"13006","cbVille":"MARSEILLE","spLibelle1":"","spLibelle2":"","acDateSerment":"","coordinates":[5.3730052,43.2885942]},{"NomBarreau":"MARSEILLE","avNom":"SUDOUR","avPrenom":"Nicole","cbRaisonSociale":"S.A.M.H & LEPERRE","cbSiretSiren":"488380965","cbAdresse1":"31 rue Grignan","cbAdresse2":"","cbCp":"13006","cbVille":"MARSEILLE","spLibelle1":"Droit fiscal et droit douanier","spLibelle2":"","acDateSerment":"","coordinates":[5.3766265,43.2920719]},{"NomBarreau":"MARSEILLE","avNom":"SUSINI","avPrenom":"Jérome","cbRaisonSociale":"SMGN AVOCATS","cbSiretSiren":"888296456","cbAdresse1":"33 rue Francis Davso","cbAdresse2":"","cbCp":"13001","cbVille":"MARSEILLE","spLibelle1":"","spLibelle2":"","acDateSerment":"","coordinates":[5.3773033,43.2933329]},{"NomBarreau":"MARSEILLE","avNom":"SUZAN","avPrenom":"Agnès","cbRaisonSociale":"AGNES SUZAN","cbSiretSiren":"539217885","cbAdresse1":"7 rue grignan","cbAdresse2":"","cbCp":"13006","cbVille":"MARSEILLE","spLibelle1":"","spLibelle2":"","acDateSerment":"","coordinates":[5.3792576,43.2926338]},{"NomBarreau":"MARSEILLE","avNom":"TABARKI","avPrenom":"Sondra","cbRaisonSociale":"TABARKI SONDRA","cbSiretSiren":"501850192","cbAdresse1":"83 rue sylvabelle","cbAdresse2":"","cbCp":"13006","cbVille":"MARSEILLE","spLibelle1":"Droit pénal","spLibelle2":"","acDateSerment":"","coordinates":[5.3757366,43.2884015]},{"NomBarreau":"MARSEILLE","avNom":"TAGUELMINT","avPrenom":"Yones","cbRaisonSociale":"TAGUELMINT YONES","cbSiretSiren":"880754718","cbAdresse1":"22 Rue Edouard DELANGLADE","cbAdresse2":"","cbCp":"13006","cbVille":"MARSEILLE","spLibelle1":"","spLibelle2":"","acDateSerment":"","coordinates":[5.3745002,43.2890533]},{"NomBarreau":"MARSEILLE","avNom":"TAIBI-HOVSEPIAN","avPrenom":"Anne","cbRaisonSociale":"TAIBI-HOVSEPIAN ANNE","cbSiretSiren":"400468054","cbAdresse1":"14 RUE BRETEUIL","cbAdresse2":"","cbCp":"13001","cbVille":"MARSEILLE","spLibelle1":"","spLibelle2":"","acDateSerment":"","coordinates":[5.3750297,43.2920799]},{"NomBarreau":"MARSEILLE","avNom":"TAIEB","avPrenom":"William","cbRaisonSociale":"TAIEB WILLIAM","cbSiretSiren":"892641424","cbAdresse1":"16 rue breteuil","cbAdresse2":"","cbCp":"13001","cbVille":"MARSEILLE","spLibelle1":"","spLibelle2":"","acDateSerment":"","coordinates":[5.3750594,43.292007]},{"NomBarreau":"MARSEILLE","avNom":"TAIEBI","avPrenom":"Amine","cbRaisonSociale":"TAIEBI AMINE","cbSiretSiren":"532139730","cbAdresse1":"5 rue Francis Davso","cbAdresse2":"","cbCp":"13001","cbVille":"MARSEILLE","spLibelle1":"","spLibelle2":"","acDateSerment":"","coordinates":[5.3788675,43.2936959]},{"NomBarreau":"MARSEILLE","avNom":"TAILLEPIED","avPrenom":"Thomas","cbRaisonSociale":"TAILLEPIED THOMAS","cbSiretSiren":"750596629","cbAdresse1":"37 rue Montgrand","cbAdresse2":"","cbCp":"13006","cbVille":"MARSEILLE","spLibelle1":"","spLibelle2":"","acDateSerment":"","coordinates":[5.3776205,43.291469]},{"NomBarreau":"MARSEILLE","avNom":"TALLENDIER","avPrenom":"Yves","cbRaisonSociale":"CAPSTAN - PYTHEAS","cbSiretSiren":"495125478","cbAdresse1":"23 rue sylvabelle","cbAdresse2":"","cbCp":"13006","cbVille":"MARSEILLE","spLibelle1":"Droit de la sécurité sociale et de la protection sociale","spLibelle2":"Droit du travail","acDateSerment":"","coordinates":[5.3802746,43.2896126]},{"NomBarreau":"MARSEILLE","avNom":"TALRICH","avPrenom":"Léa","cbRaisonSociale":"KARAA","cbSiretSiren":"894370048","cbAdresse1":"36 cours Lieutaud","cbAdresse2":"","cbCp":"13001","cbVille":"MARSEILLE","spLibelle1":"","spLibelle2":"","acDateSerment":"","coordinates":[5.3819537,43.2946076]},{"NomBarreau":"MARSEILLE","avNom":"TAMENE","avPrenom":"Zineb","cbRaisonSociale":"TAMENE ZINEB","cbSiretSiren":"347952954","cbAdresse1":"24 bd Garibaldi","cbAdresse2":"","cbCp":"13001","cbVille":"MARSEILLE","spLibelle1":"","spLibelle2":"","acDateSerment":"","coordinates":[5.3811676,43.2964623]},{"NomBarreau":"MARSEILLE","avNom":"TANTIN","avPrenom":"Ludovic","cbRaisonSociale":"TANTIN LUDOVIC","cbSiretSiren":"828151027","cbAdresse1":"35 rue saint jacques","cbAdresse2":"","cbCp":"13006","cbVille":"MARSEILLE","spLibelle1":"","spLibelle2":"","acDateSerment":"","coordinates":[5.3796427,43.2887757]},{"NomBarreau":"MARSEILLE","avNom":"TAPIERO","avPrenom":"Thomas","cbRaisonSociale":"TAPIERO THOMAS","cbSiretSiren":"817597628","cbAdresse1":"92 rue Sylvabelle","cbAdresse2":"","cbCp":"13006","cbVille":"MARSEILLE","spLibelle1":"","spLibelle2":"","acDateSerment":"","coordinates":[5.3753962,43.2884029]},{"NomBarreau":"MARSEILLE","avNom":"TAPIN-REBOUL","avPrenom":"Camille","cbRaisonSociale":"TAPIN-REBOUL CAMILLE","cbSiretSiren":"440690881","cbAdresse1":"39 rue paradis","cbAdresse2":"","cbCp":"13001","cbVille":"MARSEILLE","spLibelle1":"","spLibelle2":"","acDateSerment":"","coordinates":[5.3770572,43.2927949]},{"NomBarreau":"MARSEILLE","avNom":"TARASCONI","avPrenom":"Daniel","cbRaisonSociale":"TARASCONI DANIEL","cbSiretSiren":"308183326","cbAdresse1":"7 rue Bel Air","cbAdresse2":"","cbCp":"13006","cbVille":"MARSEILLE","spLibelle1":"Droit de la famille, des personnes et de leur patrimoine","spLibelle2":"Droit pénal","acDateSerment":"","coordinates":[5.3823994,43.2895604]},{"NomBarreau":"MARSEILLE","avNom":"TARDIVET","avPrenom":"Laurence","cbRaisonSociale":"TARDIVET LAURENCE","cbSiretSiren":"800059032","cbAdresse1":"171 BIS chemin de la madrague ville","cbAdresse2":"","cbCp":"13002","cbVille":"MARSEILLE","spLibelle1":"","spLibelle2":"","acDateSerment":"","coordinates":[5.3632066,43.3236863]},{"NomBarreau":"MARSEILLE","avNom":"TARIN","avPrenom":"Guillaume","cbRaisonSociale":"TARIN LEMARIE","cbSiretSiren":"808488464","cbAdresse1":"16 rue neuve sainte catherine","cbAdresse2":"","cbCp":"13007","cbVille":"MARSEILLE","spLibelle1":"","spLibelle2":"","acDateSerment":"","coordinates":[5.3698022,43.2922561]},