[{"NomBarreau":"MELUN","avNom":"AYALA","avPrenom":"Brice","cbRaisonSociale":"BOUAZIZ -  SERRA - AYALA - BONLIEU - LE MEN - HAYOUN","cbSiretSiren":"304438849","cbAdresse1":"3 quai Foch","cbAdresse2":"","cbCp":"77000","cbVille":"MELUN","spLibelle1":"","spLibelle2":"","acDateSerment":"","coordinates":[2.6608516,48.5370609]},{"NomBarreau":"MELUN","avNom":"BESSON","avPrenom":"Justine","cbRaisonSociale":"BESSON JUSTINE","cbSiretSiren":"848965273","cbAdresse1":"42 rue du Docteur Pouillot","cbAdresse2":"","cbCp":"77000","cbVille":"MELUN","spLibelle1":"","spLibelle2":"","acDateSerment":"","coordinates":[2.6482844,48.5320565]},{"NomBarreau":"MELUN","avNom":"BOISSAVY","avPrenom":"Agathe","cbRaisonSociale":"JOVE-LANGAGNE-BOISSAVY-AVOCATS","cbSiretSiren":"790475834","cbAdresse1":"42 rue du Docteur Pouillot","cbAdresse2":"","cbCp":"77000","cbVille":"MELUN","spLibelle1":"","spLibelle2":"","acDateSerment":"","coordinates":[2.6482844,48.5320565]},{"NomBarreau":"MELUN","avNom":"BOUJNAH","avPrenom":"Hakim","cbRaisonSociale":"BOUJNAH HAKIM","cbSiretSiren":"844496778","cbAdresse1":"7 place de l'Ermitage","cbAdresse2":"","cbCp":"77000","cbVille":"MELUN","spLibelle1":"","spLibelle2":"","acDateSerment":"","coordinates":[2.6537882,48.5263247]},{"NomBarreau":"MELUN","avNom":"BOURICARD","avPrenom":"Jérome","cbRaisonSociale":"BOURICARD","cbSiretSiren":"431918820","cbAdresse1":"32 rue Saint Ambroise","cbAdresse2":"","cbCp":"77000","cbVille":"MELUN","spLibelle1":"","spLibelle2":"","acDateSerment":"","coordinates":[2.6574326,48.5350505]},{"NomBarreau":"MELUN","avNom":"BOUSQUET","avPrenom":"Nicolas","cbRaisonSociale":"BOUSQUET","cbSiretSiren":"790038806","cbAdresse1":"5 place Gallieni","cbAdresse2":"","cbCp":"77000","cbVille":"MELUN","spLibelle1":"","spLibelle2":"","acDateSerment":"","coordinates":[2.6551968,48.5280324]},{"NomBarreau":"MELUN","avNom":"CAZENAVE","avPrenom":"Audrey","cbRaisonSociale":"CAZENAVE","cbSiretSiren":"439465923","cbAdresse1":"2 avenue Armand de la Rochette","cbAdresse2":"","cbCp":"77000","cbVille":"MELUN","spLibelle1":"","spLibelle2":"","acDateSerment":"","coordinates":[2.6554412,48.5255197]},{"NomBarreau":"MELUN","avNom":"CHOLLET","avPrenom":"Christelle","cbRaisonSociale":"LCA - LES CONSEILS ASSOCIES","cbSiretSiren":"893302646","cbAdresse1":"34 rue de l'Ecluse","cbAdresse2":"","cbCp":"77000","cbVille":"MELUN","spLibelle1":"","spLibelle2":"","acDateSerment":"","coordinates":[2.6493604,48.5358503]},{"NomBarreau":"MELUN","avNom":"CHRETIEN","avPrenom":"Pascale","cbRaisonSociale":"CHRETIEN","cbSiretSiren":"392872347","cbAdresse1":"13 boulevard Aristide Briand","cbAdresse2":"","cbCp":"77000","cbVille":"MELUN","spLibelle1":"","spLibelle2":"","acDateSerment":"","coordinates":[2.6508951,48.541521]},{"NomBarreau":"MELUN","avNom":"CLAUDE","avPrenom":"Maximilien","cbRaisonSociale":"CLAUDE","cbSiretSiren":"488514530","cbAdresse1":"5 B rue Rosa Bonheur","cbAdresse2":"","cbCp":"77000","cbVille":"MELUN","spLibelle1":"","spLibelle2":"","acDateSerment":"","coordinates":[2.6556612,48.519912]},{"NomBarreau":"MELUN","avNom":"DESENLIS","avPrenom":"Lucie","cbRaisonSociale":"NEGREVERGNE FONTAINE DESENLIS","cbSiretSiren":"312643430","cbAdresse1":"7 place Gallieni","cbAdresse2":"","cbCp":"77000","cbVille":"MELUN","spLibelle1":"","spLibelle2":"","acDateSerment":"","coordinates":[2.6551968,48.5280324]},{"NomBarreau":"MELUN","avNom":"DOS SANTOS","avPrenom":"Lucilia","cbRaisonSociale":"DOS SANTOS","cbSiretSiren":"810582692","cbAdresse1":"5 place Gallieni","cbAdresse2":"","cbCp":"77000","cbVille":"MELUN","spLibelle1":"","spLibelle2":"","acDateSerment":"","coordinates":[2.6551968,48.5280324]},{"NomBarreau":"MELUN","avNom":"DUKIC","avPrenom":"Diana","cbRaisonSociale":"DUKIC","cbSiretSiren":"452642846","cbAdresse1":"1 rue Barthel","cbAdresse2":"","cbCp":"77000","cbVille":"MELUN","spLibelle1":"","spLibelle2":"","acDateSerment":"","coordinates":[2.6568196,48.5393606]},{"NomBarreau":"MELUN","avNom":"DUPIN","avPrenom":"Emile","cbRaisonSociale":"DUPIN EMILE","cbSiretSiren":"819769001","cbAdresse1":"13 boulevard Aristide Briand","cbAdresse2":"","cbCp":"77000","cbVille":"MELUN","spLibelle1":"","spLibelle2":"","acDateSerment":"","coordinates":[2.6508951,48.541521]},{"NomBarreau":"MELUN","avNom":"ESCUDIER","avPrenom":"Bérengère","cbRaisonSociale":"ESCUDIER","cbSiretSiren":"810073577","cbAdresse1":"22 rue Dajot","cbAdresse2":"","cbCp":"77000","cbVille":"MELUN","spLibelle1":"","spLibelle2":"","acDateSerment":"","coordinates":[2.6603371,48.5324594]},{"NomBarreau":"MELUN","avNom":"FONTENEAU","avPrenom":"Nathalie","cbRaisonSociale":"FONTENEAU","cbSiretSiren":"504093204","cbAdresse1":"15 avenue Armand de la Rochette","cbAdresse2":"","cbCp":"77000","cbVille":"MELUN","spLibelle1":"","spLibelle2":"","acDateSerment":"","coordinates":[2.6554412,48.5255197]},{"NomBarreau":"MELUN","avNom":"GERNIGON","avPrenom":"Domitille","cbRaisonSociale":"GERNIGON","cbSiretSiren":"389235185","cbAdresse1":"2 avenue Armand de la Rochette","cbAdresse2":"","cbCp":"77000","cbVille":"MELUN","spLibelle1":"","spLibelle2":"","acDateSerment":"","coordinates":[2.6554412,48.5255197]},{"NomBarreau":"MELUN","avNom":"GOMES-GONCALVES","avPrenom":"Danièla","cbRaisonSociale":"GOMES-GONCALVES","cbSiretSiren":"440290468","cbAdresse1":"6 Boulevard Henri Chapu","cbAdresse2":"","cbCp":"77000","cbVille":"MELUN","spLibelle1":"","spLibelle2":"","acDateSerment":"","coordinates":[2.6578614,48.5344706]},{"NomBarreau":"MELUN","avNom":"GORWOOD","avPrenom":"Wendy","cbRaisonSociale":"GORWOOD WENDY","cbSiretSiren":"800907149","cbAdresse1":"21 avenue Thiers","cbAdresse2":"","cbCp":"77000","cbVille":"MELUN","spLibelle1":"","spLibelle2":"","acDateSerment":"","coordinates":[2.6562328,48.5326583]},{"NomBarreau":"MELUN","avNom":"GRANGEON","avPrenom":"Christine","cbRaisonSociale":"MERLIN GRANGEON","cbSiretSiren":"807481965","cbAdresse1":"9 quai foch","cbAdresse2":"","cbCp":"77000","cbVille":"MELUN","spLibelle1":"","spLibelle2":"","acDateSerment":"","coordinates":[2.6608516,48.5370609]},{"NomBarreau":"MELUN","avNom":"HANKE","avPrenom":"Magali","cbRaisonSociale":"HANKE","cbSiretSiren":"435009246","cbAdresse1":"1 rue Rosa Bonheur","cbAdresse2":"","cbCp":"77000","cbVille":"MELUN","spLibelle1":"","spLibelle2":"","acDateSerment":"","coordinates":[2.6556612,48.519912]},{"NomBarreau":"MELUN","avNom":"HAYOUN","avPrenom":"Jenny","cbRaisonSociale":"BOUAZIZ -  SERRA - AYALA - BONLIEU - LE MEN - HAYOUN","cbSiretSiren":"304438849","cbAdresse1":"3 quai Foch","cbAdresse2":"","cbCp":"77000","cbVille":"MELUN","spLibelle1":"","spLibelle2":"","acDateSerment":"","coordinates":[2.6608516,48.5370609]},{"NomBarreau":"MELUN","avNom":"HEFTMAN","avPrenom":"Patrick","cbRaisonSociale":"HEFTMAN","cbSiretSiren":"353763410","cbAdresse1":"5 BIS Rue Rosa Bonheur","cbAdresse2":"","cbCp":"77000","cbVille":"MELUN","spLibelle1":"","spLibelle2":"","acDateSerment":"","coordinates":[2.6556612,48.519912]},{"NomBarreau":"MELUN","avNom":"HENRY- WEISSGERBER","avPrenom":"Cécile","cbRaisonSociale":"HENRY-WEISSGERBER","cbSiretSiren":"489345355","cbAdresse1":"22 rue Dajot","cbAdresse2":"","cbCp":"77000","cbVille":"MELUN","spLibelle1":"","spLibelle2":"","acDateSerment":"","coordinates":[2.6603371,48.5324594]},{"NomBarreau":"MELUN","avNom":"JERONIMO","avPrenom":"Vasco","cbRaisonSociale":"LCA - LES CONSEILS ASSOCIES","cbSiretSiren":"893302646","cbAdresse1":"34 rue de l'Ecluse","cbAdresse2":"","cbCp":"77000","cbVille":"MELUN","spLibelle1":"","spLibelle2":"","acDateSerment":"","coordinates":[2.6493604,48.5358503]},{"NomBarreau":"MELUN","avNom":"JOVE DEJAIFFE","avPrenom":"Thierry","cbRaisonSociale":"JOVE-LANGAGNE-BOISSAVY-AVOCATS","cbSiretSiren":"790475834","cbAdresse1":"42 rue du Docteur Pouillot","cbAdresse2":"","cbCp":"77000","cbVille":"MELUN","spLibelle1":"","spLibelle2":"","acDateSerment":"","coordinates":[2.6482844,48.5320565]},{"NomBarreau":"MELUN","avNom":"LANGAGNE","avPrenom":"Lia","cbRaisonSociale":"JOVE-LANGAGNE-BOISSAVY-AVOCATS","cbSiretSiren":"790475834","cbAdresse1":"42 rue du Docteur Pouillot","cbAdresse2":"","cbCp":"77000","cbVille":"MELUN","spLibelle1":"","spLibelle2":"","acDateSerment":"","coordinates":[2.6482844,48.5320565]},{"NomBarreau":"MELUN","avNom":"LARA","avPrenom":"Khéops","cbRaisonSociale":"LARA","cbSiretSiren":"441327129","cbAdresse1":"5 place de l'Ermitage","cbAdresse2":"","cbCp":"77000","cbVille":"MELUN","spLibelle1":"","spLibelle2":"","acDateSerment":"","coordinates":[2.6537882,48.5263247]},{"NomBarreau":"MELUN","avNom":"LAROSE","avPrenom":"Eglantine","cbRaisonSociale":"LAROSE","cbSiretSiren":"803001304","cbAdresse1":"5 place Gallieni","cbAdresse2":"","cbCp":"77000","cbVille":"MELUN","spLibelle1":"","spLibelle2":"","acDateSerment":"","coordinates":[2.6551968,48.5280324]},{"NomBarreau":"MELUN","avNom":"LASSIEUR","avPrenom":"Christian","cbRaisonSociale":"LCA - LES CONSEILS ASSOCIES","cbSiretSiren":"893302646","cbAdresse1":"34 rue de l'Ecluse","cbAdresse2":"","cbCp":"77000","cbVille":"MELUN","spLibelle1":"Droit des sociétés","spLibelle2":"Droit du travail","acDateSerment":"","coordinates":[2.6493604,48.5358503]},{"NomBarreau":"MELUN","avNom":"LAURENT","avPrenom":"Olivier","cbRaisonSociale":"LAURENT OLIVIER","cbSiretSiren":"420869398","cbAdresse1":"49 Rue de Dammarie","cbAdresse2":"","cbCp":"77000","cbVille":"MELUN","spLibelle1":"","spLibelle2":"","acDateSerment":"","coordinates":[2.6540165,48.5325262]},{"NomBarreau":"MELUN","avNom":"LEBLANC","avPrenom":"Céline","cbRaisonSociale":"LEBLANC","cbSiretSiren":"445064488","cbAdresse1":"21 Avenue Thiers","cbAdresse2":"","cbCp":"77000","cbVille":"MELUN","spLibelle1":"","spLibelle2":"","acDateSerment":"","coordinates":[2.6562328,48.5326583]},{"NomBarreau":"MELUN","avNom":"LOICHOT","avPrenom":"Jean-Baptiste","cbRaisonSociale":"LOICHOT","cbSiretSiren":"521436881","cbAdresse1":"21 avenue Thiers","cbAdresse2":"","cbCp":"77000","cbVille":"MELUN","spLibelle1":"","spLibelle2":"","acDateSerment":"","coordinates":[2.6562328,48.5326583]},{"NomBarreau":"MELUN","avNom":"MARIES","avPrenom":"Sandrine","cbRaisonSociale":"MARIES ET TEXIER","cbSiretSiren":"490063773","cbAdresse1":"1 rue Armand Cassagne","cbAdresse2":"","cbCp":"77000","cbVille":"MELUN","spLibelle1":"","spLibelle2":"","acDateSerment":"","coordinates":[2.6580469,48.5331555]},{"NomBarreau":"MELUN","avNom":"MARTINS","avPrenom":"Isabelle","cbRaisonSociale":"MARTINS","cbSiretSiren":"510866205","cbAdresse1":"13 boulevard Aristide Briand","cbAdresse2":"","cbCp":"77000","cbVille":"MELUN","spLibelle1":"","spLibelle2":"","acDateSerment":"","coordinates":[2.6508951,48.541521]},{"NomBarreau":"MELUN","avNom":"MEAR","avPrenom":"Guillaume","cbRaisonSociale":"MALPEL ET ASSOCIES","cbSiretSiren":"304247166","cbAdresse1":"21 avenue Thiers","cbAdresse2":"","cbCp":"77000","cbVille":"MELUN","spLibelle1":"","spLibelle2":"","acDateSerment":"","coordinates":[2.6562328,48.5326583]},{"NomBarreau":"MELUN","avNom":"MIRGODIN","avPrenom":"Anne Lise","cbRaisonSociale":"MIRGODIN","cbSiretSiren":"509233789","cbAdresse1":"15 avenue Armand de la Rochette","cbAdresse2":"","cbCp":"77000","cbVille":"MELUN","spLibelle1":"","spLibelle2":"","acDateSerment":"","coordinates":[2.6554412,48.5255197]},{"NomBarreau":"MELUN","avNom":"MONTERO","avPrenom":"Sylvie","cbRaisonSociale":"MONTERO","cbSiretSiren":"351621974","cbAdresse1":"2 avenue Armand de la Rochette","cbAdresse2":"","cbCp":"77000","cbVille":"MELUN","spLibelle1":"","spLibelle2":"","acDateSerment":"","coordinates":[2.6554412,48.5255197]},{"NomBarreau":"MELUN","avNom":"PELLIET RIBEYRE","avPrenom":"Muriel","cbRaisonSociale":"PELLIET RIBEYRE","cbSiretSiren":"402024707","cbAdresse1":"9 place de l'Ermitage","cbAdresse2":"","cbCp":"77000","cbVille":"MELUN","spLibelle1":"","spLibelle2":"","acDateSerment":"","coordinates":[2.6537882,48.5263247]},{"NomBarreau":"MELUN","avNom":"POIRIER","avPrenom":"Florence","cbRaisonSociale":"POIRIER","cbSiretSiren":"444621999","cbAdresse1":"21 Avenue Thiers","cbAdresse2":"","cbCp":"77000","cbVille":"MELUN","spLibelle1":"","spLibelle2":"","acDateSerment":"","coordinates":[2.6562328,48.5326583]},{"NomBarreau":"MELUN","avNom":"RENET","avPrenom":"Antoine","cbRaisonSociale":"RENET","cbSiretSiren":"519140214","cbAdresse1":"2 avenue  Armand de la Rochette","cbAdresse2":"","cbCp":"77000","cbVille":"MELUN","spLibelle1":"","spLibelle2":"","acDateSerment":"","coordinates":[2.6554412,48.5255197]},{"NomBarreau":"MELUN","avNom":"RONZEL","avPrenom":"Astrid","cbRaisonSociale":"VESTA","cbSiretSiren":"793901356","cbAdresse1":"1 rue Rosa Bonheur","cbAdresse2":"","cbCp":"77000","cbVille":"MELUN","spLibelle1":"","spLibelle2":"","acDateSerment":"","coordinates":[2.6556612,48.519912]},{"NomBarreau":"MELUN","avNom":"ROUSSEAU","avPrenom":"Catherine","cbRaisonSociale":"MALPEL ET ASSOCIES","cbSiretSiren":"304247166","cbAdresse1":"21 avenue Thiers","cbAdresse2":"","cbCp":"77000","cbVille":"MELUN","spLibelle1":"","spLibelle2":"","acDateSerment":"","coordinates":[2.6562328,48.5326583]},{"NomBarreau":"MELUN","avNom":"SAINT FORT ICHON","avPrenom":"Marion","cbRaisonSociale":"SAINT FORT ICHON","cbSiretSiren":"393744701","cbAdresse1":"9 place de l'Ermitage","cbAdresse2":"","cbCp":"77000","cbVille":"MELUN","spLibelle1":"","spLibelle2":"","acDateSerment":"","coordinates":[2.6537882,48.5263247]},{"NomBarreau":"MELUN","avNom":"SCIALOM","avPrenom":"Clarisse","cbRaisonSociale":"SCIALOM","cbSiretSiren":"538400300","cbAdresse1":"13 boulevard Aristide Briand","cbAdresse2":"","cbCp":"77000","cbVille":"MELUN","spLibelle1":"","spLibelle2":"","acDateSerment":"","coordinates":[2.6508951,48.541521]},{"NomBarreau":"MELUN","avNom":"SCOTTO D'APOLLONIA","avPrenom":"Christophe","cbRaisonSociale":"SCOTTO D'APOLLONIA CHRISTOPHE","cbSiretSiren":"922109384","cbAdresse1":"3 quai Foch","cbAdresse2":"","cbCp":"77000","cbVille":"MELUN","spLibelle1":"","spLibelle2":"","acDateSerment":"","coordinates":[2.6608516,48.5370609]},{"NomBarreau":"MELUN","avNom":"SERVET","avPrenom":"Bernard","cbRaisonSociale":"SERVET","cbSiretSiren":"307135194","cbAdresse1":"5 rue Louviot","cbAdresse2":"","cbCp":"77000","cbVille":"MELUN","spLibelle1":"Droit de la famille, des personnes et de leur patrimoine","spLibelle2":"Droit pénal","acDateSerment":"","coordinates":[2.6570041,48.5408557]},{"NomBarreau":"MELUN","avNom":"STEPHAN","avPrenom":"Hélène","cbRaisonSociale":"STEPHAN","cbSiretSiren":"510233877","cbAdresse1":"2 avenue Armand de la Rochette","cbAdresse2":"","cbCp":"77000","cbVille":"MELUN","spLibelle1":"","spLibelle2":"","acDateSerment":"","coordinates":[2.6554412,48.5255197]},{"NomBarreau":"MELUN","avNom":"TEXIER-MARTINELLI","avPrenom":"Stéphanie","cbRaisonSociale":"MARIES ET TEXIER","cbSiretSiren":"490063773","cbAdresse1":"1 rue Armand Cassagne","cbAdresse2":"","cbCp":"77000","cbVille":"MELUN","spLibelle1":"","spLibelle2":"","acDateSerment":"","coordinates":[2.6580469,48.5331555]},{"NomBarreau":"MELUN","avNom":"THIRION","avPrenom":"Laurent","cbRaisonSociale":"THIRION LAURENT","cbSiretSiren":"453986242","cbAdresse1":"15 avenue Armand de la Rochette","cbAdresse2":"","cbCp":"77000","cbVille":"MELUN","spLibelle1":"","spLibelle2":"","acDateSerment":"","coordinates":[2.6554412,48.5255197]},{"NomBarreau":"MELUN","avNom":"TOURKI","avPrenom":"Monhom","cbRaisonSociale":"TOURKI MONHOM","cbSiretSiren":"843779745","cbAdresse1":"7 place de l'Ermitage","cbAdresse2":"","cbCp":"77000","cbVille":"MELUN","spLibelle1":"","spLibelle2":"","acDateSerment":"","coordinates":[2.6537882,48.5263247]},{"NomBarreau":"MELUN","avNom":"WASSELIN","avPrenom":"Isabelle","cbRaisonSociale":"MALPEL ET ASSOCIES","cbSiretSiren":"304247166","cbAdresse1":"21 avenue Thiers","cbAdresse2":"","cbCp":"77000","cbVille":"MELUN","spLibelle1":"Droit de la sécurité sociale et de la protection sociale","spLibelle2":"Droit du travail","acDateSerment":"","coordinates":[2.6562328,48.5326583]},{"NomBarreau":"MELUN","avNom":"YESILBAS","avPrenom":"Yusuf","cbRaisonSociale":"YESILBAS YUSUF","cbSiretSiren":"844826024","cbAdresse1":"1 rue Rosa Bonheur","cbAdresse2":"","cbCp":"77000","cbVille":"MELUN","spLibelle1":"","spLibelle2":"","acDateSerment":"","coordinates":[2.6556612,48.519912]},{"NomBarreau":"FONTAINEBLEAU","avNom":"MERLIN","avPrenom":"Sebastien","cbRaisonSociale":"MERLIN - GRANGEON","cbSiretSiren":"807481965","cbAdresse1":"4 rue St Liesne","cbAdresse2":"","cbCp":"77000","cbVille":"MELUN","spLibelle1":"","spLibelle2":"","acDateSerment":"","coordinates":[2.6629344,48.5393447]}]