[{"NomBarreau":"LOZERE","avNom":"BARNIER","avPrenom":"Véronique","cbRaisonSociale":"BARNIER VERONIQUE","cbSiretSiren":"411046329","cbAdresse1":"2 rue de la Chicanette","cbAdresse2":"","cbCp":"48000","cbVille":"MENDE","spLibelle1":"","spLibelle2":"","acDateSerment":"","coordinates":[3.5011041,44.5174738]},{"NomBarreau":"LOZERE","avNom":"CAULIEZ","avPrenom":"Alexia ","cbRaisonSociale":"CAULIEZ ALEXIA","cbSiretSiren":"922493267","cbAdresse1":"8 Rue Charles Morel","cbAdresse2":"Résidence l'Aurore","cbCp":"48000","cbVille":"MENDE","spLibelle1":"","spLibelle2":"","acDateSerment":"","coordinates":[3.4942179,44.5170706]},{"NomBarreau":"LOZERE","avNom":"CHOMIAC DE SAS","avPrenom":"Michel","cbRaisonSociale":"CHOMIAC DE SAS MICHEL","cbSiretSiren":"378403109","cbAdresse1":"13 Bd Henri Bourrillon","cbAdresse2":"","cbCp":"48000","cbVille":"MENDE","spLibelle1":"","spLibelle2":"","acDateSerment":"","coordinates":[3.4969883,44.5175725]},{"NomBarreau":"LOZERE","avNom":"DOMERGUE","avPrenom":"Jacques","cbRaisonSociale":"DOMERGUE JACQUES","cbSiretSiren":"322782194","cbAdresse1":"8 Bd du Soubeyran","cbAdresse2":"","cbCp":"48000","cbVille":"MENDE","spLibelle1":"","spLibelle2":"","acDateSerment":"","coordinates":[3.5002764,44.5167596]},{"NomBarreau":"LOZERE","avNom":"MICHEL","avPrenom":"Frédéric","cbRaisonSociale":"JURIS RATIO AVOCATS","cbSiretSiren":"892956533","cbAdresse1":"5 Place Urbain V","cbAdresse2":"","cbCp":"48000","cbVille":"MENDE","spLibelle1":"","spLibelle2":"","acDateSerment":"","coordinates":[3.4971658,44.5173064]},{"NomBarreau":"LOZERE","avNom":"POUGET","avPrenom":"Philippe","cbRaisonSociale":"POUGET PHILIPPE","cbSiretSiren":"393829478","cbAdresse1":"7 Bd Henri Bourrillon","cbAdresse2":"Rés. Le Mimente","cbCp":"48000","cbVille":"MENDE","spLibelle1":"","spLibelle2":"","acDateSerment":"","coordinates":[3.4969883,44.5175725]},{"NomBarreau":"LOZERE","avNom":"SAINT-LEGER","avPrenom":"Ludivine","cbRaisonSociale":"JURIS RATIO AVOCATS","cbSiretSiren":"892956533","cbAdresse1":"5 Place Urbain V","cbAdresse2":"","cbCp":"48000","cbVille":"MENDE","spLibelle1":"","spLibelle2":"","acDateSerment":"","coordinates":[3.4971658,44.5173064]}]