[{"NomBarreau":"TARN ET GARONNE","avNom":"ANTONESCOUX","avPrenom":"Nicolas","cbRaisonSociale":"ANTONESCOUX","cbSiretSiren":"529272908","cbAdresse1":"7 rue MALCOUSINAT","cbAdresse2":"","cbCp":"82000","cbVille":"MONTAUBAN","spLibelle1":"","spLibelle2":"","acDateSerment":"","coordinates":[1.3537748,44.0175505]},{"NomBarreau":"TARN ET GARONNE","avNom":"BENAC","avPrenom":"Fanny","cbRaisonSociale":"BENAC FANNY","cbSiretSiren":"837749811","cbAdresse1":"36 avenue Aristide Briand","cbAdresse2":"","cbCp":"82000","cbVille":"MONTAUBAN","spLibelle1":"","spLibelle2":"","acDateSerment":"","coordinates":[1.3422199,44.0167347]},{"NomBarreau":"TARN ET GARONNE","avNom":"BERTHIER","avPrenom":"Nathalie","cbRaisonSociale":"BERTHIER","cbSiretSiren":"393849872","cbAdresse1":"12 RUE JEAN MONNET","cbAdresse2":"LES CONSULS","cbCp":"82000","cbVille":"MONTAUBAN","spLibelle1":"","spLibelle2":"","acDateSerment":"","coordinates":[1.3557324,44.0190385]},{"NomBarreau":"TARN ET GARONNE","avNom":"BESSOU","avPrenom":"Stéphane","cbRaisonSociale":"SPBS  AVOCATS","cbSiretSiren":"513725432","cbAdresse1":"279 Avenue du Danemark","cbAdresse2":"ALBASUD","cbCp":"82000","cbVille":"MONTAUBAN","spLibelle1":"","spLibelle2":"","acDateSerment":"","coordinates":[1.3296981,43.9885773]},{"NomBarreau":"TARN ET GARONNE","avNom":"BIRKHOLZ","avPrenom":"Eric","cbRaisonSociale":"SPBS  AVOCATS","cbSiretSiren":"513725432","cbAdresse1":"279 Avenue du Danemark","cbAdresse2":"ALBASUD","cbCp":"82000","cbVille":"MONTAUBAN","spLibelle1":"","spLibelle2":"","acDateSerment":"","coordinates":[1.3296981,43.9885773]},{"NomBarreau":"TARN ET GARONNE","avNom":"BOIX","avPrenom":"Rémy","cbRaisonSociale":"FIDAL","cbSiretSiren":"525031522","cbAdresse1":"70 IMPASSE DE VARSOVIE","cbAdresse2":"Z.A. ALBASUD","cbCp":"82000","cbVille":"MONTAUBAN","spLibelle1":"","spLibelle2":"","acDateSerment":"","coordinates":[1.329274,43.9878349]},{"NomBarreau":"TARN ET GARONNE","avNom":"BOYER","avPrenom":"Laurence","cbRaisonSociale":"BOYER","cbSiretSiren":"440444800","cbAdresse1":"37-39 RUE DE LA RESISTANCE","cbAdresse2":"","cbCp":"82000","cbVille":"MONTAUBAN","spLibelle1":"","spLibelle2":"","acDateSerment":"","coordinates":[1.3558516,44.0186313]},{"NomBarreau":"TARN ET GARONNE","avNom":"CABOS","avPrenom":"Sandra","cbRaisonSociale":"ALBA AVOCAT CONSEIL","cbSiretSiren":"853585271","cbAdresse1":"65 Avenue d'Allemagne","cbAdresse2":"ALBASUD","cbCp":"82000","cbVille":"MONTAUBAN","spLibelle1":"","spLibelle2":"","acDateSerment":"","coordinates":[1.3288632,43.9905836]},{"NomBarreau":"TARN ET GARONNE","avNom":"CAMBRIEL","avPrenom":"Jean","cbRaisonSociale":"CAMBRIEL - DE MALAFOSSE - STREMOOUHOFF - GERBAUD COUTURE-ZOUANIA","cbSiretSiren":"788057487","cbAdresse1":"10 RUE ARMAND CAMBON","cbAdresse2":"","cbCp":"82000","cbVille":"MONTAUBAN","spLibelle1":"Droit des garanties, des saretés et des mesures d'exécution","spLibelle2":"","acDateSerment":"","coordinates":[1.352520595997033,44.018479]},{"NomBarreau":"TARN ET GARONNE","avNom":"CAPEL","avPrenom":"Serge","cbRaisonSociale":"CAPEL","cbSiretSiren":"439089855","cbAdresse1":"67 Faubourg du Moustier","cbAdresse2":"","cbCp":"82000","cbVille":"MONTAUBAN","spLibelle1":"","spLibelle2":"","acDateSerment":"","coordinates":[1.3571061,44.0119251]},{"NomBarreau":"TARN ET GARONNE","avNom":"CAUCANAS","avPrenom":"Jean","cbRaisonSociale":"CAUCANAS JEAN","cbSiretSiren":"891577785","cbAdresse1":"279 Avenue du Danemark","cbAdresse2":"ALBASUD","cbCp":"82000","cbVille":"MONTAUBAN","spLibelle1":"","spLibelle2":"","acDateSerment":"","coordinates":[1.3296981,43.9885773]},{"NomBarreau":"TARN ET GARONNE","avNom":"COMBEDAZOU","avPrenom":"Laure","cbRaisonSociale":"FMDOC & ASSOCIES","cbSiretSiren":"834008526","cbAdresse1":"35 rue Pierre Gamarra","cbAdresse2":"","cbCp":"82000","cbVille":"MONTAUBAN","spLibelle1":"","spLibelle2":"","acDateSerment":"","coordinates":[1.3613811,44.0042592]},{"NomBarreau":"TARN ET GARONNE","avNom":"D'ALBERT DE LUYNES","avPrenom":"Charles","cbRaisonSociale":"D'ALBERT DE LUYNES CHARLES","cbSiretSiren":"808971378","cbAdresse1":"3 Boulevard Gustave Garrisson","cbAdresse2":"","cbCp":"82000","cbVille":"MONTAUBAN","spLibelle1":"","spLibelle2":"","acDateSerment":"","coordinates":[1.3613479,44.0166334]},{"NomBarreau":"TARN ET GARONNE","avNom":"DALBIN","avPrenom":"Thierry","cbRaisonSociale":"DALBIN","cbSiretSiren":"429636764","cbAdresse1":"12 RUE JEAN MONNET","cbAdresse2":"LES CONSULS","cbCp":"82000","cbVille":"MONTAUBAN","spLibelle1":"","spLibelle2":"","acDateSerment":"","coordinates":[1.3557324,44.0190385]},{"NomBarreau":"TARN ET GARONNE","avNom":"DELORD","avPrenom":"Alexandre","cbRaisonSociale":"DELORD","cbSiretSiren":"441129806","cbAdresse1":"96 FAUBOURG LACAPELLE","cbAdresse2":"","cbCp":"82000","cbVille":"MONTAUBAN","spLibelle1":"","spLibelle2":"","acDateSerment":"","coordinates":[1.3629342,44.0123726]},{"NomBarreau":"TARN ET GARONNE","avNom":"DENIS","avPrenom":"Alice","cbRaisonSociale":"DENIS","cbSiretSiren":"488664590","cbAdresse1":"7 rue MALCOUSINAT","cbAdresse2":"","cbCp":"82000","cbVille":"MONTAUBAN","spLibelle1":"","spLibelle2":"","acDateSerment":"","coordinates":[1.3537748,44.0175505]},{"NomBarreau":"TARN ET GARONNE","avNom":"DEVILLE","avPrenom":"Thierry","cbRaisonSociale":"ALIZE 360","cbSiretSiren":"393424205","cbAdresse1":"40 avenue GAMBETTA","cbAdresse2":"","cbCp":"82000","cbVille":"MONTAUBAN","spLibelle1":"Droit des sociétés","spLibelle2":"","acDateSerment":"","coordinates":[1.3592363,44.0183371]},{"NomBarreau":"TARN ET GARONNE","avNom":"DORE ONROZAT","avPrenom":"Carole","cbRaisonSociale":"FMDOC & ASSOCIES","cbSiretSiren":"834008526","cbAdresse1":"35 rue Pierre Gamarra","cbAdresse2":"","cbCp":"82000","cbVille":"MONTAUBAN","spLibelle1":"","spLibelle2":"","acDateSerment":"","coordinates":[1.3613811,44.0042592]},{"NomBarreau":"TARN ET GARONNE","avNom":"DURAND","avPrenom":"Valérie","cbRaisonSociale":"DURAND","cbSiretSiren":"509680211","cbAdresse1":"8 ALLEE MORTARIEU","cbAdresse2":"","cbCp":"82000","cbVille":"MONTAUBAN","spLibelle1":"","spLibelle2":"","acDateSerment":"","coordinates":[1.355918,44.014537]},{"NomBarreau":"TARN ET GARONNE","avNom":"FERES-MASSOL","avPrenom":"Angèle","cbRaisonSociale":"FMDOC & ASSOCIES","cbSiretSiren":"834008526","cbAdresse1":"35 rue Pierre Gamarra","cbAdresse2":"","cbCp":"82000","cbVille":"MONTAUBAN","spLibelle1":"","spLibelle2":"","acDateSerment":"","coordinates":[1.3613811,44.0042592]},{"NomBarreau":"TARN ET GARONNE","avNom":"FIORINA","avPrenom":"Luc","cbRaisonSociale":"FIORINA","cbSiretSiren":"315197723","cbAdresse1":"5 BOULEVARD GUSTAVE GARRISSON","cbAdresse2":"","cbCp":"82000","cbVille":"MONTAUBAN","spLibelle1":"","spLibelle2":"","acDateSerment":"","coordinates":[1.3613479,44.0166334]},{"NomBarreau":"TARN ET GARONNE","avNom":"FONTANINI","avPrenom":"Julien","cbRaisonSociale":"FONTANINI","cbSiretSiren":"794729921","cbAdresse1":"65 avenue d'Allemagne","cbAdresse2":"ZA ALBASUD","cbCp":"82000","cbVille":"MONTAUBAN","spLibelle1":"","spLibelle2":"","acDateSerment":"","coordinates":[1.3288632,43.9905836]},{"NomBarreau":"TARN ET GARONNE","avNom":"GAUX","avPrenom":"Amélie","cbRaisonSociale":"GAUX","cbSiretSiren":"539238931","cbAdresse1":"12 place Franklin ROOSEVELT","cbAdresse2":"","cbCp":"82000","cbVille":"MONTAUBAN","spLibelle1":"","spLibelle2":"","acDateSerment":"","coordinates":[1.3539351,44.0155202]},{"NomBarreau":"TARN ET GARONNE","avNom":"GENRE","avPrenom":"Laurence","cbRaisonSociale":"LEGISUD","cbSiretSiren":"383420882","cbAdresse1":"35 rue Pierre Gamarra","cbAdresse2":"","cbCp":"82000","cbVille":"MONTAUBAN","spLibelle1":"","spLibelle2":"","acDateSerment":"","coordinates":[1.3613811,44.0042592]},{"NomBarreau":"TARN ET GARONNE","avNom":"GERBAUD","avPrenom":"Cécile","cbRaisonSociale":"CAMBRIEL - DE MALAFOSSE - STREMOOUHOFF - GERBAUD COUTURE-ZOUANIA","cbSiretSiren":"788057487","cbAdresse1":"10 RUE ARMAND CAMBON","cbAdresse2":"","cbCp":"82000","cbVille":"MONTAUBAN","spLibelle1":"","spLibelle2":"","acDateSerment":"","coordinates":[1.352520595997033,44.018479]},{"NomBarreau":"TARN ET GARONNE","avNom":"GLORIES","avPrenom":"Jéremie","cbRaisonSociale":"GLORIES","cbSiretSiren":"539239251","cbAdresse1":"12 place Franklin ROOSEVELT","cbAdresse2":"","cbCp":"82000","cbVille":"MONTAUBAN","spLibelle1":"","spLibelle2":"","acDateSerment":"","coordinates":[1.3539351,44.0155202]},{"NomBarreau":"TARN ET GARONNE","avNom":"GODIN","avPrenom":"Laure","cbRaisonSociale":"GODIN LAURE","cbSiretSiren":"825341431","cbAdresse1":"7 rue Malcousinat","cbAdresse2":"","cbCp":"82000","cbVille":"MONTAUBAN","spLibelle1":"","spLibelle2":"","acDateSerment":"","coordinates":[1.3537748,44.0175505]},{"NomBarreau":"TARN ET GARONNE","avNom":"GROC","avPrenom":"Olivier","cbRaisonSociale":"GROC","cbSiretSiren":"418426565","cbAdresse1":"36 avenue Aristide Briand","cbAdresse2":"","cbCp":"82000","cbVille":"MONTAUBAN","spLibelle1":"","spLibelle2":"","acDateSerment":"","coordinates":[1.3422199,44.0167347]},{"NomBarreau":"TARN ET GARONNE","avNom":"GROS","avPrenom":"Daniel","cbRaisonSociale":"SCP PUJOL - GROS","cbSiretSiren":"382782613","cbAdresse1":"10 PLACE NATIONALE","cbAdresse2":"","cbCp":"82000","cbVille":"MONTAUBAN","spLibelle1":"","spLibelle2":"","acDateSerment":"","coordinates":[1.3545908,44.0177019]},{"NomBarreau":"TARN ET GARONNE","avNom":"GUYOT","avPrenom":"Amarande-Julie","cbRaisonSociale":"GUYOT","cbSiretSiren":"801655945","cbAdresse1":"7 rue Malcousinat","cbAdresse2":"","cbCp":"82000","cbVille":"MONTAUBAN","spLibelle1":"","spLibelle2":"","acDateSerment":"","coordinates":[1.3537748,44.0175505]},{"NomBarreau":"TARN ET GARONNE","avNom":"HEDABOU","avPrenom":"Aziz","cbRaisonSociale":"HEDABOU","cbSiretSiren":"530902121","cbAdresse1":"14 RUE DE LA COMEDIE","cbAdresse2":"","cbCp":"82000","cbVille":"MONTAUBAN","spLibelle1":"","spLibelle2":"","acDateSerment":"","coordinates":[1.35501,44.0187293]},{"NomBarreau":"TARN ET GARONNE","avNom":"HOULL","avPrenom":"Catherine","cbRaisonSociale":"CATHERINE HOULL & ASSOCIES","cbSiretSiren":"910235704","cbAdresse1":"12 place du Coq","cbAdresse2":"","cbCp":"82000","cbVille":"MONTAUBAN","spLibelle1":"","spLibelle2":"","acDateSerment":"","coordinates":[1.353311,44.0168455]},{"NomBarreau":"TARN ET GARONNE","avNom":"ISSANCHOU","avPrenom":"Olivier","cbRaisonSociale":"ISSANCHOU","cbSiretSiren":"403888852","cbAdresse1":"96 FAUBOURG LACAPELLE","cbAdresse2":"","cbCp":"82000","cbVille":"MONTAUBAN","spLibelle1":"","spLibelle2":"","acDateSerment":"","coordinates":[1.3629342,44.0123726]},{"NomBarreau":"TARN ET GARONNE","avNom":"JASPART","avPrenom":"Karine","cbRaisonSociale":"JASPART","cbSiretSiren":"421747627","cbAdresse1":"12 place Franklin Roosevelt","cbAdresse2":"","cbCp":"82000","cbVille":"MONTAUBAN","spLibelle1":"","spLibelle2":"","acDateSerment":"","coordinates":[1.3539351,44.0155202]},{"NomBarreau":"TARN ET GARONNE","avNom":"LEIBOVITCH","avPrenom":"Emilie","cbRaisonSociale":"LEIBOVITCH  EMILIE","cbSiretSiren":"810860387","cbAdresse1":"50 rue de la Banque","cbAdresse2":"B.P. 810","cbCp":"82000","cbVille":"MONTAUBAN","spLibelle1":"","spLibelle2":"","acDateSerment":"","coordinates":[1.356699588235295,44.012939]},{"NomBarreau":"TARN ET GARONNE","avNom":"MARQUES","avPrenom":"Nathalie","cbRaisonSociale":"CABINET NATHALIE MARQUES","cbSiretSiren":"483947347","cbAdresse1":"67 Faubourg du moustier","cbAdresse2":"","cbCp":"82000","cbVille":"MONTAUBAN","spLibelle1":"","spLibelle2":"","acDateSerment":"","coordinates":[1.3571061,44.0119251]},{"NomBarreau":"TARN ET GARONNE","avNom":"MASSOL","avPrenom":"Olivier","cbRaisonSociale":"MASSOL AVOCATS","cbSiretSiren":"819211921","cbAdresse1":"13 rue Henri Marre","cbAdresse2":"BP 80542","cbCp":"82000","cbVille":"MONTAUBAN","spLibelle1":"Droit immobilier","spLibelle2":"Droit du crédit et de la consommation","acDateSerment":"","coordinates":[1.3599728,44.0158283]},{"NomBarreau":"TARN ET GARONNE","avNom":"MASSON","avPrenom":"Nicolas","cbRaisonSociale":"EQUICONSULT","cbSiretSiren":"910292705","cbAdresse1":"3 Boulevard Gustave Garrisson","cbAdresse2":"","cbCp":"82000","cbVille":"MONTAUBAN","spLibelle1":"","spLibelle2":"","acDateSerment":"","coordinates":[1.3613479,44.0166334]},{"NomBarreau":"TARN ET GARONNE","avNom":"MATSITSILA","avPrenom":"Jean Joseph Magloire","cbRaisonSociale":"JEAN MATSITSILA","cbSiretSiren":"807413349","cbAdresse1":"3 Bd Gustave Garrisson","cbAdresse2":"Résidence Alexandre 1er","cbCp":"82000","cbVille":"MONTAUBAN","spLibelle1":"","spLibelle2":"","acDateSerment":"","coordinates":[1.3613479,44.0166334]},{"NomBarreau":"TARN ET GARONNE","avNom":"MIAILLE","avPrenom":"Line","cbRaisonSociale":"MIAILLE","cbSiretSiren":"309860377","cbAdresse1":"3 RUE DE L'HOTEL DE VILLE","cbAdresse2":"","cbCp":"82000","cbVille":"MONTAUBAN","spLibelle1":"","spLibelle2":"","acDateSerment":"","coordinates":[1.3528201,44.0164522]},{"NomBarreau":"TARN ET GARONNE","avNom":"MONNET","avPrenom":"Elodie","cbRaisonSociale":"FMDOC & ASSOCIES","cbSiretSiren":"834008526","cbAdresse1":"35 rue Pierre Gamarra","cbAdresse2":"","cbCp":"82000","cbVille":"MONTAUBAN","spLibelle1":"","spLibelle2":"","acDateSerment":"","coordinates":[1.3613811,44.0042592]},{"NomBarreau":"TARN ET GARONNE","avNom":"MORIN","avPrenom":"Morgane","cbRaisonSociale":"MORIN MORGANE","cbSiretSiren":"847989829","cbAdresse1":"26 rue des Carmes","cbAdresse2":"","cbCp":"82000","cbVille":"MONTAUBAN","spLibelle1":"","spLibelle2":"","acDateSerment":"","coordinates":[1.3534321,44.0156618]},{"NomBarreau":"TARN ET GARONNE","avNom":"NICAUD","avPrenom":"Laetitia","cbRaisonSociale":"NICAUD","cbSiretSiren":"530007129","cbAdresse1":"13 rue Henri Marre","cbAdresse2":"BP 80542","cbCp":"82000","cbVille":"MONTAUBAN","spLibelle1":"","spLibelle2":"","acDateSerment":"","coordinates":[1.3599728,44.0158283]},{"NomBarreau":"TARN ET GARONNE","avNom":"NOUHAUD","avPrenom":"Jean-Paul","cbRaisonSociale":"NOUHAUD JEAN-PAUL","cbSiretSiren":"822523965","cbAdresse1":"20 rue Michelet","cbAdresse2":"","cbCp":"82000","cbVille":"MONTAUBAN","spLibelle1":"","spLibelle2":"","acDateSerment":"","coordinates":[1.3572598,44.0165542]},{"NomBarreau":"TARN ET GARONNE","avNom":"PANFILI","avPrenom":"Jean-Marc","cbRaisonSociale":"JM. PANFILI AVOCAT","cbSiretSiren":"887712511","cbAdresse1":"70 Faubourg du Moustier","cbAdresse2":"","cbCp":"82000","cbVille":"MONTAUBAN","spLibelle1":"","spLibelle2":"","acDateSerment":"","coordinates":[1.3571061,44.0119251]},{"NomBarreau":"TARN ET GARONNE","avNom":"PIAZZON","avPrenom":"Amélie","cbRaisonSociale":"PIAZZON  AMELIE","cbSiretSiren":"817498017","cbAdresse1":"15 place Prax Paris","cbAdresse2":"","cbCp":"82000","cbVille":"MONTAUBAN","spLibelle1":"","spLibelle2":"","acDateSerment":"","coordinates":[1.3586905,44.0177868]},{"NomBarreau":"TARN ET GARONNE","avNom":"PLAINECASSAGNE VENTIMILA","avPrenom":"Catherine","cbRaisonSociale":"PLAINECASSAGNE VENTIMILA CATHERINE","cbSiretSiren":"390823011","cbAdresse1":"12 Place du Coq","cbAdresse2":"","cbCp":"82000","cbVille":"MONTAUBAN","spLibelle1":"","spLibelle2":"","acDateSerment":"","coordinates":[1.353311,44.0168455]},{"NomBarreau":"TARN ET GARONNE","avNom":"POUGET","avPrenom":"Roger-Sébastien","cbRaisonSociale":"POUGET","cbSiretSiren":"333272631","cbAdresse1":"32 FAUBOURG DU MOUSTIER","cbAdresse2":"","cbCp":"82000","cbVille":"MONTAUBAN","spLibelle1":"","spLibelle2":"","acDateSerment":"","coordinates":[1.3571061,44.0119251]},{"NomBarreau":"TARN ET GARONNE","avNom":"PUERTOLAS","avPrenom":"Hélène","cbRaisonSociale":"SPBS  AVOCATS","cbSiretSiren":"513725432","cbAdresse1":"279 Avenue du Danemark","cbAdresse2":"ALBASUD","cbCp":"82000","cbVille":"MONTAUBAN","spLibelle1":"","spLibelle2":"","acDateSerment":"","coordinates":[1.3296981,43.9885773]},{"NomBarreau":"TARN ET GARONNE","avNom":"PUJOL","avPrenom":"Jean Louis","cbRaisonSociale":"SCP PUJOL - GROS","cbSiretSiren":"382782613","cbAdresse1":"10 PLACE NATIONALE","cbAdresse2":"","cbCp":"82000","cbVille":"MONTAUBAN","spLibelle1":"","spLibelle2":"","acDateSerment":"","coordinates":[1.3545908,44.0177019]},{"NomBarreau":"TARN ET GARONNE","avNom":"REY","avPrenom":"Jean Michel","cbRaisonSociale":"REY JEAN MICHEL","cbSiretSiren":"310333208","cbAdresse1":"1 rue Porte du Moustier","cbAdresse2":"","cbCp":"82000","cbVille":"MONTAUBAN","spLibelle1":"","spLibelle2":"","acDateSerment":"","coordinates":[1.3548323,44.0148917]},{"NomBarreau":"TARN ET GARONNE","avNom":"ROCA","avPrenom":"Sandrine","cbRaisonSociale":"ROCA","cbSiretSiren":"421875154","cbAdresse1":"8 ALLEE MORTARIEU","cbAdresse2":"","cbCp":"82000","cbVille":"MONTAUBAN","spLibelle1":"","spLibelle2":"","acDateSerment":"","coordinates":[1.355918,44.014537]},{"NomBarreau":"TARN ET GARONNE","avNom":"ROSSI","avPrenom":"Isabelle","cbRaisonSociale":"AC-AV","cbSiretSiren":"881023642","cbAdresse1":"89 avenue Aristide Briand","cbAdresse2":"","cbCp":"82000","cbVille":"MONTAUBAN","spLibelle1":"","spLibelle2":"","acDateSerment":"","coordinates":[1.3437804,44.0167734]},{"NomBarreau":"TARN ET GARONNE","avNom":"SAEZ","avPrenom":"Hadrien","cbRaisonSociale":"SAEZ HADRIEN","cbSiretSiren":"827935289","cbAdresse1":"36 avenue Aristide Briand","cbAdresse2":"","cbCp":"82000","cbVille":"MONTAUBAN","spLibelle1":"","spLibelle2":"","acDateSerment":"","coordinates":[1.3422199,44.0167347]},{"NomBarreau":"TARN ET GARONNE","avNom":"SERNY","avPrenom":"Laure","cbRaisonSociale":"SPBS  AVOCATS","cbSiretSiren":"513725432","cbAdresse1":"279 Avenue du Danemark","cbAdresse2":"ALBASUD","cbCp":"82000","cbVille":"MONTAUBAN","spLibelle1":"","spLibelle2":"","acDateSerment":"","coordinates":[1.3296981,43.9885773]},{"NomBarreau":"TARN ET GARONNE","avNom":"SIMEON","avPrenom":"Florence","cbRaisonSociale":"FSD AVOCAT","cbSiretSiren":"909320509","cbAdresse1":"65 Avenue d'Allemagne","cbAdresse2":"","cbCp":"82000","cbVille":"MONTAUBAN","spLibelle1":"","spLibelle2":"","acDateSerment":"","coordinates":[1.3288632,43.9905836]},{"NomBarreau":"TARN ET GARONNE","avNom":"STREMOOUHOFF","avPrenom":"Jean","cbRaisonSociale":"CAMBRIEL - DE MALAFOSSE - STREMOOUHOFF - GERBAUD COUTURE-ZOUANIA","cbSiretSiren":"788057487","cbAdresse1":"10 RUE ARMAND CAMBON","cbAdresse2":"","cbCp":"82000","cbVille":"MONTAUBAN","spLibelle1":"","spLibelle2":"","acDateSerment":"","coordinates":[1.352520595997033,44.018479]},{"NomBarreau":"TARN ET GARONNE","avNom":"SUCAU","avPrenom":"Thierry","cbRaisonSociale":"SPBS  AVOCATS","cbSiretSiren":"513725432","cbAdresse1":"279 Avenue du Danemark","cbAdresse2":"ALBASUD","cbCp":"82000","cbVille":"MONTAUBAN","spLibelle1":"Droit fiscal et droit douanier","spLibelle2":"","acDateSerment":"","coordinates":[1.3296981,43.9885773]},{"NomBarreau":"TARN ET GARONNE","avNom":"TOUGE","avPrenom":"Jessica","cbRaisonSociale":"TOUGE","cbSiretSiren":"522062926","cbAdresse1":"1 rue Porte du Moustier","cbAdresse2":"BP 522","cbCp":"82000","cbVille":"MONTAUBAN","spLibelle1":"","spLibelle2":"","acDateSerment":"","coordinates":[1.3548323,44.0148917]},{"NomBarreau":"TARN ET GARONNE","avNom":"TURELLA BAYOL","avPrenom":"Frédérique","cbRaisonSociale":"TURELLA - BAYOL","cbSiretSiren":"384802799","cbAdresse1":"26 rue des Carmes","cbAdresse2":"","cbCp":"82000","cbVille":"MONTAUBAN","spLibelle1":"","spLibelle2":"","acDateSerment":"","coordinates":[1.3534321,44.0156618]},{"NomBarreau":"TARN ET GARONNE","avNom":"VERZI","avPrenom":"Florence","cbRaisonSociale":"VERZI","cbSiretSiren":"749983102","cbAdresse1":"70 impasse de VARSOVIE","cbAdresse2":"Immeuble l' ALBATROS","cbCp":"82000","cbVille":"MONTAUBAN","spLibelle1":"","spLibelle2":"","acDateSerment":"","coordinates":[1.329274,43.9878349]},{"NomBarreau":"TARN ET GARONNE","avNom":"VILLAGEON","avPrenom":"Amélie","cbRaisonSociale":"VILLAGEON","cbSiretSiren":"444920227","cbAdresse1":"36 FAUBOURG DU MOUSTIER","cbAdresse2":"","cbCp":"82000","cbVille":"MONTAUBAN","spLibelle1":"","spLibelle2":"","acDateSerment":"","coordinates":[1.3571061,44.0119251]},{"NomBarreau":"TARN ET GARONNE","avNom":"VINAS","avPrenom":"Axelle","cbRaisonSociale":"VINAS","cbSiretSiren":"451515837","cbAdresse1":"16 rue Mary Lafon","cbAdresse2":"","cbCp":"82000","cbVille":"MONTAUBAN","spLibelle1":"","spLibelle2":"","acDateSerment":"","coordinates":[1.3531208,44.017887]},{"NomBarreau":"TARN ET GARONNE","avNom":"ZORZI","avPrenom":"Nadine","cbRaisonSociale":"CO-LEGIS","cbSiretSiren":"331688309","cbAdresse1":"279 Avenue du Danemark","cbAdresse2":"ALBASUD","cbCp":"82000","cbVille":"MONTAUBAN","spLibelle1":"","spLibelle2":"","acDateSerment":"","coordinates":[1.3296981,43.9885773]},{"NomBarreau":"TARN ET GARONNE","avNom":"ZOUANIA","avPrenom":"Barry","cbRaisonSociale":"CAMBRIEL - DE MALAFOSSE - STREMOOUHOFF - GERBAUD COUTURE-ZOUANIA","cbSiretSiren":"788057487","cbAdresse1":"10 RUE ARMAND CAMBON","cbAdresse2":"","cbCp":"82000","cbVille":"MONTAUBAN","spLibelle1":"","spLibelle2":"","acDateSerment":"","coordinates":[1.352520595997033,44.018479]}]