[{"NomBarreau":"SEINE-SAINT-DENIS","avNom":"BALEZOU GLOUM","avPrenom":"Abel Jackie","cbRaisonSociale":"BALEZOU GLOUM","cbSiretSiren":"332858067","cbAdresse1":"6 Place Louis Aragon","cbAdresse2":"","cbCp":"93160","cbVille":"NOISY LE GRAND","spLibelle1":"","spLibelle2":"","acDateSerment":"","coordinates":[2.558109,48.837895]},{"NomBarreau":"SEINE-SAINT-DENIS","avNom":"MENIL","avPrenom":"Karine","cbRaisonSociale":"MENIL","cbSiretSiren":"400724936","cbAdresse1":"2-4 Avenue Aristide Briand","cbAdresse2":"","cbCp":"93160","cbVille":"NOISY LE GRAND","spLibelle1":"","spLibelle2":"","acDateSerment":"","coordinates":[2.5529698,48.8470411]},{"NomBarreau":"SEINE-SAINT-DENIS","avNom":"NOEL HASBI","avPrenom":"Emilie","cbRaisonSociale":"NOEL HASBI","cbSiretSiren":"489303032","cbAdresse1":"24 Avenue Emile Cossonneau","cbAdresse2":"","cbCp":"93160","cbVille":"NOISY LE GRAND","spLibelle1":"","spLibelle2":"","acDateSerment":"","coordinates":[2.555497,48.848775]},{"NomBarreau":"SEINE-SAINT-DENIS","avNom":"PAPELARD CASATI","avPrenom":"Isabelle","cbRaisonSociale":"PAPELARD CASATI","cbSiretSiren":"387673262","cbAdresse1":"24 Avenue Emile Cossonneau","cbAdresse2":"","cbCp":"93160","cbVille":"NOISY LE GRAND","spLibelle1":"","spLibelle2":"","acDateSerment":"","coordinates":[2.555497,48.848775]},{"NomBarreau":"SEINE-SAINT-DENIS","avNom":"PETIT","avPrenom":"Christophe","cbRaisonSociale":"PETIT C","cbSiretSiren":"379912876","cbAdresse1":"1 Rue Pasteur","cbAdresse2":"","cbCp":"93160","cbVille":"NOISY LE GRAND","spLibelle1":"","spLibelle2":"","acDateSerment":"","coordinates":[2.54781,48.848064]},{"NomBarreau":"SEINE-SAINT-DENIS","avNom":"PETIT","avPrenom":"Yves","cbRaisonSociale":"PETIT Y","cbSiretSiren":"347577884","cbAdresse1":"2 Avenue Aristide Briand","cbAdresse2":"","cbCp":"93160","cbVille":"NOISY LE GRAND","spLibelle1":"","spLibelle2":"","acDateSerment":"","coordinates":[2.552491,48.848561]},{"NomBarreau":"SEINE-SAINT-DENIS","avNom":"SCOTTO","avPrenom":"Catherine","cbRaisonSociale":"SCOTTO","cbSiretSiren":"378049266","cbAdresse1":"2-4 Avenue Aristide Briand","cbAdresse2":"","cbCp":"93160","cbVille":"NOISY LE GRAND","spLibelle1":"","spLibelle2":"","acDateSerment":"","coordinates":[2.5529698,48.8470411]}]