[{"NomBarreau":"NOUMEA (NOUVELLE CALEDONIE)","avNom":"AGUILA","avPrenom":"Laurent","cbRaisonSociale":"SELARL AGUILA-MORESCO","cbSiretSiren":"814590","cbAdresse1":"37 RUE RENE COTY","cbAdresse2":"MONT-VENUS","cbCp":"98800","cbVille":"NOUMEA","spLibelle1":"","spLibelle2":"","acDateSerment":"","coordinates":[166.4469801,-22.2873291]},{"NomBarreau":"NOUMEA (NOUVELLE CALEDONIE)","avNom":"ARCANGELI","avPrenom":"Claire Anne Lorraine","cbRaisonSociale":"ARCANGELI CLAIRE ANNE LORRAINE","cbSiretSiren":"1448299","cbAdresse1":"85 AVENUE DU GENERAL DE GAULLE","cbAdresse2":"IMMEUBLE CARCOPINO 3000","cbCp":"98800","cbVille":"NOUMEA","spLibelle1":"","spLibelle2":"","acDateSerment":"","coordinates":[166.4440124,-22.2801939]},{"NomBarreau":"NOUMEA (NOUVELLE CALEDONIE)","avNom":"AUPLAT-GILLARDIN","avPrenom":"Béatrice","cbRaisonSociale":"SARL GILLARDIN AVOCATS","cbSiretSiren":"938498","cbAdresse1":"3 BOULEVARD EXTERIEUR","cbAdresse2":"IMMEUBLE LE FORTIN","cbCp":"98800","cbVille":"NOUMEA","spLibelle1":"","spLibelle2":"","acDateSerment":"","coordinates":[166.4496729,-22.2733606]},{"NomBarreau":"NOUMEA (NOUVELLE CALEDONIE)","avNom":"BARKET","avPrenom":"Elodie","cbRaisonSociale":"D'AVOCAT ELODIE BARKET","cbSiretSiren":"1468586","cbAdresse1":"10 rue Henri SCHMIDT","cbAdresse2":"Vallée des Colons","cbCp":"98800","cbVille":"NOUMEA","spLibelle1":"","spLibelle2":"","acDateSerment":"","coordinates":[166.4595722,-22.2759087]},{"NomBarreau":"NOUMEA (NOUVELLE CALEDONIE)","avNom":"BEAUMEL","avPrenom":"Séverine","cbRaisonSociale":"BEAUMEL SELARL D'AVOCAT","cbSiretSiren":"1331339","cbAdresse1":"3 rue Charles GAVEAU","cbAdresse2":"","cbCp":"98800","cbVille":"NOUMEA","spLibelle1":"","spLibelle2":"","acDateSerment":"","coordinates":[166.4467334,-22.2773736]},{"NomBarreau":"NOUMEA (NOUVELLE CALEDONIE)","avNom":"BERTONE","avPrenom":"Jacques","cbRaisonSociale":"BERTONE JACQUES","cbSiretSiren":"1418805","cbAdresse1":"29 RUE RENE COTY","cbAdresse2":"MONT-VENUS","cbCp":"98800","cbVille":"NOUMEA","spLibelle1":"","spLibelle2":"","acDateSerment":"","coordinates":[166.4470069,-22.2867211]},{"NomBarreau":"NOUMEA (NOUVELLE CALEDONIE)","avNom":"BESSEDIK","avPrenom":"Lisa","cbRaisonSociale":"BESSEDIK LISA","cbSiretSiren":"1525104","cbAdresse1":"28 RUE EUGENE PORCHERON","cbAdresse2":"IMMEUBLE ROGER BERARD","cbCp":"98800","cbVille":"NOUMEA","spLibelle1":"","spLibelle2":"","acDateSerment":"","coordinates":[166.4453604,-22.2752801]},{"NomBarreau":"NOUMEA (NOUVELLE CALEDONIE)","avNom":"BOITEAU","avPrenom":"Virginie","cbRaisonSociale":"SELARL VIRGINIE BOITEAU","cbSiretSiren":"1067172","cbAdresse1":"7 RUE DU GENERAL SARRAIL","cbAdresse2":"MONT COFFYN","cbCp":"98800","cbVille":"NOUMEA","spLibelle1":"","spLibelle2":"","acDateSerment":"","coordinates":[166.4447417,-22.2795685]},{"NomBarreau":"NOUMEA (NOUVELLE CALEDONIE)","avNom":"BOUSSAINGAULT","avPrenom":"Carole","cbRaisonSociale":"SELARL D'AVOCAT CAROLE BOUSSAINGAULT","cbSiretSiren":"1282557","cbAdresse1":"23 rue Jules Ferry","cbAdresse2":"Immeuble Hannecart Ferry","cbCp":"98800","cbVille":"NOUMEA","spLibelle1":"","spLibelle2":"","acDateSerment":"","coordinates":[166.4377914,-22.271609]},{"NomBarreau":"NOUMEA (NOUVELLE CALEDONIE)","avNom":"BRETEGNIER","avPrenom":"Sophie","cbRaisonSociale":"BRETEGNIER SOPHIE","cbSiretSiren":"1530500","cbAdresse1":"53 Bis rue Georges CLEMENCEAU","cbAdresse2":"Immeuble LES TERRASSES DE PORT MOSELLE","cbCp":"98800","cbVille":"NOUMEA","spLibelle1":"","spLibelle2":"","acDateSerment":"","coordinates":[166.4417966,-22.2725237]},{"NomBarreau":"NOUMEA (NOUVELLE CALEDONIE)","avNom":"BRIANT","avPrenom":"Sophie","cbRaisonSociale":"SELARL SOPHIE BRIANT","cbSiretSiren":"1273051","cbAdresse1":"29 RUE RENE COTY","cbAdresse2":"MONT-VENUS","cbCp":"98800","cbVille":"NOUMEA","spLibelle1":"","spLibelle2":"","acDateSerment":"","coordinates":[166.4470069,-22.2867211]},{"NomBarreau":"NOUMEA (NOUVELLE CALEDONIE)","avNom":"BULL","avPrenom":"Cédric Bernard","cbRaisonSociale":"BULL CEDRIC BERNARD","cbSiretSiren":"1419175","cbAdresse1":"56 rue Bataille","cbAdresse2":"Vallee des Colons","cbCp":"98800","cbVille":"NOUMEA","spLibelle1":"","spLibelle2":"","acDateSerment":"","coordinates":[166.44775928115854,-22.26672365]},{"NomBarreau":"NOUMEA (NOUVELLE CALEDONIE)","avNom":"CALMET","avPrenom":"Martin","cbRaisonSociale":"SARL DESWARTE-CALMET","cbSiretSiren":"1412162","cbAdresse1":"85 AVENUE DU GENERAL DE GAULLE","cbAdresse2":"IMMEUBLE CARCOPINO 3000","cbCp":"98800","cbVille":"NOUMEA","spLibelle1":"","spLibelle2":"","acDateSerment":"","coordinates":[166.4440124,-22.2801939]},{"NomBarreau":"NOUMEA (NOUVELLE CALEDONIE)","avNom":"CASIES","avPrenom":"Denis","cbRaisonSociale":"SELARL D'AVOCAT DENIS CASIES","cbSiretSiren":"1269935","cbAdresse1":"29 RUE JULES GARNIER","cbAdresse2":"BAIE DES CITRONS","cbCp":"98800","cbVille":"NOUMEA","spLibelle1":"","spLibelle2":"","acDateSerment":"","coordinates":[166.4398431,-22.2912107]},{"NomBarreau":"NOUMEA (NOUVELLE CALEDONIE)","avNom":"CAZALI","avPrenom":"Marie-Astrid","cbRaisonSociale":"M.A.C AVOCAT","cbSiretSiren":"1295609","cbAdresse1":"10 ROUTE DU VELODROME","cbAdresse2":"IMMEUBLE ROMA NUOVA","cbCp":"98800","cbVille":"NOUMEA","spLibelle1":"","spLibelle2":"","acDateSerment":"","coordinates":[166.445119,-22.2888998]},{"NomBarreau":"NOUMEA (NOUVELLE CALEDONIE)","avNom":"CHAMOUN","avPrenom":"Philippine","cbRaisonSociale":"CHAMOUN PHILIPPINE","cbSiretSiren":"1549112","cbAdresse1":"29 rue Jules GARNIER","cbAdresse2":"Baie des Citrons","cbCp":"98800","cbVille":"NOUMEA","spLibelle1":"","spLibelle2":"","acDateSerment":"","coordinates":[166.4398431,-22.2912107]},{"NomBarreau":"NOUMEA (NOUVELLE CALEDONIE)","avNom":"CHARLIER","avPrenom":"Raphaele","cbRaisonSociale":"SELARL RAPHAELE CHARLIER","cbSiretSiren":"1134196","cbAdresse1":"7 BIS rue de Suffren","cbAdresse2":"Immeuble LE KARIBA - 5ème étage","cbCp":"98807","cbVille":"NOUMEA","spLibelle1":"","spLibelle2":"","acDateSerment":"","coordinates":[166.4440219,-22.2786555]},{"NomBarreau":"NOUMEA (NOUVELLE CALEDONIE)","avNom":"CHATAIN","avPrenom":"Laure","cbRaisonSociale":"CABINET D'AFFAIRES CALEDONIEN","cbSiretSiren":"776575","cbAdresse1":"1 rue Arthur PELLETIER","cbAdresse2":"Faubourg Blanchot","cbCp":"98800","cbVille":"NOUMEA","spLibelle1":"","spLibelle2":"","acDateSerment":"","coordinates":[166.4493286,-22.2798795]},{"NomBarreau":"NOUMEA (NOUVELLE CALEDONIE)","avNom":"CHAUCHAT","avPrenom":"Louise","cbRaisonSociale":"CHAUCHAT LOUISE","cbSiretSiren":"1379841","cbAdresse1":"85 AVENUE DU GENERAL DE GAULLE","cbAdresse2":"IMMEUBLE CARCOPINO 3000","cbCp":"98800","cbVille":"NOUMEA","spLibelle1":"","spLibelle2":"","acDateSerment":"","coordinates":[166.4440124,-22.2801939]},{"NomBarreau":"NOUMEA (NOUVELLE CALEDONIE)","avNom":"CLAVELEAU","avPrenom":"Sybille","cbRaisonSociale":"DU FAU DE LAMOTHE SYBILLE EPOUSE CLAVELEAU","cbSiretSiren":"1266188","cbAdresse1":"10 ROUTE DU PORT DESPOINTES","cbAdresse2":"FAUBOURG BLANCHOT","cbCp":"98800","cbVille":"NOUMEA","spLibelle1":"","spLibelle2":"","acDateSerment":"","coordinates":[166.4506526,-22.2778907]},{"NomBarreau":"NOUMEA (NOUVELLE CALEDONIE)","avNom":"CUENOT","avPrenom":"Pierre-Henri","cbRaisonSociale":"SELARL PHC AVOCATS","cbSiretSiren":"814608","cbAdresse1":"28 RUE EUGENE PORCHERON","cbAdresse2":"IMMEUBLE ROGER BERARD","cbCp":"98800","cbVille":"NOUMEA","spLibelle1":"","spLibelle2":"","acDateSerment":"","coordinates":[166.4453604,-22.2752801]},{"NomBarreau":"NOUMEA (NOUVELLE CALEDONIE)","avNom":"DAVID","avPrenom":"Rose-Marie Jeanne Emmanuelle","cbRaisonSociale":"DAVID ROSE-MARIE JEANNE EMMANUELLE","cbSiretSiren":"1452226","cbAdresse1":"53 Bis rue Georges CLEMENCEAU","cbAdresse2":"Immeuble LES TERRASSES DE PORT MOSELLE","cbCp":"98800","cbVille":"NOUMEA","spLibelle1":"","spLibelle2":"","acDateSerment":"","coordinates":[166.4417966,-22.2725237]},{"NomBarreau":"NOUMEA (NOUVELLE CALEDONIE)","avNom":"DE GRESLAN","avPrenom":"Frédéric","cbRaisonSociale":"SOCIETE D'AVOCAT DE GRESLAN-LENTIGNAC","cbSiretSiren":"970921","cbAdresse1":"56 rue Bataille","cbAdresse2":"Vallee des Colons","cbCp":"98800","cbVille":"NOUMEA","spLibelle1":"","spLibelle2":"","acDateSerment":"","coordinates":[166.44775928115854,-22.26672365]},{"NomBarreau":"NOUMEA (NOUVELLE CALEDONIE)","avNom":"DESCOMBES","avPrenom":"Frédéric","cbRaisonSociale":"SELARL D'AVOCATS D&S LEGAL","cbSiretSiren":"1201052","cbAdresse1":"28 RUE EUGENE PORCHERON","cbAdresse2":"IMMEUBLE ROGER BERARD","cbCp":"98800","cbVille":"NOUMEA","spLibelle1":"","spLibelle2":"","acDateSerment":"","coordinates":[166.4453604,-22.2752801]},{"NomBarreau":"NOUMEA (NOUVELLE CALEDONIE)","avNom":"DI MAIO","avPrenom":"Annie","cbRaisonSociale":"SELARL D'AVOCATS CALEXIS","cbSiretSiren":"757344","cbAdresse1":"39 RUE RENE COTY","cbAdresse2":"IMMEUBLE LA VENUSTE","cbCp":"98800","cbVille":"NOUMEA","spLibelle1":"","spLibelle2":"","acDateSerment":"","coordinates":[166.4468808,-22.2875376]},{"NomBarreau":"NOUMEA (NOUVELLE CALEDONIE)","avNom":"DUMONS","avPrenom":"Anne-Laure","cbRaisonSociale":"DUMONS ANNE-LAURE","cbSiretSiren":"1526466","cbAdresse1":"5 rue Charles de Verneilh","cbAdresse2":"Quartier Latin","cbCp":"98800","cbVille":"NOUMEA","spLibelle1":"","spLibelle2":"","acDateSerment":"","coordinates":[166.4464199,-22.2748476]},{"NomBarreau":"NOUMEA (NOUVELLE CALEDONIE)","avNom":"DUMONS","avPrenom":"Stéphane","cbRaisonSociale":"DUMONS STEPHANE","cbSiretSiren":"1495852","cbAdresse1":"17 rue Anatole France","cbAdresse2":"Immeuble Le Central 2","cbCp":"98800","cbVille":"NOUMEA","spLibelle1":"","spLibelle2":"","acDateSerment":"","coordinates":[166.440887,-22.2716248]},{"NomBarreau":"NOUMEA (NOUVELLE CALEDONIE)","avNom":"DUPUY","avPrenom":"Philippe","cbRaisonSociale":"D'AVOCAT PHILIPPE DUPUY","cbSiretSiren":"1492420","cbAdresse1":"3 rue du Reverend Pere Goujon","cbAdresse2":"Vallee des Colons","cbCp":"98800","cbVille":"NOUMEA","spLibelle1":"","spLibelle2":"","acDateSerment":"","coordinates":[166.4559857,-22.2695012]},{"NomBarreau":"NOUMEA (NOUVELLE CALEDONIE)","avNom":"FOLCHER","avPrenom":"Lenka","cbRaisonSociale":"FOLCHER LENKA","cbSiretSiren":"1520005","cbAdresse1":"29 RUE RENE COTY","cbAdresse2":"MONT-VENUS","cbCp":"98800","cbVille":"NOUMEA","spLibelle1":"","spLibelle2":"","acDateSerment":"","coordinates":[166.4470069,-22.2867211]},{"NomBarreau":"NOUMEA (NOUVELLE CALEDONIE)","avNom":"GANDELIN","avPrenom":"Philippe","cbRaisonSociale":"SELARL PHILIPPE GANDELIN","cbSiretSiren":"809418","cbAdresse1":"12 ROUTE DU VELODROME","cbAdresse2":"BAIE DE L'ORPHELINAT","cbCp":"98800","cbVille":"NOUMEA","spLibelle1":"","spLibelle2":"","acDateSerment":"","coordinates":[166.4451592,-22.2895259]},{"NomBarreau":"NOUMEA (NOUVELLE CALEDONIE)","avNom":"GEFFRIAUD","avPrenom":"Constance","cbRaisonSociale":"GEFFRIAUD CONSTANCE","cbSiretSiren":"1524479","cbAdresse1":"29 RUE JULES GARNIER","cbAdresse2":"BAIE DES CITRONS","cbCp":"98800","cbVille":"NOUMEA","spLibelle1":"","spLibelle2":"","acDateSerment":"","coordinates":[166.4398431,-22.2912107]},{"NomBarreau":"NOUMEA (NOUVELLE CALEDONIE)","avNom":"GHIANI","avPrenom":"Claire","cbRaisonSociale":"CABINET D'AFFAIRES CALEDONIEN","cbSiretSiren":"776575","cbAdresse1":"1 rue Arthur PELLETIER","cbAdresse2":"Faubourg Blanchot","cbCp":"98800","cbVille":"NOUMEA","spLibelle1":"","spLibelle2":"","acDateSerment":"","coordinates":[166.4493286,-22.2798795]},{"NomBarreau":"NOUMEA (NOUVELLE CALEDONIE)","avNom":"GILLARDIN","avPrenom":"Philippe","cbRaisonSociale":"SARL GILLARDIN AVOCATS","cbSiretSiren":"938498","cbAdresse1":"3 BOULEVARD EXTERIEUR","cbAdresse2":"IMMEUBLE LE FORTIN","cbCp":"98800","cbVille":"NOUMEA","spLibelle1":"","spLibelle2":"","acDateSerment":"","coordinates":[166.4496729,-22.2733606]},{"NomBarreau":"NOUMEA (NOUVELLE CALEDONIE)","avNom":"GRAND-JEAN","avPrenom":"Philippe","cbRaisonSociale":"GRAND-JEAN PHILIPPE","cbSiretSiren":"510254","cbAdresse1":"34 Promenade Roger Laroque","cbAdresse2":"","cbCp":"98800","cbVille":"NOUMEA","spLibelle1":"","spLibelle2":"","acDateSerment":"","coordinates":[166.4463603,-22.3035489]},{"NomBarreau":"NOUMEA (NOUVELLE CALEDONIE)","avNom":"JOANNOPOULOS","avPrenom":"Céline","cbRaisonSociale":"CJ AVOCATS","cbSiretSiren":"1467000","cbAdresse1":"54 bis Auguste Benebig","cbAdresse2":"Vallée des Colons","cbCp":"98800","cbVille":"NOUMEA","spLibelle1":"","spLibelle2":"","acDateSerment":"","coordinates":[166.4573856,-22.2675154]},{"NomBarreau":"NOUMEA (NOUVELLE CALEDONIE)","avNom":"KLEIN","avPrenom":"Siggrid","cbRaisonSociale":"SIGGRID KLEIN","cbSiretSiren":"1379239","cbAdresse1":"12 rue Faidherbe","cbAdresse2":"Faubourg Blanchot","cbCp":"98848","cbVille":"NOUMEA","spLibelle1":"","spLibelle2":"","acDateSerment":"","coordinates":[166.4521893,-22.2793776]},{"NomBarreau":"NOUMEA (NOUVELLE CALEDONIE)","avNom":"KRUST","avPrenom":"Aurélie","cbRaisonSociale":"AK AVOCAT","cbSiretSiren":"1415645","cbAdresse1":"21 Boulevard Exterieur","cbAdresse2":"","cbCp":"98800","cbVille":"NOUMEA","spLibelle1":"","spLibelle2":"","acDateSerment":"","coordinates":[166.4496729,-22.2733606]},{"NomBarreau":"NOUMEA (NOUVELLE CALEDONIE)","avNom":"LABRO","avPrenom":"Alain","cbRaisonSociale":"SELARL LABRO ALAIN & ASSOCIES","cbSiretSiren":"871061","cbAdresse1":"12 ROUTE DU VELODROME","cbAdresse2":"ORPHELINAT","cbCp":"98800","cbVille":"NOUMEA","spLibelle1":"","spLibelle2":"","acDateSerment":"","coordinates":[166.4451592,-22.2895259]},{"NomBarreau":"NOUMEA (NOUVELLE CALEDONIE)","avNom":"LACROIX","avPrenom":"Karine","cbRaisonSociale":"LACROIX KARINE","cbSiretSiren":"945725","cbAdresse1":"26 RUE AUGUSTE BRUN","cbAdresse2":"QUARTIER LATIN","cbCp":"98800","cbVille":"NOUMEA","spLibelle1":"","spLibelle2":"","acDateSerment":"","coordinates":[166.4466147,-22.2761234]},{"NomBarreau":"NOUMEA (NOUVELLE CALEDONIE)","avNom":"LE THERY","avPrenom":"Véronique","cbRaisonSociale":"CABINET D'AFFAIRES CALEDONIEN","cbSiretSiren":"776575","cbAdresse1":"1 rue Arthur PELLETIER","cbAdresse2":"Faubourg Blanchot","cbCp":"98800","cbVille":"NOUMEA","spLibelle1":"","spLibelle2":"","acDateSerment":"","coordinates":[166.4493286,-22.2798795]},{"NomBarreau":"NOUMEA (NOUVELLE CALEDONIE)","avNom":"LECORDIER","avPrenom":"Elodie","cbRaisonSociale":"LECORDIER ELODIE","cbSiretSiren":"1334747","cbAdresse1":"28 RUE EUGENE PORCHERON","cbAdresse2":"IMMEUBLE ROGER BERARD","cbCp":"98800","cbVille":"NOUMEA","spLibelle1":"","spLibelle2":"","acDateSerment":"","coordinates":[166.4453604,-22.2752801]},{"NomBarreau":"NOUMEA (NOUVELLE CALEDONIE)","avNom":"LENTIGNAC","avPrenom":"Stéphane","cbRaisonSociale":"SOCIETE D'AVOCAT DE GRESLAN-LENTIGNAC","cbSiretSiren":"970921","cbAdresse1":"56 rue Bataille","cbAdresse2":"Vallee des Colons","cbCp":"98800","cbVille":"NOUMEA","spLibelle1":"","spLibelle2":"","acDateSerment":"","coordinates":[166.44775928115854,-22.26672365]},{"NomBarreau":"NOUMEA (NOUVELLE CALEDONIE)","avNom":"LOSTE","avPrenom":"Séverine","cbRaisonSociale":"SOCIETE D'AVOCATS JURISCAL","cbSiretSiren":"81778","cbAdresse1":"5 ROUTE DU VELODROME","cbAdresse2":"IMMEUBLE LA POTINIERE","cbCp":"98846","cbVille":"NOUMEA","spLibelle1":"","spLibelle2":"","acDateSerment":"","coordinates":[166.4451364,-22.2872806]},{"NomBarreau":"NOUMEA (NOUVELLE CALEDONIE)","avNom":"LOUAULT","avPrenom":"Pierre-Henri","cbRaisonSociale":"SOCIETE D'AVOCATS JURISCAL","cbSiretSiren":"81778","cbAdresse1":"5 ROUTE DU VELODROME","cbAdresse2":"IMMEUBLE LA POTINIERE","cbCp":"98846","cbVille":"NOUMEA","spLibelle1":"","spLibelle2":"","acDateSerment":"","coordinates":[166.4451364,-22.2872806]},{"NomBarreau":"NOUMEA (NOUVELLE CALEDONIE)","avNom":"MAHE","avPrenom":"Alicia Carmen Nadia","cbRaisonSociale":"MAHE ALICIA CARMEN NADIA","cbSiretSiren":"1546621","cbAdresse1":"85 AVENUE DU GENERAL DE GAULLE","cbAdresse2":"IMMEUBLE CARCOPINO 3000","cbCp":"98800","cbVille":"NOUMEA","spLibelle1":"","spLibelle2":"","acDateSerment":"","coordinates":[166.4440124,-22.2801939]},{"NomBarreau":"NOUMEA (NOUVELLE CALEDONIE)","avNom":"MARIE","avPrenom":"Fabien","cbRaisonSociale":"SELARL D'AVOCATS CALEXIS","cbSiretSiren":"757344","cbAdresse1":"39 RUE RENE COTY","cbAdresse2":"IMMEUBLE LA VENUSTE","cbCp":"98800","cbVille":"NOUMEA","spLibelle1":"","spLibelle2":"","acDateSerment":"","coordinates":[166.4468808,-22.2875376]},{"NomBarreau":"NOUMEA (NOUVELLE CALEDONIE)","avNom":"MARTINEZ","avPrenom":"Christelle","cbRaisonSociale":"CHRISTELLE MARTINEZ","cbSiretSiren":"1347954","cbAdresse1":"1 ter route du Port Despointes","cbAdresse2":"Faubourg Blanchot","cbCp":"98848","cbVille":"NOUMEA","spLibelle1":"","spLibelle2":"","acDateSerment":"","coordinates":[166.4515832,-22.2796841]},{"NomBarreau":"NOUMEA (NOUVELLE CALEDONIE)","avNom":"MAUDUECH-PANCRAZI","avPrenom":"Adeline","cbRaisonSociale":"MAUDUECH-PANCRAZI ADELINE","cbSiretSiren":"1213511","cbAdresse1":"56 rue Bataille","cbAdresse2":"Vallée des colons","cbCp":"98800","cbVille":"NOUMEA","spLibelle1":"","spLibelle2":"","acDateSerment":"","coordinates":[166.44775928115854,-22.26672365]},{"NomBarreau":"NOUMEA (NOUVELLE CALEDONIE)","avNom":"MAZZOLI","avPrenom":"Olivier","cbRaisonSociale":"SELARL OLIVIER MAZZOLI AVOCAT","cbSiretSiren":"1241660","cbAdresse1":"26 RUE AUGUSTE BRUN","cbAdresse2":"QUARTIER LATIN","cbCp":"98800","cbVille":"NOUMEA","spLibelle1":"","spLibelle2":"","acDateSerment":"","coordinates":[166.4466147,-22.2761234]},{"NomBarreau":"NOUMEA (NOUVELLE CALEDONIE)","avNom":"MELIS","avPrenom":"Chloe","cbRaisonSociale":"MELIS CHLOE","cbSiretSiren":"1543446","cbAdresse1":"10 rue Henri SCHMIDT","cbAdresse2":"Vallée des Colons","cbCp":"98800","cbVille":"NOUMEA","spLibelle1":"","spLibelle2":"","acDateSerment":"","coordinates":[166.4595722,-22.2759087]},{"NomBarreau":"NOUMEA (NOUVELLE CALEDONIE)","avNom":"MILLIARD","avPrenom":"Denis","cbRaisonSociale":"SOCIETE D'AVOCATS MILLIARD MILLION","cbSiretSiren":"991984","cbAdresse1":"7 RUE DU CAPITAINE DESMIER","cbAdresse2":"BAIE DES CITRONS","cbCp":"98800","cbVille":"NOUMEA","spLibelle1":"","spLibelle2":"","acDateSerment":"","coordinates":[166.4376357,-22.2942432]},{"NomBarreau":"NOUMEA (NOUVELLE CALEDONIE)","avNom":"MILLION","avPrenom":"Nicolas","cbRaisonSociale":"NICOLAS MILLION","cbSiretSiren":"1555606","cbAdresse1":"24 rue Gabriel LAROQUE","cbAdresse2":"Val Plaisance","cbCp":"98800","cbVille":"NOUMEA","spLibelle1":"","spLibelle2":"","acDateSerment":"","coordinates":[166.4502377,-22.3031834]},{"NomBarreau":"NOUMEA (NOUVELLE CALEDONIE)","avNom":"MOLET","avPrenom":"Palmyre","cbRaisonSociale":"SELARL PALMYRE MOLET-AVOCAT","cbSiretSiren":"1159557","cbAdresse1":"26 rue Auguste BRUN","cbAdresse2":"","cbCp":"98848","cbVille":"NOUMEA","spLibelle1":"","spLibelle2":"","acDateSerment":"","coordinates":[166.4438047,-22.2763342]},{"NomBarreau":"NOUMEA (NOUVELLE CALEDONIE)","avNom":"MORESCO","avPrenom":"Cécile","cbRaisonSociale":"SELARL AGUILA-MORESCO","cbSiretSiren":"814590","cbAdresse1":"37 RUE RENE COTY","cbAdresse2":"MONT-VENUS","cbCp":"98800","cbVille":"NOUMEA","spLibelle1":"","spLibelle2":"","acDateSerment":"","coordinates":[166.4469801,-22.2873291]},{"NomBarreau":"NOUMEA (NOUVELLE CALEDONIE)","avNom":"NEUFFER","avPrenom":"Morgan","cbRaisonSociale":"MORGAN NEUFFER","cbSiretSiren":"1378058","cbAdresse1":"53 Bis rue Georges CLEMENCEAU","cbAdresse2":"Immeuble LES TERRASSES DE PORT MOSELLE","cbCp":"98800","cbVille":"NOUMEA","spLibelle1":"","spLibelle2":"","acDateSerment":"","coordinates":[166.4417966,-22.2725237]},{"NomBarreau":"NOUMEA (NOUVELLE CALEDONIE)","avNom":"OLIVIER","avPrenom":"Philippe","cbRaisonSociale":"SELARL D'AVOCAT OLIVIER PH","cbSiretSiren":"670372","cbAdresse1":"3 RUE CHARLES GAVEAU","cbAdresse2":"QUARTIER LATIN","cbCp":"98800","cbVille":"NOUMEA","spLibelle1":"","spLibelle2":"","acDateSerment":"","coordinates":[166.4467334,-22.2773736]},{"NomBarreau":"NOUMEA (NOUVELLE CALEDONIE)","avNom":"PAUTONNIER","avPrenom":"Johanne","cbRaisonSociale":"SELARL D'AVOCAT FRANCK ROYANEZ","cbSiretSiren":"928366","cbAdresse1":"29 RUE JULES GARNIER","cbAdresse2":"BAIE DES CITRONS","cbCp":"98800","cbVille":"NOUMEA","spLibelle1":"","spLibelle2":"","acDateSerment":"","coordinates":[166.4398431,-22.2912107]},{"NomBarreau":"NOUMEA (NOUVELLE CALEDONIE)","avNom":"PELLETIER","avPrenom":"Thérèse","cbRaisonSociale":"SELARL T.PELLETIER CONSULTANTS","cbSiretSiren":"220855","cbAdresse1":"3 BIS RUE DE STRASBOURG","cbAdresse2":"FAUBOURG BLANCHOT","cbCp":"98800","cbVille":"NOUMEA","spLibelle1":"","spLibelle2":"","acDateSerment":"","coordinates":[166.4494674,-22.2783284]},{"NomBarreau":"NOUMEA (NOUVELLE CALEDONIE)","avNom":"PIDJOT-ALLARD","avPrenom":"Nadine","cbRaisonSociale":"SELARL NPA","cbSiretSiren":"1370089","cbAdresse1":"85 Route de l'Anse Vata","cbAdresse2":"Immeuble Le ROUGEMONT","cbCp":"98800","cbVille":"NOUMEA","spLibelle1":"","spLibelle2":"","acDateSerment":"","coordinates":[166.4478815,-22.2906029]},{"NomBarreau":"NOUMEA (NOUVELLE CALEDONIE)","avNom":"PIEUX","avPrenom":"Loic","cbRaisonSociale":"LOAC PIEUX","cbSiretSiren":"1416320","cbAdresse1":"11 rue Georges Baudoux","cbAdresse2":"Immeuble Le Norwich","cbCp":"98848","cbVille":"NOUMEA","spLibelle1":"","spLibelle2":"","acDateSerment":"","coordinates":[166.442714,-22.2809755]},{"NomBarreau":"NOUMEA (NOUVELLE CALEDONIE)","avNom":"PLAISANT","avPrenom":"Caroline","cbRaisonSociale":"SELARL CABINET PLAISANT","cbSiretSiren":"641407","cbAdresse1":"21 BOULEVARD EXTERIEUR","cbAdresse2":"FAUBOURG BLANCHOT","cbCp":"98800","cbVille":"NOUMEA","spLibelle1":"","spLibelle2":"","acDateSerment":"","coordinates":[166.4496729,-22.2733606]},{"NomBarreau":"NOUMEA (NOUVELLE CALEDONIE)","avNom":"ROBERTSON","avPrenom":"Valérie","cbRaisonSociale":"ROBERTSON VALERIE","cbSiretSiren":"363085","cbAdresse1":"16 Rue Bichat","cbAdresse2":"Immeuble Le Fuji","cbCp":"98800","cbVille":"NOUMEA","spLibelle1":"","spLibelle2":"","acDateSerment":"","coordinates":[166.4475691,-22.2771847]},{"NomBarreau":"NOUMEA (NOUVELLE CALEDONIE)","avNom":"ROGER","avPrenom":"Marie-Christine","cbRaisonSociale":"SOCIETE D'AVOCAT M.C. ROGER","cbSiretSiren":"723551","cbAdresse1":"7 RUE DU CAPITAINE DESMIER","cbAdresse2":"BAIE DES CITRONS","cbCp":"98800","cbVille":"NOUMEA","spLibelle1":"","spLibelle2":"","acDateSerment":"","coordinates":[166.4376357,-22.2942432]},{"NomBarreau":"NOUMEA (NOUVELLE CALEDONIE)","avNom":"ROLIN","avPrenom":"Charlotte ","cbRaisonSociale":"CHARLOTTE ROLIN","cbSiretSiren":"1492263","cbAdresse1":"39 rue Rene Coty","cbAdresse2":"Immeuble  La Vénusté","cbCp":"98800","cbVille":"NOUMEA","spLibelle1":"","spLibelle2":"","acDateSerment":"","coordinates":[166.4468808,-22.2875376]},{"NomBarreau":"NOUMEA (NOUVELLE CALEDONIE)","avNom":"ROYANEZ","avPrenom":"Franck","cbRaisonSociale":"SELARL D'AVOCAT FRANCK ROYANEZ","cbSiretSiren":"928366","cbAdresse1":"29 RUE JULES GARNIER","cbAdresse2":"BAIE DES CITRONS","cbCp":"98800","cbVille":"NOUMEA","spLibelle1":"","spLibelle2":"","acDateSerment":"","coordinates":[166.4398431,-22.2912107]},{"NomBarreau":"NOUMEA (NOUVELLE CALEDONIE)","avNom":"SAUDEAU-FAIVRE","avPrenom":"Anne, Christine, Bénédicte, Marie","cbRaisonSociale":"ASF TAX & LEGAL","cbSiretSiren":"1476373","cbAdresse1":"16 rue Bichat","cbAdresse2":"Immeuble LE FUJI - QUARTIER LATIN","cbCp":"98848","cbVille":"NOUMEA","spLibelle1":"","spLibelle2":"","acDateSerment":"","coordinates":[166.4475691,-22.2771847]},{"NomBarreau":"NOUMEA (NOUVELLE CALEDONIE)","avNom":"TARDIEU","avPrenom":"Alexia","cbRaisonSociale":"ALEXIA TARDIEU","cbSiretSiren":"1406230","cbAdresse1":"3 rue Georges CLEMENCEAU","cbAdresse2":"","cbCp":"98848","cbVille":"NOUMEA","spLibelle1":"Droit du dommage corporel","spLibelle2":"","acDateSerment":"","coordinates":[166.4417966,-22.2725237]},{"NomBarreau":"NOUMEA (NOUVELLE CALEDONIE)","avNom":"TASTET","avPrenom":"Juliette","cbRaisonSociale":"SARL DESWARTE-CALMET","cbSiretSiren":"1412162","cbAdresse1":"85 AVENUE DU GENERAL DE GAULLE","cbAdresse2":"IMMEUBLE CARCOPINO 3000","cbCp":"98800","cbVille":"NOUMEA","spLibelle1":"","spLibelle2":"","acDateSerment":"","coordinates":[166.4440124,-22.2801939]},{"NomBarreau":"NOUMEA (NOUVELLE CALEDONIE)","avNom":"VILLAUME","avPrenom":"Pierre-Louis","cbRaisonSociale":"VILLAUME PIERRE-LOUIS","cbSiretSiren":"807206","cbAdresse1":"35 RUE DE L'ALMA","cbAdresse2":"CENTRE VILLE","cbCp":"98800","cbVille":"NOUMEA","spLibelle1":"","spLibelle2":"","acDateSerment":"","coordinates":[166.4420398,-22.2695635]},{"NomBarreau":"NOUMEA (NOUVELLE CALEDONIE)","avNom":"VU","avPrenom":"Alexe-Sandra","cbRaisonSociale":"ALEXE-SANDRA VU","cbSiretSiren":"1389741","cbAdresse1":"10 rue Henri SCHMIDT","cbAdresse2":"Vallée des Colons","cbCp":"98848","cbVille":"NOUMEA","spLibelle1":"","spLibelle2":"","acDateSerment":"","coordinates":[166.4595722,-22.2759087]}]