[{"NomBarreau":"SEINE-SAINT-DENIS","avNom":"ABABSA","avPrenom":"Louise","cbRaisonSociale":"ABABSA","cbSiretSiren":"409561842","cbAdresse1":"138 Avenue Jean Lolive","cbAdresse2":"","cbCp":"93500","cbVille":"PANTIN","spLibelle1":"","spLibelle2":"","acDateSerment":"","coordinates":[2.41433,48.89307]},{"NomBarreau":"SEINE-SAINT-DENIS","avNom":"AMARI","avPrenom":"Houria","cbRaisonSociale":"AMARI","cbSiretSiren":"348370842","cbAdresse1":"7 Rue Etienne Marcel","cbAdresse2":"","cbCp":"93500","cbVille":"PANTIN","spLibelle1":"","spLibelle2":"","acDateSerment":"","coordinates":[2.404633006567549,48.89216005]},{"NomBarreau":"SEINE-SAINT-DENIS","avNom":"APAYDIN","avPrenom":"Oznur","cbRaisonSociale":"APAYDIN","cbSiretSiren":"441933074","cbAdresse1":"233 TER Avenue Jean Lolive","cbAdresse2":"","cbCp":"93500","cbVille":"PANTIN","spLibelle1":"","spLibelle2":"","acDateSerment":"","coordinates":[2.422395,48.895242]},{"NomBarreau":"SEINE-SAINT-DENIS","avNom":"ARAKELIAN","avPrenom":"Gérard","cbRaisonSociale":"ARAKELIAN","cbSiretSiren":"483178133","cbAdresse1":"43-45 Avenue Jean Lolive","cbAdresse2":"","cbCp":"93500","cbVille":"PANTIN","spLibelle1":"","spLibelle2":"","acDateSerment":"","coordinates":[2.4011129,48.8910327]},{"NomBarreau":"SEINE-SAINT-DENIS","avNom":"BECKERS","avPrenom":"Maude","cbRaisonSociale":"BECKERS","cbSiretSiren":"443614755","cbAdresse1":"34 Rue Scandicci","cbAdresse2":"","cbCp":"93500","cbVille":"PANTIN","spLibelle1":"Droit du travail","spLibelle2":"","acDateSerment":"","coordinates":[2.39926,48.893534]},{"NomBarreau":"SEINE-SAINT-DENIS","avNom":"BEKEL","avPrenom":"Abdelhalim","cbRaisonSociale":"BEKEL","cbSiretSiren":"420072084","cbAdresse1":"5 Rue Maurice Borreau","cbAdresse2":"","cbCp":"93500","cbVille":"PANTIN","spLibelle1":"","spLibelle2":"","acDateSerment":"","coordinates":[2.417348,48.893624]},{"NomBarreau":"SEINE-SAINT-DENIS","avNom":"BEY","avPrenom":"Zakia","cbRaisonSociale":"BEY","cbSiretSiren":"414981894","cbAdresse1":"134 Avenue Jean Lolive","cbAdresse2":"","cbCp":"93500","cbVille":"PANTIN","spLibelle1":"","spLibelle2":"","acDateSerment":"","coordinates":[2.414338,48.89291]},{"NomBarreau":"SEINE-SAINT-DENIS","avNom":"BINGHAM","avPrenom":"John","cbRaisonSociale":"BINGHAM","cbSiretSiren":"833631013","cbAdresse1":"1 Rue Charles Auray","cbAdresse2":"","cbCp":"93500","cbVille":"PANTIN","spLibelle1":"","spLibelle2":"","acDateSerment":"","coordinates":[2.4142943,48.8919434]},{"NomBarreau":"SEINE-SAINT-DENIS","avNom":"BIROLINI","avPrenom":"Pauline","cbRaisonSociale":"BIROLINI","cbSiretSiren":"833671720","cbAdresse1":"34 Rue Scandicci","cbAdresse2":"","cbCp":"93500","cbVille":"PANTIN","spLibelle1":"","spLibelle2":"","acDateSerment":"","coordinates":[2.39926,48.893534]},{"NomBarreau":"SEINE-SAINT-DENIS","avNom":"BOURDOT","avPrenom":"Manon","cbRaisonSociale":"BOURDOT","cbSiretSiren":"838490266","cbAdresse1":"34 Rue Scandicci","cbAdresse2":"","cbCp":"93500","cbVille":"PANTIN","spLibelle1":"","spLibelle2":"","acDateSerment":"","coordinates":[2.39926,48.893534]},{"NomBarreau":"SEINE-SAINT-DENIS","avNom":"BOUSQUET","avPrenom":"Aurélie","cbRaisonSociale":"BOUSQUET","cbSiretSiren":"488665449","cbAdresse1":"43-45 Avenue Jean Lolive","cbAdresse2":"","cbCp":"93500","cbVille":"PANTIN","spLibelle1":"","spLibelle2":"","acDateSerment":"","coordinates":[2.4011129,48.8910327]},{"NomBarreau":"SEINE-SAINT-DENIS","avNom":"BRETON","avPrenom":"Delphine","cbRaisonSociale":"BRETON","cbSiretSiren":"817414725","cbAdresse1":"34 Rue Scandicci","cbAdresse2":"","cbCp":"93500","cbVille":"PANTIN","spLibelle1":"","spLibelle2":"","acDateSerment":"","coordinates":[2.39926,48.893534]},{"NomBarreau":"SEINE-SAINT-DENIS","avNom":"CASADEI","avPrenom":"Delphine","cbRaisonSociale":"CASADEI","cbSiretSiren":"442461208","cbAdresse1":"9 Rue Etienne Marcel","cbAdresse2":"","cbCp":"93500","cbVille":"PANTIN","spLibelle1":"","spLibelle2":"","acDateSerment":"","coordinates":[2.404648388813561,48.8922777]},{"NomBarreau":"SEINE-SAINT-DENIS","avNom":"CLERGET","avPrenom":"Mathilde","cbRaisonSociale":"CLERGET","cbSiretSiren":"893815977","cbAdresse1":"34 Rue Scandicci","cbAdresse2":"","cbCp":"93500","cbVille":"PANTIN","spLibelle1":"","spLibelle2":"","acDateSerment":"","coordinates":[2.39926,48.893534]},{"NomBarreau":"SEINE-SAINT-DENIS","avNom":"FEVRIER","avPrenom":"Julie","cbRaisonSociale":"FEVRIER","cbSiretSiren":"879799666","cbAdresse1":"9 Rue Etienne Marcel","cbAdresse2":"","cbCp":"93500","cbVille":"PANTIN","spLibelle1":"","spLibelle2":"","acDateSerment":"","coordinates":[2.404648388813561,48.8922777]},{"NomBarreau":"SEINE-SAINT-DENIS","avNom":"GASMI","avPrenom":"Ryme","cbRaisonSociale":"GASMI","cbSiretSiren":"443266457","cbAdresse1":"8 Rue Auger","cbAdresse2":"","cbCp":"93500","cbVille":"PANTIN","spLibelle1":"","spLibelle2":"","acDateSerment":"","coordinates":[2.401203439325843,48.89149815]},{"NomBarreau":"SEINE-SAINT-DENIS","avNom":"GOMEZ GARAVITO","avPrenom":"José Luis","cbRaisonSociale":"GOMEZ GARAVITO","cbSiretSiren":"539357897","cbAdresse1":"28 Rue Scandicci","cbAdresse2":"","cbCp":"93500","cbVille":"PANTIN","spLibelle1":"","spLibelle2":"","acDateSerment":"","coordinates":[2.399018,48.893436]},{"NomBarreau":"SEINE-SAINT-DENIS","avNom":"GORVITZ","avPrenom":"Caroline","cbRaisonSociale":"GORVITZ","cbSiretSiren":"507535177","cbAdresse1":"138 Avenue Jean Lolive","cbAdresse2":"","cbCp":"93500","cbVille":"PANTIN","spLibelle1":"","spLibelle2":"","acDateSerment":"","coordinates":[2.41433,48.89307]},{"NomBarreau":"SEINE-SAINT-DENIS","avNom":"GRIMAUD","avPrenom":"Valérie","cbRaisonSociale":"GLC","cbSiretSiren":"881426050","cbAdresse1":"3 Rue Charles Auray","cbAdresse2":"","cbCp":"93500","cbVille":"PANTIN","spLibelle1":"","spLibelle2":"","acDateSerment":"","coordinates":[2.4142845,48.891898]},{"NomBarreau":"SEINE-SAINT-DENIS","avNom":"GUIRASSY","avPrenom":"Naissata","cbRaisonSociale":"GUIRASSY","cbSiretSiren":"897727608","cbAdresse1":"138 Avenue Jean Lolive","cbAdresse2":"","cbCp":"93500","cbVille":"PANTIN","spLibelle1":"","spLibelle2":"","acDateSerment":"","coordinates":[2.41433,48.89307]},{"NomBarreau":"SEINE-SAINT-DENIS","avNom":"HADJI","avPrenom":"Michel","cbRaisonSociale":"HADJI","cbSiretSiren":"353061187","cbAdresse1":"8 Rue Auger","cbAdresse2":"","cbCp":"93500","cbVille":"PANTIN","spLibelle1":"","spLibelle2":"","acDateSerment":"","coordinates":[2.401203439325843,48.89149815]},{"NomBarreau":"SEINE-SAINT-DENIS","avNom":"HERRY","avPrenom":"Anne-Lise","cbRaisonSociale":"HERRY","cbSiretSiren":"","cbAdresse1":"43-45 Avenue Jean Lolive","cbAdresse2":"","cbCp":"93500","cbVille":"PANTIN","spLibelle1":"","spLibelle2":"","acDateSerment":"","coordinates":[2.4011129,48.8910327]},{"NomBarreau":"SEINE-SAINT-DENIS","avNom":"JEAN","avPrenom":"Julie","cbRaisonSociale":"JEAN","cbSiretSiren":"833048523","cbAdresse1":"34 Rue Scandicci","cbAdresse2":"","cbCp":"93500","cbVille":"PANTIN","spLibelle1":"","spLibelle2":"","acDateSerment":"","coordinates":[2.39926,48.893534]},{"NomBarreau":"SEINE-SAINT-DENIS","avNom":"LE QUELLEC","avPrenom":"Loic","cbRaisonSociale":"LE QUELLEC","cbSiretSiren":"537943896","cbAdresse1":"1 Rue Charles Auray","cbAdresse2":"","cbCp":"93500","cbVille":"PANTIN","spLibelle1":"","spLibelle2":"","acDateSerment":"","coordinates":[2.4142943,48.8919434]},{"NomBarreau":"SEINE-SAINT-DENIS","avNom":"LEPRON","avPrenom":"Edwige","cbRaisonSociale":"LEPRON","cbSiretSiren":"899258032","cbAdresse1":"3 Rue Charles Auray","cbAdresse2":"","cbCp":"93500","cbVille":"PANTIN","spLibelle1":"","spLibelle2":"","acDateSerment":"","coordinates":[2.4142845,48.891898]},{"NomBarreau":"SEINE-SAINT-DENIS","avNom":"LESUEUR","avPrenom":"Audrey","cbRaisonSociale":"LESUEUR","cbSiretSiren":"792691115","cbAdresse1":"9 Rue Etienne Marcel","cbAdresse2":"","cbCp":"93500","cbVille":"PANTIN","spLibelle1":"","spLibelle2":"","acDateSerment":"","coordinates":[2.404648388813561,48.8922777]},{"NomBarreau":"SEINE-SAINT-DENIS","avNom":"LOUIS","avPrenom":"Florence","cbRaisonSociale":"GLC","cbSiretSiren":"881426050","cbAdresse1":"3 Rue Charles Auray","cbAdresse2":"","cbCp":"93500","cbVille":"PANTIN","spLibelle1":"","spLibelle2":"","acDateSerment":"","coordinates":[2.4142845,48.891898]},{"NomBarreau":"SEINE-SAINT-DENIS","avNom":"MACHICOTE","avPrenom":"Constance","cbRaisonSociale":"MACHICOTE","cbSiretSiren":"845373703","cbAdresse1":"9 Rue Etienne Marcel","cbAdresse2":"","cbCp":"93500","cbVille":"PANTIN","spLibelle1":"","spLibelle2":"","acDateSerment":"","coordinates":[2.404648388813561,48.8922777]},{"NomBarreau":"SEINE-SAINT-DENIS","avNom":"MARTINEZ","avPrenom":"Xavier","cbRaisonSociale":"MARTINEZ","cbSiretSiren":"494728421","cbAdresse1":"5 Rue Gutenberg","cbAdresse2":"","cbCp":"93500","cbVille":"PANTIN","spLibelle1":"","spLibelle2":"","acDateSerment":"","coordinates":[2.404347,48.888403]},{"NomBarreau":"SEINE-SAINT-DENIS","avNom":"MIMOUN","avPrenom":"Lisa","cbRaisonSociale":"T&M ASSOCIES","cbSiretSiren":"827456229","cbAdresse1":"133 Avenue Jean Lolive","cbAdresse2":"","cbCp":"93500","cbVille":"PANTIN","spLibelle1":"","spLibelle2":"","acDateSerment":"","coordinates":[2.4116028,48.8930152]},{"NomBarreau":"SEINE-SAINT-DENIS","avNom":"NOURDINE","avPrenom":"Nadia","cbRaisonSociale":"NOURDINE","cbSiretSiren":"494733470","cbAdresse1":"138 Avenue Jean Lolive","cbAdresse2":"","cbCp":"93500","cbVille":"PANTIN","spLibelle1":"","spLibelle2":"","acDateSerment":"","coordinates":[2.41433,48.89307]},{"NomBarreau":"SEINE-SAINT-DENIS","avNom":"PETER","avPrenom":"Nina","cbRaisonSociale":"PETER","cbSiretSiren":"878816453","cbAdresse1":"9 Rue Etienne Marcel","cbAdresse2":"","cbCp":"93500","cbVille":"PANTIN","spLibelle1":"","spLibelle2":"","acDateSerment":"","coordinates":[2.404648388813561,48.8922777]},{"NomBarreau":"SEINE-SAINT-DENIS","avNom":"ROULETTE","avPrenom":"Patrick","cbRaisonSociale":"ROULETTE PATRICK","cbSiretSiren":"381444322","cbAdresse1":"138 Avenue Jean Lolive","cbAdresse2":"","cbCp":"93500","cbVille":"PANTIN","spLibelle1":"","spLibelle2":"","acDateSerment":"","coordinates":[2.41433,48.89307]},{"NomBarreau":"SEINE-SAINT-DENIS","avNom":"TALEB","avPrenom":"Ahcene","cbRaisonSociale":"TALEB","cbSiretSiren":"348249764","cbAdresse1":"17 Rue Gabrielle Josserand","cbAdresse2":"","cbCp":"93500","cbVille":"PANTIN","spLibelle1":"","spLibelle2":"","acDateSerment":"","coordinates":[2.39446918856276,48.90390155]},{"NomBarreau":"SEINE-SAINT-DENIS","avNom":"TOURE","avPrenom":"Habiba","cbRaisonSociale":"T&M ASSOCIES","cbSiretSiren":"827456229","cbAdresse1":"133 Avenue Jean Lolive","cbAdresse2":"","cbCp":"93500","cbVille":"PANTIN","spLibelle1":"","spLibelle2":"","acDateSerment":"","coordinates":[2.4116028,48.8930152]},{"NomBarreau":"SEINE-SAINT-DENIS","avNom":"VANNIER","avPrenom":"Camille","cbRaisonSociale":"VANNIER","cbSiretSiren":"809372261","cbAdresse1":"1 Rue Charles Auray","cbAdresse2":"","cbCp":"93500","cbVille":"PANTIN","spLibelle1":"","spLibelle2":"","acDateSerment":"","coordinates":[2.4142943,48.8919434]}]