[{"NomBarreau":"PAU","avNom":"AKROUM","avPrenom":"Mehdi","cbRaisonSociale":"AKROUM MEHDI","cbSiretSiren":"842858409","cbAdresse1":"23 rue Samonzet","cbAdresse2":"","cbCp":"64000","cbVille":"PAU","spLibelle1":"","spLibelle2":"","acDateSerment":"","coordinates":[-0.3681333,43.2986156]},{"NomBarreau":"PAU","avNom":"ALIK-CAZENAVE","avPrenom":"Michel","cbRaisonSociale":"ALIK-CAZENAVE MICHEL","cbSiretSiren":"917443202","cbAdresse1":"31 Rue Bayard","cbAdresse2":"","cbCp":"64000","cbVille":"PAU","spLibelle1":"","spLibelle2":"","acDateSerment":"","coordinates":[-0.3777109,43.2969114]},{"NomBarreau":"PAU","avNom":"ANDRIGHETTO","avPrenom":"Joelle","cbRaisonSociale":"ANDRIGHETTO JOELLE","cbSiretSiren":"434537130","cbAdresse1":"6 rue Auguste Renoir","cbAdresse2":"Résidence Les Pléiades","cbCp":"64000","cbVille":"PAU","spLibelle1":"","spLibelle2":"","acDateSerment":"","coordinates":[-0.3583261,43.3099695]},{"NomBarreau":"PAU","avNom":"ANEROT BAYLAUCQ","avPrenom":"Valérie","cbRaisonSociale":"ANEROT-BAYLAUCQ VALERIE","cbSiretSiren":"442440533","cbAdresse1":"5 rue Carnot","cbAdresse2":"","cbCp":"64000","cbVille":"PAU","spLibelle1":"","spLibelle2":"","acDateSerment":"","coordinates":[-0.3704541,43.2989675]},{"NomBarreau":"PAU","avNom":"AZAVANT","avPrenom":"Marc","cbRaisonSociale":"AZAVANT MARC","cbSiretSiren":"482638046","cbAdresse1":"8 Cours Camou","cbAdresse2":"","cbCp":"64000","cbVille":"PAU","spLibelle1":"","spLibelle2":"","acDateSerment":"","coordinates":[-0.3770792,43.3002162]},{"NomBarreau":"PAU","avNom":"BARNABA","avPrenom":"Alexandrine","cbRaisonSociale":"BARNABA ALEXANDRINE","cbSiretSiren":"394138895","cbAdresse1":"3 place Albert 1er","cbAdresse2":"","cbCp":"64000","cbVille":"PAU","spLibelle1":"","spLibelle2":"","acDateSerment":"","coordinates":[-0.3729936,43.299115]},{"NomBarreau":"PAU","avNom":"BATUT","avPrenom":"Catherine","cbRaisonSociale":"ABL ASSOCIES","cbSiretSiren":"452142920","cbAdresse1":"227 Avenue Alfred Nobel","cbAdresse2":"","cbCp":"64000","cbVille":"PAU","spLibelle1":"","spLibelle2":"","acDateSerment":"","coordinates":[-0.3329969,43.3067339]},{"NomBarreau":"PAU","avNom":"BAUCOU","avPrenom":"Fabienne","cbRaisonSociale":"BAUCOU FABIENNE","cbSiretSiren":"799026679","cbAdresse1":"40 RUE DE LIEGE","cbAdresse2":"","cbCp":"64000","cbVille":"PAU","spLibelle1":"","spLibelle2":"","acDateSerment":"","coordinates":[-0.3749569,43.2996933]},{"NomBarreau":"PAU","avNom":"BAZIN","avPrenom":"Carine","cbRaisonSociale":"BAZIN CARINE","cbSiretSiren":"509626040","cbAdresse1":"4 rue Mourot","cbAdresse2":"","cbCp":"64000","cbVille":"PAU","spLibelle1":"","spLibelle2":"","acDateSerment":"","coordinates":[-0.37154,43.2986528]},{"NomBarreau":"PAU","avNom":"BEDOURET","avPrenom":"Elodie","cbRaisonSociale":"BEDOURET ELODIE","cbSiretSiren":"800132920","cbAdresse1":"40 RUE DE LIEGE","cbAdresse2":"","cbCp":"64000","cbVille":"PAU","spLibelle1":"","spLibelle2":"","acDateSerment":"","coordinates":[-0.3749569,43.2996933]},{"NomBarreau":"PAU","avNom":"BELLEGARDE","avPrenom":"Frédéric","cbRaisonSociale":"BELLEGARDE FREDERIC","cbSiretSiren":"399411982","cbAdresse1":"22 rue Bernadotte","cbAdresse2":"","cbCp":"64000","cbVille":"PAU","spLibelle1":"","spLibelle2":"","acDateSerment":"","coordinates":[-0.3737774,43.2973947]},{"NomBarreau":"PAU","avNom":"BERGUE","avPrenom":"Valentin","cbRaisonSociale":"BERGUE VALENTIN","cbSiretSiren":"833112287","cbAdresse1":"9 Rue Montpensier","cbAdresse2":"","cbCp":"64000","cbVille":"PAU","spLibelle1":"","spLibelle2":"","acDateSerment":"","coordinates":[-0.3712109,43.299096]},{"NomBarreau":"PAU","avNom":"BERNADET","avPrenom":"Jacques","cbRaisonSociale":"BERNADET JACQUES","cbSiretSiren":"782354435","cbAdresse1":"3 Rue Faget de Baure","cbAdresse2":"","cbCp":"64000","cbVille":"PAU","spLibelle1":"","spLibelle2":"","acDateSerment":"","coordinates":[-0.3724567,43.2984216]},{"NomBarreau":"PAU","avNom":"BERQUE","avPrenom":"Cécile","cbRaisonSociale":"BERQUE CECILE","cbSiretSiren":"824713838","cbAdresse1":"8 Rue DuplaU ","cbAdresse2":"2ème étage","cbCp":"64000","cbVille":"PAU","spLibelle1":"","spLibelle2":"","acDateSerment":"","coordinates":[-0.3727088,43.2997282]},{"NomBarreau":"PAU","avNom":"BIELHER","avPrenom":"Anais","cbRaisonSociale":"BIELHER ANAAS","cbSiretSiren":"","cbAdresse1":"22 Rue des Cordeliers","cbAdresse2":"","cbCp":"64000","cbVille":"PAU","spLibelle1":"","spLibelle2":"","acDateSerment":"","coordinates":[-0.3716674,43.2970904]},{"NomBarreau":"PAU","avNom":"BIOU","avPrenom":"Caroline","cbRaisonSociale":"BIOU CAROLINE","cbSiretSiren":"445103815","cbAdresse1":"4 Place Albert 1er","cbAdresse2":"","cbCp":"64000","cbVille":"PAU","spLibelle1":"","spLibelle2":"","acDateSerment":"","coordinates":[-0.3724144,43.2994272]},{"NomBarreau":"PAU","avNom":"BLANCHE","avPrenom":"Guillaume","cbRaisonSociale":"BLANCHE GUILLAUME","cbSiretSiren":"484041439","cbAdresse1":"2 Place Marguerite Laborde","cbAdresse2":"","cbCp":"64000","cbVille":"PAU","spLibelle1":"","spLibelle2":"","acDateSerment":"","coordinates":[-0.3671891,43.300145]},{"NomBarreau":"PAU","avNom":"BLANCO","avPrenom":"Jean François","cbRaisonSociale":"BLANCO JEAN-FRANCOIS","cbSiretSiren":"322798307","cbAdresse1":"09 rue Tran","cbAdresse2":"","cbCp":"64000","cbVille":"PAU","spLibelle1":"Droit du travail","spLibelle2":"Droit pénal","acDateSerment":"","coordinates":[-0.374105,43.2966881]},{"NomBarreau":"PAU","avNom":"BLUœM","avPrenom":"Cécile","cbRaisonSociale":"BARTHELEMY AVOCATS","cbSiretSiren":"493390991","cbAdresse1":"2 Rue O'Quin","cbAdresse2":"VILLA HOPE","cbCp":"64000","cbVille":"PAU","spLibelle1":"Droit de la sécurité sociale et de la protection sociale","spLibelle2":"Droit du travail","acDateSerment":"","coordinates":[-0.3711342,43.3011593]},{"NomBarreau":"PAU","avNom":"BONHOMME CARDON","avPrenom":"Rosine","cbRaisonSociale":"BONHOMME-CARDON ROSINE","cbSiretSiren":"444948236","cbAdresse1":"5 rue Carnot","cbAdresse2":"","cbCp":"64000","cbVille":"PAU","spLibelle1":"","spLibelle2":"","acDateSerment":"","coordinates":[-0.3704541,43.2989675]},{"NomBarreau":"PAU","avNom":"BONNEMASON CARRERE","avPrenom":"David","cbRaisonSociale":"ACBC","cbSiretSiren":"400350559","cbAdresse1":"9 Rue Montpensier","cbAdresse2":"","cbCp":"64000","cbVille":"PAU","spLibelle1":"","spLibelle2":"","acDateSerment":"","coordinates":[-0.3712109,43.299096]},{"NomBarreau":"PAU","avNom":"BORDANAVE VIGNAU","avPrenom":"Delphine","cbRaisonSociale":"BORDANAVE VIGNAU DELPHINE","cbSiretSiren":"791754112","cbAdresse1":"8 cours Camou","cbAdresse2":"","cbCp":"64000","cbVille":"PAU","spLibelle1":"","spLibelle2":"","acDateSerment":"","coordinates":[-0.3770792,43.3002162]},{"NomBarreau":"PAU","avNom":"BORDENAVE","avPrenom":"Philippe","cbRaisonSociale":"BORDENAVE PHILIPPE","cbSiretSiren":"384441143","cbAdresse1":"19 rue Bayard","cbAdresse2":"","cbCp":"64000","cbVille":"PAU","spLibelle1":"","spLibelle2":"","acDateSerment":"","coordinates":[-0.3765504,43.2970316]},{"NomBarreau":"PAU","avNom":"BOUTHORS","avPrenom":"Mélisande","cbRaisonSociale":"BOUTHORS MELISANDE","cbSiretSiren":"","cbAdresse1":"4 Rue Pasteur","cbAdresse2":"Résidence le d'Orsay","cbCp":"64000","cbVille":"PAU","spLibelle1":"","spLibelle2":"","acDateSerment":"","coordinates":[-0.3697354,43.3016149]},{"NomBarreau":"PAU","avNom":"BRIERE","avPrenom":"Stéphanie","cbRaisonSociale":"BRIERE STEPHANIE","cbSiretSiren":"440376804","cbAdresse1":"5 rue Carnot","cbAdresse2":"","cbCp":"64000","cbVille":"PAU","spLibelle1":"","spLibelle2":"","acDateSerment":"","coordinates":[-0.3704541,43.2989675]},{"NomBarreau":"PAU","avNom":"BRUNNER","avPrenom":"Georges","cbRaisonSociale":"BRUNNER GEORGES","cbSiretSiren":"443065206","cbAdresse1":"32 rue Montpensier","cbAdresse2":"","cbCp":"64000","cbVille":"PAU","spLibelle1":"","spLibelle2":"","acDateSerment":"","coordinates":[-0.372767,43.3008767]},{"NomBarreau":"PAU","avNom":"BRUS","avPrenom":"Florence","cbRaisonSociale":"BRUS FLORENCE","cbSiretSiren":"834952715","cbAdresse1":"Cours Camou","cbAdresse2":"","cbCp":"64000","cbVille":"PAU","spLibelle1":"","spLibelle2":"","acDateSerment":"","coordinates":[-0.3753367,43.3004401]},{"NomBarreau":"PAU","avNom":"CAMPS","avPrenom":"Aurore","cbRaisonSociale":"CAMPS AURORE","cbSiretSiren":"882909799","cbAdresse1":"75 Avenue du Tonkin","cbAdresse2":"","cbCp":"64000","cbVille":"PAU","spLibelle1":"","spLibelle2":"","acDateSerment":"","coordinates":[-0.3828466,43.3146685]},{"NomBarreau":"PAU","avNom":"CASADEBAIG","avPrenom":"Gregory","cbRaisonSociale":"CASADEBAIG & ASSOCIES - ELIGE PAU","cbSiretSiren":"514082205","cbAdresse1":"21 Rue Henri Faisans","cbAdresse2":"","cbCp":"64000","cbVille":"PAU","spLibelle1":"","spLibelle2":"","acDateSerment":"","coordinates":[-0.3623327,43.2993546]},{"NomBarreau":"PAU","avNom":"CASAU","avPrenom":"Isabelle","cbRaisonSociale":"CASAU ISABELLE","cbSiretSiren":"384075123","cbAdresse1":"9 rue Tran","cbAdresse2":"","cbCp":"64000","cbVille":"PAU","spLibelle1":"","spLibelle2":"","acDateSerment":"","coordinates":[-0.3726612,43.2971242]},{"NomBarreau":"PAU","avNom":"CAUBET-HILLOUTOU","avPrenom":"Jean-Noel","cbRaisonSociale":"CAUBET-HILLOUTOU JEAN-NOEL","cbSiretSiren":"890592090","cbAdresse1":"77 Avenue des Lilas","cbAdresse2":"","cbCp":"64000","cbVille":"PAU","spLibelle1":"","spLibelle2":"","acDateSerment":"","coordinates":[-0.3448688,43.3090425]},{"NomBarreau":"PAU","avNom":"CAZENAVE","avPrenom":"Christine","cbRaisonSociale":"CAZENAVE  CHRISTINE","cbSiretSiren":"380941484","cbAdresse1":"2 TER place Royale","cbAdresse2":"Résidence Le France","cbCp":"64000","cbVille":"PAU","spLibelle1":"","spLibelle2":"","acDateSerment":"","coordinates":[-0.3708146,43.2945]},{"NomBarreau":"PAU","avNom":"CHARBONNIER","avPrenom":"Fabrice","cbRaisonSociale":"CHARBONNIER FABRICE","cbSiretSiren":"410385157","cbAdresse1":"8 Rue DuplaU ","cbAdresse2":"2ème étage","cbCp":"64000","cbVille":"PAU","spLibelle1":"","spLibelle2":"","acDateSerment":"","coordinates":[-0.3727088,43.2997282]},{"NomBarreau":"PAU","avNom":"CHATEAU","avPrenom":"Julie","cbRaisonSociale":"JEAN LUC SCHNERB - JULIE CHATEAU - ANCIENNEMENT DANIEL LACLAU","cbSiretSiren":"331758052","cbAdresse1":"2 Place Marguerite Laborde","cbAdresse2":"","cbCp":"64000","cbVille":"PAU","spLibelle1":"","spLibelle2":"","acDateSerment":"","coordinates":[-0.3671891,43.300145]},{"NomBarreau":"PAU","avNom":"CHAUVELIER","avPrenom":"Valérie","cbRaisonSociale":"MALTERRE - CHAUVELIER","cbSiretSiren":"852338110","cbAdresse1":"18 Rue des Cordeliers","cbAdresse2":"","cbCp":"64000","cbVille":"PAU","spLibelle1":"","spLibelle2":"","acDateSerment":"","coordinates":[-0.3715236,43.2968611]},{"NomBarreau":"PAU","avNom":"CHOY","avPrenom":"Anne","cbRaisonSociale":"CHOY ANNE","cbSiretSiren":"401942578","cbAdresse1":"10 Rue Perpignaa","cbAdresse2":"","cbCp":"64000","cbVille":"PAU","spLibelle1":"Droit de la famille, des personnes et de leur patrimoine","spLibelle2":"","acDateSerment":"","coordinates":[-0.3733595,43.3000594]},{"NomBarreau":"PAU","avNom":"CLAVERIE","avPrenom":"Lucie","cbRaisonSociale":"CLAVERIE LUCIE","cbSiretSiren":"880101613","cbAdresse1":"2 rue Saint Louis","cbAdresse2":"2ème étage","cbCp":"64000","cbVille":"PAU","spLibelle1":"","spLibelle2":"","acDateSerment":"","coordinates":[-0.3704649,43.2946829]},{"NomBarreau":"PAU","avNom":"COCRELLE MATHELIE","avPrenom":"Patricia","cbRaisonSociale":"COCRELLE-MATHELIE PATRICIA","cbSiretSiren":"332995703","cbAdresse1":"16 rue Montpensier","cbAdresse2":"","cbCp":"64000","cbVille":"PAU","spLibelle1":"","spLibelle2":"","acDateSerment":"","coordinates":[-0.3714343,43.2994921]},{"NomBarreau":"PAU","avNom":"COURTIN","avPrenom":"Alexandra","cbRaisonSociale":"COURTIN ALEXANDRA","cbSiretSiren":"790340756","cbAdresse1":"4 Rue Camy","cbAdresse2":"3ème étage","cbCp":"64000","cbVille":"PAU","spLibelle1":"","spLibelle2":"","acDateSerment":"","coordinates":[-0.3740877,43.3004145]},{"NomBarreau":"PAU","avNom":"DABADIE","avPrenom":"Philippe","cbRaisonSociale":"DABADIE PHILIPPE","cbSiretSiren":"399523018","cbAdresse1":"31 rue Bayard","cbAdresse2":"","cbCp":"64000","cbVille":"PAU","spLibelle1":"","spLibelle2":"","acDateSerment":"","coordinates":[-0.3777109,43.2969114]},{"NomBarreau":"PAU","avNom":"DALLOZ","avPrenom":"Sylvie","cbRaisonSociale":"DALLOZ","cbSiretSiren":"327312237","cbAdresse1":"15 rue Montpensier","cbAdresse2":"","cbCp":"64000","cbVille":"PAU","spLibelle1":"","spLibelle2":"","acDateSerment":"","coordinates":[-0.3716337,43.2995375]},{"NomBarreau":"PAU","avNom":"DANA","avPrenom":"Philippe","cbRaisonSociale":"DANA PHILIPPE","cbSiretSiren":"323929224","cbAdresse1":"7 rue Saint Jacques","cbAdresse2":"","cbCp":"64000","cbVille":"PAU","spLibelle1":"","spLibelle2":"","acDateSerment":"","coordinates":[-0.3709268,43.2978753]},{"NomBarreau":"PAU","avNom":"DARMON","avPrenom":"Déborah","cbRaisonSociale":"DARMON DEBORAH","cbSiretSiren":"502186943","cbAdresse1":"4 Rue Mourot","cbAdresse2":"","cbCp":"64000","cbVille":"PAU","spLibelle1":"","spLibelle2":"","acDateSerment":"","coordinates":[-0.37154,43.2986528]},{"NomBarreau":"PAU","avNom":"DARRIET","avPrenom":"Ghislain","cbRaisonSociale":"DARRIET GHISLAIN","cbSiretSiren":"895184976","cbAdresse1":"9 Rue Montpensier","cbAdresse2":"","cbCp":"64000","cbVille":"PAU","spLibelle1":"","spLibelle2":"","acDateSerment":"","coordinates":[-0.3712109,43.299096]},{"NomBarreau":"PAU","avNom":"DE BRISIS","avPrenom":"Martine","cbRaisonSociale":"CABINET DE BRISIS & DEL ALAMO","cbSiretSiren":"439938903","cbAdresse1":"6 Rue O'Quin","cbAdresse2":"","cbCp":"64000","cbVille":"PAU","spLibelle1":"Droit de la famille, des personnes et de leur patrimoine","spLibelle2":"","acDateSerment":"","coordinates":[-0.3711342,43.3011593]},{"NomBarreau":"PAU","avNom":"DESCOURS","avPrenom":"Emilie","cbRaisonSociale":"DESCOURS EMILIE","cbSiretSiren":"518004353","cbAdresse1":"1 rue Louis Barthou","cbAdresse2":"Résidence Pyrénées Barthou","cbCp":"64000","cbVille":"PAU","spLibelle1":"","spLibelle2":"","acDateSerment":"","coordinates":[-0.3691481,43.2944742]},{"NomBarreau":"PAU","avNom":"DOUTE","avPrenom":"Sarah","cbRaisonSociale":"SELARLU DOUTE","cbSiretSiren":"921802609","cbAdresse1":"6 Rue Pasteur","cbAdresse2":"","cbCp":"64000","cbVille":"PAU","spLibelle1":"","spLibelle2":"","acDateSerment":"","coordinates":[-0.3703892,43.3017408]},{"NomBarreau":"PAU","avNom":"DUALE","avPrenom":"Christophe","cbRaisonSociale":"DUALE-LIGNEY-BOURDALLE","cbSiretSiren":"898892096","cbAdresse1":"4 Rue O'Quin","cbAdresse2":"","cbCp":"64000","cbVille":"PAU","spLibelle1":"Procédure d'appel","spLibelle2":"","acDateSerment":"","coordinates":[-0.3711342,43.3011593]},{"NomBarreau":"PAU","avNom":"DUBES","avPrenom":"Carine","cbRaisonSociale":"RIVET DUBES LOMBARD","cbSiretSiren":"539606152","cbAdresse1":"25 rue Serviez","cbAdresse2":"","cbCp":"64000","cbVille":"PAU","spLibelle1":"","spLibelle2":"","acDateSerment":"","coordinates":[-0.3704147,43.2982797]},{"NomBarreau":"PAU","avNom":"DUCOIN","avPrenom":"Gaelle","cbRaisonSociale":"DUCOIN GAELLE","cbSiretSiren":"","cbAdresse1":"19 RUE LATAPIE","cbAdresse2":"","cbCp":"64000","cbVille":"PAU","spLibelle1":"","spLibelle2":"","acDateSerment":"","coordinates":[-0.36773,43.2954372]},{"NomBarreau":"PAU","avNom":"DUCUING","avPrenom":"Katia","cbRaisonSociale":"DUCUING KATIA","cbSiretSiren":"494392814","cbAdresse1":"16 bis Rue d'Etigny","cbAdresse2":"","cbCp":"64000","cbVille":"PAU","spLibelle1":"","spLibelle2":"","acDateSerment":"","coordinates":[-0.3772967,43.2962342]},{"NomBarreau":"PAU","avNom":"DUFFAU","avPrenom":"Francois","cbRaisonSociale":"DUFFAU FRANCOIS","cbSiretSiren":"799538327","cbAdresse1":"31 rue Bayard","cbAdresse2":"","cbCp":"64000","cbVille":"PAU","spLibelle1":"","spLibelle2":"","acDateSerment":"","coordinates":[-0.3777109,43.2969114]},{"NomBarreau":"PAU","avNom":"DUMAZ ZAMORA","avPrenom":"Mikele","cbRaisonSociale":"DUMAZ ZAMORA MIKELE","cbSiretSiren":"845218353","cbAdresse1":"17 rue des Cordeliers","cbAdresse2":"","cbCp":"64000","cbVille":"PAU","spLibelle1":"","spLibelle2":"","acDateSerment":"","coordinates":[-0.3713528,43.2964055]},{"NomBarreau":"PAU","avNom":"DUPEN","avPrenom":"Emmanuel","cbRaisonSociale":"DUPEN EMMANUEL","cbSiretSiren":"882672694","cbAdresse1":"21 Rue Henri Faisans","cbAdresse2":"","cbCp":"64000","cbVille":"PAU","spLibelle1":"","spLibelle2":"","acDateSerment":"","coordinates":[-0.3623327,43.2993546]},{"NomBarreau":"PAU","avNom":"DUPUY","avPrenom":"Elodie","cbRaisonSociale":"HIRIART GIANESINI/LEGRAND","cbSiretSiren":"499170181","cbAdresse1":"17 Rue de Navarre","cbAdresse2":"","cbCp":"64000","cbVille":"PAU","spLibelle1":"","spLibelle2":"","acDateSerment":"","coordinates":[-0.3575752,43.2994617]},{"NomBarreau":"PAU","avNom":"DUTERTRE","avPrenom":"Salomé","cbRaisonSociale":"DUTERTRE SALOME","cbSiretSiren":"509918611","cbAdresse1":"2 Rue Saint Louis","cbAdresse2":"","cbCp":"64000","cbVille":"PAU","spLibelle1":"","spLibelle2":"","acDateSerment":"","coordinates":[-0.3704649,43.2946829]},{"NomBarreau":"PAU","avNom":"EDREI","avPrenom":"Sandrine","cbRaisonSociale":"EDREI SANDRINE","cbSiretSiren":"878973494","cbAdresse1":"9 Rue Montpensier","cbAdresse2":"","cbCp":"64000","cbVille":"PAU","spLibelle1":"","spLibelle2":"","acDateSerment":"","coordinates":[-0.3712109,43.299096]},{"NomBarreau":"PAU","avNom":"EL KOUCHI","avPrenom":"Souad","cbRaisonSociale":"ALCEE AVOCATS","cbSiretSiren":"832363055","cbAdresse1":"22 Avenue Edouard VII","cbAdresse2":"","cbCp":"64000","cbVille":"PAU","spLibelle1":"","spLibelle2":"","acDateSerment":"","coordinates":[-0.3582359,43.2985831]},{"NomBarreau":"PAU","avNom":"ESTRADE","avPrenom":"Camille","cbRaisonSociale":"ESTRADE CAMILLE","cbSiretSiren":"480505288","cbAdresse1":"2 Place Albert 1er","cbAdresse2":"","cbCp":"64000","cbVille":"PAU","spLibelle1":"","spLibelle2":"","acDateSerment":"","coordinates":[-0.3724144,43.2994272]},{"NomBarreau":"PAU","avNom":"FAUTHOUX","avPrenom":"Sarah","cbRaisonSociale":"FAUTHOUX SARAH","cbSiretSiren":"892912437","cbAdresse1":"10 Rue Mourot","cbAdresse2":"","cbCp":"64000","cbVille":"PAU","spLibelle1":"","spLibelle2":"","acDateSerment":"","coordinates":[-0.371749,43.2989621]},{"NomBarreau":"PAU","avNom":"FELIX","avPrenom":"Cécile","cbRaisonSociale":"CASADEBAIG & ASSOCIES - ELIGE PAU","cbSiretSiren":"514082205","cbAdresse1":"21 Rue Henri Faisans","cbAdresse2":"","cbCp":"64000","cbVille":"PAU","spLibelle1":"","spLibelle2":"","acDateSerment":"","coordinates":[-0.3623327,43.2993546]},{"NomBarreau":"PAU","avNom":"FITAS","avPrenom":"Isabelle","cbRaisonSociale":"FITAS ISABELLE","cbSiretSiren":"404187676","cbAdresse1":"15 rue Montpensier","cbAdresse2":"","cbCp":"64000","cbVille":"PAU","spLibelle1":"","spLibelle2":"","acDateSerment":"","coordinates":[-0.3716337,43.2995375]},{"NomBarreau":"PAU","avNom":"FOIX","avPrenom":"Elodie","cbRaisonSociale":"FOIX ELODIE","cbSiretSiren":"790463491","cbAdresse1":"27 Rue Aristide Briand","cbAdresse2":"","cbCp":"64000","cbVille":"PAU","spLibelle1":"","spLibelle2":"","acDateSerment":"","coordinates":[-0.3612008,43.3045623]},{"NomBarreau":"PAU","avNom":"FRANCOIS","avPrenom":"Candice","cbRaisonSociale":"FRANCOIS CANDICE","cbSiretSiren":"509845608","cbAdresse1":"28 RUE DES CORDELIERS","cbAdresse2":"1er étage","cbCp":"64000","cbVille":"PAU","spLibelle1":"","spLibelle2":"","acDateSerment":"","coordinates":[-0.3718091,43.2973178]},{"NomBarreau":"PAU","avNom":"GARCIA","avPrenom":"Claude","cbRaisonSociale":"GARCIA CLAUDE","cbSiretSiren":"381170729","cbAdresse1":"53 rue Carnot","cbAdresse2":"","cbCp":"64000","cbVille":"PAU","spLibelle1":"Droit public","spLibelle2":"","acDateSerment":"","coordinates":[-0.368721,43.3035314]},{"NomBarreau":"PAU","avNom":"GARRETA","avPrenom":"Edwige","cbRaisonSociale":"GARRETA ET ASSOCIES","cbSiretSiren":"813975737","cbAdresse1":"11 RUE DU DOCTEUR DASSIEU","cbAdresse2":"","cbCp":"64000","cbVille":"PAU","spLibelle1":"","spLibelle2":"","acDateSerment":"","coordinates":[-0.3811177,43.3004111]},{"NomBarreau":"PAU","avNom":"GARRETA","avPrenom":"Gilbert","cbRaisonSociale":"GARRETA ET ASSOCIES","cbSiretSiren":"813975737","cbAdresse1":"11 RUE DU DOCTEUR DASSIEU","cbAdresse2":"","cbCp":"64000","cbVille":"PAU","spLibelle1":"Droit des garanties, des saretés et des mesures d'exécution","spLibelle2":"Droit du travail","acDateSerment":"","coordinates":[-0.3811177,43.3004111]},{"NomBarreau":"PAU","avNom":"GIARD","avPrenom":"Justine","cbRaisonSociale":"GIARD","cbSiretSiren":"817454267","cbAdresse1":"4 Rue Pasteur","cbAdresse2":"Résidence le d'Orsay","cbCp":"64000","cbVille":"PAU","spLibelle1":"","spLibelle2":"","acDateSerment":"","coordinates":[-0.3697354,43.3016149]},{"NomBarreau":"PAU","avNom":"GLEYZE","avPrenom":"Anne","cbRaisonSociale":"ISABELLE OLLIVIER AVOCATS & ASSOCIES","cbSiretSiren":"445337249","cbAdresse1":"17 Rue de Navarre","cbAdresse2":"","cbCp":"64000","cbVille":"PAU","spLibelle1":"","spLibelle2":"","acDateSerment":"","coordinates":[-0.3575752,43.2994617]},{"NomBarreau":"PAU","avNom":"GOSSEAUME","avPrenom":"Paul","cbRaisonSociale":"GOSSEAUME PAUL","cbSiretSiren":"809178007","cbAdresse1":"2 Rue Bernadotte","cbAdresse2":"","cbCp":"64000","cbVille":"PAU","spLibelle1":"","spLibelle2":"","acDateSerment":"","coordinates":[-0.3723768,43.2975461]},{"NomBarreau":"PAU","avNom":"GOURGUES","avPrenom":"Léa","cbRaisonSociale":"GOURGUES LEA","cbSiretSiren":"879305639","cbAdresse1":"21 Rue Henri Faisans","cbAdresse2":"","cbCp":"64000","cbVille":"PAU","spLibelle1":"","spLibelle2":"","acDateSerment":"","coordinates":[-0.3623327,43.2993546]},{"NomBarreau":"PAU","avNom":"HAU","avPrenom":"Stéphanie","cbRaisonSociale":"HAU STEPHANIE","cbSiretSiren":"791376288","cbAdresse1":"4 Rue Camy","cbAdresse2":"3 ème étage","cbCp":"64000","cbVille":"PAU","spLibelle1":"","spLibelle2":"","acDateSerment":"","coordinates":[-0.3740877,43.3004145]},{"NomBarreau":"PAU","avNom":"HIPPERT","avPrenom":"Pascal","cbRaisonSociale":"HIPPERT PASCAL","cbSiretSiren":"533875183","cbAdresse1":"15 Rue des Cordeliers","cbAdresse2":"Batiment A","cbCp":"64000","cbVille":"PAU","spLibelle1":"","spLibelle2":"","acDateSerment":"","coordinates":[-0.371323,43.2963571]},{"NomBarreau":"PAU","avNom":"HIRIART GIANESINI","avPrenom":"Chantal","cbRaisonSociale":"HIRIART GIANESINI/LEGRAND","cbSiretSiren":"499170181","cbAdresse1":"17 Rue de Navarre","cbAdresse2":"","cbCp":"64000","cbVille":"PAU","spLibelle1":"Droit des sociétés","spLibelle2":"Droit fiscal et droit douanier","acDateSerment":"","coordinates":[-0.3575752,43.2994617]},{"NomBarreau":"PAU","avNom":"ILHAN","avPrenom":"Dilek","cbRaisonSociale":"ISABELLE OLLIVIER AVOCATS & ASSOCIES","cbSiretSiren":"445337249","cbAdresse1":"17 Rue de Navarre","cbAdresse2":"","cbCp":"64000","cbVille":"PAU","spLibelle1":"","spLibelle2":"","acDateSerment":"","coordinates":[-0.3575752,43.2994617]},{"NomBarreau":"PAU","avNom":"JACQUOT","avPrenom":"Julie","cbRaisonSociale":"SELARL  AVOCADOUR","cbSiretSiren":"799065131","cbAdresse1":"2 rue Saint Louis","cbAdresse2":"2ème étage","cbCp":"64000","cbVille":"PAU","spLibelle1":"","spLibelle2":"","acDateSerment":"","coordinates":[-0.3704649,43.2946829]},{"NomBarreau":"PAU","avNom":"JAMAI-PERPIGNAA","avPrenom":"Afef","cbRaisonSociale":"JAMAI-PERPIGNAA AFEF","cbSiretSiren":"800531170","cbAdresse1":"16 bis Rue d'Etigny","cbAdresse2":"","cbCp":"64000","cbVille":"PAU","spLibelle1":"","spLibelle2":"","acDateSerment":"","coordinates":[-0.3772967,43.2962342]},{"NomBarreau":"PAU","avNom":"JOURDA","avPrenom":"Mathilde","cbRaisonSociale":"JOURDA MATHILDE","cbSiretSiren":"","cbAdresse1":"9 Rue Montpensier","cbAdresse2":"","cbCp":"64000","cbVille":"PAU","spLibelle1":"","spLibelle2":"","acDateSerment":"","coordinates":[-0.3712109,43.299096]},{"NomBarreau":"PAU","avNom":"KAROUBI","avPrenom":"Michèle","cbRaisonSociale":"KAROUBI MICHELE","cbSiretSiren":"353454721","cbAdresse1":"8 Cours Camou","cbAdresse2":"","cbCp":"64000","cbVille":"PAU","spLibelle1":"Droit de la sécurité sociale et de la protection sociale","spLibelle2":"Droit du travail","acDateSerment":"","coordinates":[-0.3770792,43.3002162]},{"NomBarreau":"PAU","avNom":"KHERFALLAH","avPrenom":"Leila","cbRaisonSociale":"SUISSA-KHERFALLAH","cbSiretSiren":"910743012","cbAdresse1":"6 Place  Gramont","cbAdresse2":"","cbCp":"64000","cbVille":"PAU","spLibelle1":"","spLibelle2":"","acDateSerment":"","coordinates":[-0.3747057,43.296686]},{"NomBarreau":"PAU","avNom":"LABES","avPrenom":"Jean Philippe","cbRaisonSociale":"ABL ASSOCIES","cbSiretSiren":"452142920","cbAdresse1":"227 Avenue Alfred Nobel","cbAdresse2":"","cbCp":"64000","cbVille":"PAU","spLibelle1":"","spLibelle2":"","acDateSerment":"","coordinates":[-0.3329969,43.3067339]},{"NomBarreau":"PAU","avNom":"LABORDE-APELLE","avPrenom":"Marie-Claude","cbRaisonSociale":"LABORDE-APELLE MARIE-CLAUDE","cbSiretSiren":"842817439","cbAdresse1":"9 Place Marguerite-Laborde","cbAdresse2":"","cbCp":"64000","cbVille":"PAU","spLibelle1":"","spLibelle2":"","acDateSerment":"","coordinates":[-0.3671891,43.300145]},{"NomBarreau":"PAU","avNom":"LACASSAGNE","avPrenom":"Marie Pierre","cbRaisonSociale":"LACASSAGNE MARIE PIERRE","cbSiretSiren":"538994062","cbAdresse1":"22 rue des Cordeliers","cbAdresse2":"","cbCp":"64000","cbVille":"PAU","spLibelle1":"","spLibelle2":"","acDateSerment":"","coordinates":[-0.3716674,43.2970904]},{"NomBarreau":"PAU","avNom":"LACRAMPE","avPrenom":"Daniel","cbRaisonSociale":"LACRAMPE DANIEL","cbSiretSiren":"","cbAdresse1":"21 Rue Henri Faisans","cbAdresse2":"","cbCp":"64000","cbVille":"PAU","spLibelle1":"","spLibelle2":"","acDateSerment":"","coordinates":[-0.3623327,43.2993546]},{"NomBarreau":"PAU","avNom":"LAGARDE","avPrenom":"Emmanuelle","cbRaisonSociale":"LAGARDE EMMANUELLE","cbSiretSiren":"817873201","cbAdresse1":"23 rue Samonzet","cbAdresse2":"","cbCp":"64000","cbVille":"PAU","spLibelle1":"","spLibelle2":"","acDateSerment":"","coordinates":[-0.3681333,43.2986156]},{"NomBarreau":"PAU","avNom":"LAGUNE","avPrenom":"Pierre","cbRaisonSociale":"LAGUNE PIERRE","cbSiretSiren":"834735391","cbAdresse1":"2 Place Albert 1er","cbAdresse2":"","cbCp":"64000","cbVille":"PAU","spLibelle1":"","spLibelle2":"","acDateSerment":"","coordinates":[-0.3724144,43.2994272]},{"NomBarreau":"PAU","avNom":"LAMBERT","avPrenom":"Virginie","cbRaisonSociale":"LAMBERT VIRGINIE","cbSiretSiren":"443869128","cbAdresse1":"2 Rue Thomas Edison","cbAdresse2":"Cité Multimédia","cbCp":"64000","cbVille":"PAU","spLibelle1":"","spLibelle2":"","acDateSerment":"","coordinates":[-0.3273059,43.3253128]},{"NomBarreau":"PAU","avNom":"LAMOURE","avPrenom":"Marlène","cbRaisonSociale":"LAMOURE MARLENE","cbSiretSiren":"487927303","cbAdresse1":"12 Cours Camou","cbAdresse2":"","cbCp":"64000","cbVille":"PAU","spLibelle1":"","spLibelle2":"","acDateSerment":"","coordinates":[-0.3770792,43.3002162]},{"NomBarreau":"PAU","avNom":"LAPEYRE","avPrenom":"Fabien","cbRaisonSociale":"LAPEYRE & MAREK AVOCATS ASSOCIES","cbSiretSiren":"823420237","cbAdresse1":"15 bis Rue Bayard","cbAdresse2":"","cbCp":"64000","cbVille":"PAU","spLibelle1":"","spLibelle2":"","acDateSerment":"","coordinates":[-0.3747704,43.2973868]},{"NomBarreau":"PAU","avNom":"LASSALLE","avPrenom":"Hugo","cbRaisonSociale":"LASSALLE HUGO","cbSiretSiren":"892402579","cbAdresse1":"21 Rue Henri Faisans","cbAdresse2":"","cbCp":"64000","cbVille":"PAU","spLibelle1":"","spLibelle2":"","acDateSerment":"","coordinates":[-0.3623327,43.2993546]},{"NomBarreau":"PAU","avNom":"LE CORNO","avPrenom":"Antonin","cbRaisonSociale":"JURIPUBLICA","cbSiretSiren":"","cbAdresse1":"4 Place Albert 1er","cbAdresse2":"","cbCp":"64000","cbVille":"PAU","spLibelle1":"","spLibelle2":"","acDateSerment":"","coordinates":[-0.3724144,43.2994272]},{"NomBarreau":"PAU","avNom":"LEDAIN","avPrenom":"Denis","cbRaisonSociale":"ABL ASSOCIES","cbSiretSiren":"452142920","cbAdresse1":"227 Avenue Alfred Nobel","cbAdresse2":"","cbCp":"64000","cbVille":"PAU","spLibelle1":"","spLibelle2":"","acDateSerment":"","coordinates":[-0.3329969,43.3067339]},{"NomBarreau":"PAU","avNom":"LEGRAND","avPrenom":"Nicole","cbRaisonSociale":"HIRIART GIANESINI/LEGRAND","cbSiretSiren":"499170181","cbAdresse1":"17 Rue de Navarre","cbAdresse2":"","cbCp":"64000","cbVille":"PAU","spLibelle1":"","spLibelle2":"","acDateSerment":"","coordinates":[-0.3575752,43.2994617]},{"NomBarreau":"PAU","avNom":"LEGRAND","avPrenom":"Valérie","cbRaisonSociale":"VALERIE LEGRAND","cbSiretSiren":"817405269","cbAdresse1":"21 Rue Montpensier","cbAdresse2":"","cbCp":"64000","cbVille":"PAU","spLibelle1":"Droit de la famille, des personnes et de leur patrimoine","spLibelle2":"","acDateSerment":"","coordinates":[-0.3720221,43.2999381]},{"NomBarreau":"PAU","avNom":"LEVERBE","avPrenom":"Emmanuelle","cbRaisonSociale":"LEVERBE EMMANUELLE","cbSiretSiren":"501540561","cbAdresse1":"22 rue Bernadotte","cbAdresse2":"","cbCp":"64000","cbVille":"PAU","spLibelle1":"","spLibelle2":"","acDateSerment":"","coordinates":[-0.3737774,43.2973947]},{"NomBarreau":"PAU","avNom":"LHOMY","avPrenom":"Karine","cbRaisonSociale":"KARINE LHOMY","cbSiretSiren":"891196800","cbAdresse1":"75 Avenue du Tonkin","cbAdresse2":"","cbCp":"64000","cbVille":"PAU","spLibelle1":"","spLibelle2":"","acDateSerment":"","coordinates":[-0.3828466,43.3146685]},{"NomBarreau":"PAU","avNom":"LIGNEY","avPrenom":"Vincent","cbRaisonSociale":"DUALE-LIGNEY-BOURDALLE","cbSiretSiren":"898892096","cbAdresse1":"4 Rue O'Quin","cbAdresse2":"","cbCp":"64000","cbVille":"PAU","spLibelle1":"Procédure d'appel","spLibelle2":"","acDateSerment":"","coordinates":[-0.3711342,43.3011593]},{"NomBarreau":"PAU","avNom":"LIPSOS","avPrenom":"Panayiotis","cbRaisonSociale":"LIPSOS PANAYIOTIS","cbSiretSiren":"440525772","cbAdresse1":"25 rue Carnot","cbAdresse2":"","cbCp":"64000","cbVille":"PAU","spLibelle1":"","spLibelle2":"","acDateSerment":"","coordinates":[-0.3698782,43.3002611]},{"NomBarreau":"PAU","avNom":"LLERA","avPrenom":"Alexia","cbRaisonSociale":"LLERA ALEXIA","cbSiretSiren":"825350408","cbAdresse1":"6 Place Gramont","cbAdresse2":"","cbCp":"64000","cbVille":"PAU","spLibelle1":"","spLibelle2":"","acDateSerment":"","coordinates":[-0.3747057,43.296686]},{"NomBarreau":"PAU","avNom":"LOMBARD","avPrenom":"Christelle","cbRaisonSociale":"RIVET DUBES LOMBARD","cbSiretSiren":"539606152","cbAdresse1":"25 rue Serviez","cbAdresse2":"","cbCp":"64000","cbVille":"PAU","spLibelle1":"","spLibelle2":"","acDateSerment":"","coordinates":[-0.3704147,43.2982797]},{"NomBarreau":"PAU","avNom":"LOPEZ","avPrenom":"Stéphane","cbRaisonSociale":"LOPEZ STEPHANE","cbSiretSiren":"440567022","cbAdresse1":"15 RUE D ORLEANS","cbAdresse2":"","cbCp":"64000","cbVille":"PAU","spLibelle1":"","spLibelle2":"","acDateSerment":"","coordinates":[-0.3737228,43.2988908]},{"NomBarreau":"PAU","avNom":"LOUMAGNE","avPrenom":"Stéphane","cbRaisonSociale":"LOUMAGNE STEPHANE","cbSiretSiren":"440368397","cbAdresse1":"04 rue Mourot","cbAdresse2":"","cbCp":"64000","cbVille":"PAU","spLibelle1":"","spLibelle2":"","acDateSerment":"","coordinates":[-0.3716893,43.2987655]},{"NomBarreau":"PAU","avNom":"MAGNE","avPrenom":"Carine Marguerite","cbRaisonSociale":"MAGNE CARINE","cbSiretSiren":"329811392","cbAdresse1":"21 rue Serviez","cbAdresse2":"","cbCp":"64000","cbVille":"PAU","spLibelle1":"","spLibelle2":"","acDateSerment":"","coordinates":[-0.3696244,43.2974661]},{"NomBarreau":"PAU","avNom":"MALTERRE","avPrenom":"Robert","cbRaisonSociale":"MALTERRE - CHAUVELIER","cbSiretSiren":"852338110","cbAdresse1":"18 Rue des Cordeliers","cbAdresse2":"","cbCp":"64000","cbVille":"PAU","spLibelle1":"Droit des garanties, des saretés et des mesures d'exécution","spLibelle2":"Droit du travail","acDateSerment":"","coordinates":[-0.3715236,43.2968611]},{"NomBarreau":"PAU","avNom":"MAMOUNI","avPrenom":"Fadoie","cbRaisonSociale":"BARTHELEMY AVOCATS","cbSiretSiren":"493390991","cbAdresse1":"2 Rue O'Quin","cbAdresse2":"VILLA HOPE","cbCp":"64000","cbVille":"PAU","spLibelle1":"","spLibelle2":"","acDateSerment":"","coordinates":[-0.3711342,43.3011593]},{"NomBarreau":"PAU","avNom":"MARBOT","avPrenom":"Jérome","cbRaisonSociale":"JURIPUBLICA","cbSiretSiren":"","cbAdresse1":"4 Place Albert 1er","cbAdresse2":"","cbCp":"64000","cbVille":"PAU","spLibelle1":"","spLibelle2":"","acDateSerment":"","coordinates":[-0.3724144,43.2994272]},{"NomBarreau":"PAU","avNom":"MARCEL","avPrenom":"Jean William","cbRaisonSociale":"MARCEL JEAN-WILLIAM","cbSiretSiren":"538895400","cbAdresse1":"4 Place Albert 1er","cbAdresse2":"","cbCp":"64000","cbVille":"PAU","spLibelle1":"","spLibelle2":"","acDateSerment":"","coordinates":[-0.3724144,43.2994272]},{"NomBarreau":"PAU","avNom":"MARCHESSEAU LUCAS","avPrenom":"Magalie","cbRaisonSociale":"SELARL  AVOCADOUR","cbSiretSiren":"799065131","cbAdresse1":"2 rue Saint Louis","cbAdresse2":"2ème étage","cbCp":"64000","cbVille":"PAU","spLibelle1":"Droit du travail","spLibelle2":"","acDateSerment":"","coordinates":[-0.3704649,43.2946829]},{"NomBarreau":"PAU","avNom":"MAREK","avPrenom":"Caroline","cbRaisonSociale":"LAPEYRE & MAREK AVOCATS ASSOCIES","cbSiretSiren":"823420237","cbAdresse1":"15 bis Rue Bayard","cbAdresse2":"","cbCp":"64000","cbVille":"PAU","spLibelle1":"","spLibelle2":"","acDateSerment":"","coordinates":[-0.3747704,43.2973868]},{"NomBarreau":"PAU","avNom":"MARGUIRAUT","avPrenom":"Lore","cbRaisonSociale":"MARGUIRAUT LORE","cbSiretSiren":"842350407","cbAdresse1":"19 Rue Latapie","cbAdresse2":"","cbCp":"64000","cbVille":"PAU","spLibelle1":"","spLibelle2":"","acDateSerment":"","coordinates":[-0.36773,43.2954372]},{"NomBarreau":"PAU","avNom":"MARIOL","avPrenom":"Olivia","cbRaisonSociale":"LONGIN/MARIOL","cbSiretSiren":"347891103","cbAdresse1":"8 Rue DuplaU ","cbAdresse2":"2ème étage","cbCp":"64000","cbVille":"PAU","spLibelle1":"Procédure d'appel","spLibelle2":"","acDateSerment":"","coordinates":[-0.3727088,43.2997282]},{"NomBarreau":"PAU","avNom":"MASSOU DIT LABAQUERE","avPrenom":"Maripierre","cbRaisonSociale":"MASSOU DIT LABAQUERE MARIPIERRE","cbSiretSiren":"353342405","cbAdresse1":"8 rue Montpensier","cbAdresse2":"","cbCp":"64000","cbVille":"PAU","spLibelle1":"Droit de la sécurité sociale et de la protection sociale","spLibelle2":"Droit du travail","acDateSerment":"","coordinates":[-0.3709743,43.2990153]},{"NomBarreau":"PAU","avNom":"MATARESE","avPrenom":"Camille","cbRaisonSociale":"LEXEO CONSEIL","cbSiretSiren":"493622153","cbAdresse1":"20 cours Camou","cbAdresse2":"Maitre Isabel SIMOES","cbCp":"64000","cbVille":"PAU","spLibelle1":"","spLibelle2":"","acDateSerment":"","coordinates":[-0.3770792,43.3002162]},{"NomBarreau":"PAU","avNom":"MAUPEU","avPrenom":"Nadège","cbRaisonSociale":"ETIC","cbSiretSiren":"531782258","cbAdresse1":"23 RUE SAMONZET","cbAdresse2":"","cbCp":"64000","cbVille":"PAU","spLibelle1":"","spLibelle2":"","acDateSerment":"","coordinates":[-0.3681333,43.2986156]},{"NomBarreau":"PAU","avNom":"MBARKI","avPrenom":"Sarah","cbRaisonSociale":"MBARKI SARAH","cbSiretSiren":"882037369","cbAdresse1":"12 Rue Sambre et Meuse","cbAdresse2":"","cbCp":"64000","cbVille":"PAU","spLibelle1":"","spLibelle2":"","acDateSerment":"","coordinates":[-0.3368652,43.3111139]},{"NomBarreau":"PAU","avNom":"MENJUCQ","avPrenom":"Sophie","cbRaisonSociale":"ALCEE AVOCATS","cbSiretSiren":"832363055","cbAdresse1":"22 Avenue Edouard VII","cbAdresse2":"","cbCp":"64000","cbVille":"PAU","spLibelle1":"","spLibelle2":"","acDateSerment":"","coordinates":[-0.3582359,43.2985831]},{"NomBarreau":"PAU","avNom":"MOULINIER","avPrenom":"Nathalie","cbRaisonSociale":"MOULINIER NATHALIE","cbSiretSiren":"380865410","cbAdresse1":"3 Place Albert 1er","cbAdresse2":"","cbCp":"64000","cbVille":"PAU","spLibelle1":"","spLibelle2":"","acDateSerment":"","coordinates":[-0.3729936,43.299115]},{"NomBarreau":"PAU","avNom":"MOUTIER","avPrenom":"Bruno","cbRaisonSociale":"MOUTIER BRUNO","cbSiretSiren":"343996435","cbAdresse1":"09 RUE D'ORLEANS","cbAdresse2":"","cbCp":"64000","cbVille":"PAU","spLibelle1":"","spLibelle2":"","acDateSerment":"","coordinates":[-0.3719245,43.299107]},{"NomBarreau":"PAU","avNom":"NAVARRO","avPrenom":"Clémence","cbRaisonSociale":"NAVARRO CLEMENCE","cbSiretSiren":"913233615","cbAdresse1":"6 Place Gramont","cbAdresse2":"","cbCp":"64000","cbVille":"PAU","spLibelle1":"","spLibelle2":"","acDateSerment":"","coordinates":[-0.3747057,43.296686]},{"NomBarreau":"PAU","avNom":"OLLIVIER","avPrenom":"Isabelle","cbRaisonSociale":"ISABELLE OLLIVIER AVOCATS & ASSOCIES","cbSiretSiren":"445337249","cbAdresse1":"17 Rue de Navarre","cbAdresse2":"","cbCp":"64000","cbVille":"PAU","spLibelle1":"","spLibelle2":"","acDateSerment":"","coordinates":[-0.3575752,43.2994617]},{"NomBarreau":"PAU","avNom":"PALARIC","avPrenom":"Karine","cbRaisonSociale":"ABL ASSOCIES","cbSiretSiren":"452142920","cbAdresse1":"227 Avenue Alfred Nobel","cbAdresse2":"","cbCp":"64000","cbVille":"PAU","spLibelle1":"","spLibelle2":"","acDateSerment":"","coordinates":[-0.3329969,43.3067339]},{"NomBarreau":"PAU","avNom":"PALASSET","avPrenom":"Clarisse","cbRaisonSociale":"PALASSET CLARISSE","cbSiretSiren":"893052712","cbAdresse1":"18 Rue des Cordeliers","cbAdresse2":"","cbCp":"64000","cbVille":"PAU","spLibelle1":"","spLibelle2":"","acDateSerment":"","coordinates":[-0.3715236,43.2968611]},{"NomBarreau":"PAU","avNom":"PATHER","avPrenom":"Selvinah","cbRaisonSociale":"SP AVOCATS","cbSiretSiren":"888057288","cbAdresse1":"17 Rue des Cordeliers","cbAdresse2":"","cbCp":"64000","cbVille":"PAU","spLibelle1":"","spLibelle2":"","acDateSerment":"","coordinates":[-0.3713528,43.2964055]},{"NomBarreau":"PAU","avNom":"PEQUERUL","avPrenom":"Philippe","cbRaisonSociale":"PEQUERUL PHILIPPE","cbSiretSiren":"817673908","cbAdresse1":"21 Rue Henri Faisans","cbAdresse2":"","cbCp":"64000","cbVille":"PAU","spLibelle1":"","spLibelle2":"","acDateSerment":"","coordinates":[-0.3623327,43.2993546]},{"NomBarreau":"PAU","avNom":"PERES CASTAY","avPrenom":"Elisabeth","cbRaisonSociale":"PERES-CASTAY ELISABETH","cbSiretSiren":"345352652","cbAdresse1":"48 Cours Camou","cbAdresse2":"Résidence Haute Plante","cbCp":"64000","cbVille":"PAU","spLibelle1":"Droit des sociétés","spLibelle2":"","acDateSerment":"","coordinates":[-0.3788591,43.3000703]},{"NomBarreau":"PAU","avNom":"PERUILHE","avPrenom":"Pierre","cbRaisonSociale":"BARTHELEMY AVOCATS","cbSiretSiren":"493390991","cbAdresse1":"2 Rue O'Quin","cbAdresse2":"VILLA HOPE","cbCp":"64000","cbVille":"PAU","spLibelle1":"","spLibelle2":"","acDateSerment":"","coordinates":[-0.3711342,43.3011593]},{"NomBarreau":"PAU","avNom":"PETRIAT","avPrenom":"Nelly","cbRaisonSociale":"PETRIAT NELLY","cbSiretSiren":"412917056","cbAdresse1":"10 Rue Mourot","cbAdresse2":"","cbCp":"64000","cbVille":"PAU","spLibelle1":"","spLibelle2":"","acDateSerment":"","coordinates":[-0.371749,43.2989621]},{"NomBarreau":"PAU","avNom":"PITICO","avPrenom":"Christophe","cbRaisonSociale":"PITICO CHRISTOPHE","cbSiretSiren":"500836028","cbAdresse1":"8 Cours Camou","cbAdresse2":"","cbCp":"64000","cbVille":"PAU","spLibelle1":"Droit des associations et des fondations","spLibelle2":"Droit des sociétés","acDateSerment":"","coordinates":[-0.3770792,43.3002162]},{"NomBarreau":"PAU","avNom":"PLECQ","avPrenom":"Mélanie","cbRaisonSociale":"PLECQ MELANIE","cbSiretSiren":"892402512","cbAdresse1":"21 Rue Henri Faisans","cbAdresse2":"","cbCp":"64000","cbVille":"PAU","spLibelle1":"","spLibelle2":"","acDateSerment":"","coordinates":[-0.3623327,43.2993546]},{"NomBarreau":"PAU","avNom":"RAINA","avPrenom":"Anna","cbRaisonSociale":"RAINA ANNA","cbSiretSiren":"799092226","cbAdresse1":"38-40 RUE DE LIEGE","cbAdresse2":"","cbCp":"64000","cbVille":"PAU","spLibelle1":"","spLibelle2":"","acDateSerment":"","coordinates":[-0.3751964,43.3003036]},{"NomBarreau":"PAU","avNom":"REFALO","avPrenom":"Anne","cbRaisonSociale":"REFALO ANNE","cbSiretSiren":"509684288","cbAdresse1":"21 Rue Henri Faisans","cbAdresse2":"","cbCp":"64000","cbVille":"PAU","spLibelle1":"","spLibelle2":"","acDateSerment":"","coordinates":[-0.3623327,43.2993546]},{"NomBarreau":"PAU","avNom":"RENARD","avPrenom":"Gaelle","cbRaisonSociale":"RENARD GAELLE","cbSiretSiren":"845107101","cbAdresse1":"27 Rue Aristide Briand","cbAdresse2":"","cbCp":"64000","cbVille":"PAU","spLibelle1":"","spLibelle2":"","acDateSerment":"","coordinates":[-0.3612008,43.3045623]},{"NomBarreau":"PAU","avNom":"ROMAZZOTTI","avPrenom":"Laure","cbRaisonSociale":"ROMAZZOTTI LAURE","cbSiretSiren":"893049577","cbAdresse1":"227 Avenue Alfred Nobel","cbAdresse2":"","cbCp":"64000","cbVille":"PAU","spLibelle1":"","spLibelle2":"","acDateSerment":"","coordinates":[-0.3329969,43.3067339]},{"NomBarreau":"PAU","avNom":"ROUVIERE","avPrenom":"Olivier","cbRaisonSociale":"ROUVIERE OLIVIER","cbSiretSiren":"403699291","cbAdresse1":"23 rue Samonzet","cbAdresse2":"","cbCp":"64000","cbVille":"PAU","spLibelle1":"","spLibelle2":"","acDateSerment":"","coordinates":[-0.3681333,43.2986156]},{"NomBarreau":"PAU","avNom":"ROY-LAHORE","avPrenom":"Pauline","cbRaisonSociale":"PYRENEES AVOCATS","cbSiretSiren":"879940518","cbAdresse1":"2 Rue Saint Louis","cbAdresse2":"","cbCp":"64000","cbVille":"PAU","spLibelle1":"","spLibelle2":"","acDateSerment":"","coordinates":[-0.3704649,43.2946829]},{"NomBarreau":"PAU","avNom":"SABIN","avPrenom":"Arnaud","cbRaisonSociale":"PYRENEES AVOCATS","cbSiretSiren":"879940518","cbAdresse1":"2 Rue Saint Louis","cbAdresse2":"","cbCp":"64000","cbVille":"PAU","spLibelle1":"","spLibelle2":"","acDateSerment":"","coordinates":[-0.3704649,43.2946829]},{"NomBarreau":"PAU","avNom":"SAINT MARTIN","avPrenom":"Jean Luc","cbRaisonSociale":"D. SM AVOCATS","cbSiretSiren":"532799343","cbAdresse1":"12 Rue Sambre et Meuse","cbAdresse2":"","cbCp":"64000","cbVille":"PAU","spLibelle1":"","spLibelle2":"","acDateSerment":"","coordinates":[-0.3368652,43.3111139]},{"NomBarreau":"PAU","avNom":"SAINT MICHEL","avPrenom":"Céline","cbRaisonSociale":"SAINT MICHEL CELINE","cbSiretSiren":"502210537","cbAdresse1":"31 rue Bayard","cbAdresse2":"","cbCp":"64000","cbVille":"PAU","spLibelle1":"","spLibelle2":"","acDateSerment":"","coordinates":[-0.3777109,43.2969114]},{"NomBarreau":"PAU","avNom":"SALIES","avPrenom":"Marie Laure","cbRaisonSociale":"AJC","cbSiretSiren":"401500475","cbAdresse1":"34 Boulevard de la Paix","cbAdresse2":"","cbCp":"64000","cbVille":"PAU","spLibelle1":"","spLibelle2":"","acDateSerment":"","coordinates":[-0.363634,43.3217909]},{"NomBarreau":"PAU","avNom":"SANTI","avPrenom":"Pierre","cbRaisonSociale":"DARMENDRAIL/SANTI","cbSiretSiren":"429729593","cbAdresse1":"25 rue Serviez","cbAdresse2":"","cbCp":"64000","cbVille":"PAU","spLibelle1":"Droit du travail","spLibelle2":"Droit international et de l'Union européenne","acDateSerment":"","coordinates":[-0.3704147,43.2982797]},{"NomBarreau":"PAU","avNom":"SERRANO","avPrenom":"Sophie","cbRaisonSociale":"SERRANO SOPHIE","cbSiretSiren":"817865686","cbAdresse1":"03 PLACE ALBERT 1ER","cbAdresse2":"","cbCp":"64000","cbVille":"PAU","spLibelle1":"","spLibelle2":"","acDateSerment":"","coordinates":[-0.3724144,43.2994272]},{"NomBarreau":"PAU","avNom":"SIMOES","avPrenom":"Isabel","cbRaisonSociale":"LEXEO CONSEIL","cbSiretSiren":"493622153","cbAdresse1":"20 cours Camou","cbAdresse2":"Maitre Isabel SIMOES","cbCp":"64000","cbVille":"PAU","spLibelle1":"","spLibelle2":"","acDateSerment":"","coordinates":[-0.3770792,43.3002162]},{"NomBarreau":"PAU","avNom":"SUISSA","avPrenom":"Stéphane","cbRaisonSociale":"SUISSA-KHERFALLAH","cbSiretSiren":"910743012","cbAdresse1":"6 Place  Gramont","cbAdresse2":"","cbCp":"64000","cbVille":"PAU","spLibelle1":"","spLibelle2":"","acDateSerment":"","coordinates":[-0.3747057,43.296686]},{"NomBarreau":"PAU","avNom":"TARDY","avPrenom":"Ludovic","cbRaisonSociale":"TARDY LUDOVIC","cbSiretSiren":"877885269","cbAdresse1":"19 Rue Latapie","cbAdresse2":"","cbCp":"64000","cbVille":"PAU","spLibelle1":"","spLibelle2":"","acDateSerment":"","coordinates":[-0.36773,43.2954372]},{"NomBarreau":"PAU","avNom":"TEILLARD LAGARDERE","avPrenom":"Martine","cbRaisonSociale":"TEILLARD-LAGARDERE MARTINE","cbSiretSiren":"323174227","cbAdresse1":"16 rue Serviez","cbAdresse2":"","cbCp":"64000","cbVille":"PAU","spLibelle1":"","spLibelle2":"","acDateSerment":"","coordinates":[-0.3691528,43.2971257]},{"NomBarreau":"PAU","avNom":"TRAORE","avPrenom":"Sidi Yaya","cbRaisonSociale":"TRAORE SIDI YAYA","cbSiretSiren":"910473594","cbAdresse1":"6 Rue O'Quin","cbAdresse2":"","cbCp":"64000","cbVille":"PAU","spLibelle1":"","spLibelle2":"","acDateSerment":"","coordinates":[-0.3711342,43.3011593]},{"NomBarreau":"PAU","avNom":"TUCOO CHALA","avPrenom":"François","cbRaisonSociale":"TUCOO CHALA","cbSiretSiren":"342086550","cbAdresse1":"31 rue Monpezat","cbAdresse2":"","cbCp":"64000","cbVille":"PAU","spLibelle1":"Droit public","spLibelle2":"","acDateSerment":"","coordinates":[-0.3734715,43.3013993]},{"NomBarreau":"PAU","avNom":"VARGUES","avPrenom":"Guilllaume","cbRaisonSociale":"CASADEBAIG & ASSOCIES - ELIGE PAU","cbSiretSiren":"514082205","cbAdresse1":"21 Rue Henri Faisans","cbAdresse2":"","cbCp":"64000","cbVille":"PAU","spLibelle1":"","spLibelle2":"","acDateSerment":"","coordinates":[-0.3623327,43.2993546]},{"NomBarreau":"PAU","avNom":"VIELLENAVE","avPrenom":"Carole","cbRaisonSociale":"VIELLENAVE CAROLE","cbSiretSiren":"509645461","cbAdresse1":"7 Rue Saint-Jacques","cbAdresse2":"","cbCp":"64000","cbVille":"PAU","spLibelle1":"","spLibelle2":"","acDateSerment":"","coordinates":[-0.3709268,43.2978753]},{"NomBarreau":"PAU","avNom":"WINTER","avPrenom":"Gabrielle","cbRaisonSociale":"WINTER GABRIELLE","cbSiretSiren":"501482764","cbAdresse1":"75 Avenue du Tonkin","cbAdresse2":"","cbCp":"64000","cbVille":"PAU","spLibelle1":"","spLibelle2":"","acDateSerment":"","coordinates":[-0.3828466,43.3146685]}]