[{"NomBarreau":"GUADELOUPE, SAINT MARTIN, SAINT BARTHELEMY","avNom":"AREKIAN  MATHURIN","avPrenom":"Anne-Marie","cbRaisonSociale":"AREKIAN MATHURIN ANNE-MARIE","cbSiretSiren":"520847740","cbAdresse1":"08 rue Alexandre Isaac","cbAdresse2":"","cbCp":"97110","cbVille":"POINTE-A-PITRE","spLibelle1":"","spLibelle2":"","acDateSerment":"","coordinates":[-61.5336197,16.2379926]},{"NomBarreau":"GUADELOUPE, SAINT MARTIN, SAINT BARTHELEMY","avNom":"BEAUZOR","avPrenom":"Jean-Claude","cbRaisonSociale":"BEAUZOR JEAN-CLAUDE","cbSiretSiren":"402274245","cbAdresse1":"52 rue Massabielle","cbAdresse2":"","cbCp":"97110","cbVille":"POINTE-A-PITRE","spLibelle1":"","spLibelle2":"","acDateSerment":"","coordinates":[-61.5327816,16.235041]},{"NomBarreau":"GUADELOUPE, SAINT MARTIN, SAINT BARTHELEMY","avNom":"BOURACHOT","avPrenom":"Agnès","cbRaisonSociale":"BOURACHOT AGNES","cbSiretSiren":"524733011","cbAdresse1":"29 RUE DELGRES","cbAdresse2":"1er ETAGE","cbCp":"97110","cbVille":"POINTE-A-PITRE","spLibelle1":"","spLibelle2":"","acDateSerment":"","coordinates":[-61.536601,16.235853]},{"NomBarreau":"GUADELOUPE, SAINT MARTIN, SAINT BARTHELEMY","avNom":"CHOVINO-AUBERT","avPrenom":"Valérie","cbRaisonSociale":"CHOVINO VALERIE","cbSiretSiren":"421091521","cbAdresse1":"08 RUE  ALEXANDRE ISAAC","cbAdresse2":"","cbCp":"97110","cbVille":"POINTE-A-PITRE","spLibelle1":"","spLibelle2":"","acDateSerment":"","coordinates":[-61.5336197,16.2379926]},{"NomBarreau":"GUADELOUPE, SAINT MARTIN, SAINT BARTHELEMY","avNom":"CHRISTON","avPrenom":"Claude","cbRaisonSociale":"CHRISTON CLAUDE","cbSiretSiren":"318422649","cbAdresse1":"49 RUE FREBAULT","cbAdresse2":"","cbCp":"97110","cbVille":"POINTE-A-PITRE","spLibelle1":"","spLibelle2":"","acDateSerment":"","coordinates":[-61.5359507,16.2381052]},{"NomBarreau":"GUADELOUPE, SAINT MARTIN, SAINT BARTHELEMY","avNom":"COLOMBO","avPrenom":"Marie-Claude","cbRaisonSociale":"COLOMBO MARIE-CLAUDE","cbSiretSiren":"401251376","cbAdresse1":"41 Fg Victor Hugo","cbAdresse2":"","cbCp":"97110","cbVille":"POINTE-A-PITRE","spLibelle1":"","spLibelle2":"","acDateSerment":"","coordinates":[-61.5302374,16.2359224]},{"NomBarreau":"GUADELOUPE, SAINT MARTIN, SAINT BARTHELEMY","avNom":"CORDOLIANI","avPrenom":"Francis","cbRaisonSociale":"CORDOLIANI FRANCIS","cbSiretSiren":"751957671","cbAdresse1":"19 Faubourg Alexandre ISAAC","cbAdresse2":"","cbCp":"97110","cbVille":"POINTE-A-PITRE","spLibelle1":"","spLibelle2":"","acDateSerment":"","coordinates":[-61.5309172,16.2368963]},{"NomBarreau":"GUADELOUPE, SAINT MARTIN, SAINT BARTHELEMY","avNom":"DAHOMAIS","avPrenom":"Johanne","cbRaisonSociale":"DAHOMAIS JOHANNE","cbSiretSiren":"532461589","cbAdresse1":"112-114 rue Schoelcher","cbAdresse2":"BP 47","cbCp":"97110","cbVille":"POINTE-A-PITRE","spLibelle1":"","spLibelle2":"","acDateSerment":"","coordinates":[-61.5366897,16.2380705]},{"NomBarreau":"GUADELOUPE, SAINT MARTIN, SAINT BARTHELEMY","avNom":"DEMOCRITE","avPrenom":"Gladys","cbRaisonSociale":"DEMOCRITE GLADYS","cbSiretSiren":"807931688","cbAdresse1":"9 RUE BEBIAN","cbAdresse2":"","cbCp":"97110","cbVille":"POINTE-A-PITRE","spLibelle1":"","spLibelle2":"","acDateSerment":"","coordinates":[-61.5334876,16.2392788]},{"NomBarreau":"GUADELOUPE, SAINT MARTIN, SAINT BARTHELEMY","avNom":"DORVILLE","avPrenom":"Karine","cbRaisonSociale":"DORVILLE KARINE","cbSiretSiren":"801351701","cbAdresse1":"19 Rue Sadi Carnot","cbAdresse2":"","cbCp":"97110","cbVille":"POINTE-A-PITRE","spLibelle1":"","spLibelle2":"","acDateSerment":"","coordinates":[-61.5366897,16.2380705]},{"NomBarreau":"GUADELOUPE, SAINT MARTIN, SAINT BARTHELEMY","avNom":"DUPONT","avPrenom":"Corinne","cbRaisonSociale":"DUPONT CORINNE","cbSiretSiren":"394931620","cbAdresse1":"8 ALEXANDRE ISAAC","cbAdresse2":"","cbCp":"97110","cbVille":"POINTE-A-PITRE","spLibelle1":"","spLibelle2":"","acDateSerment":"","coordinates":[-61.5336197,16.2379926]},{"NomBarreau":"GUADELOUPE, SAINT MARTIN, SAINT BARTHELEMY","avNom":"FRIGERE","avPrenom":"Katty","cbRaisonSociale":"FRIGERE KATTY","cbSiretSiren":"517513412","cbAdresse1":"41 Faubourg Victor HUGO","cbAdresse2":"","cbCp":"97110","cbVille":"POINTE-A-PITRE","spLibelle1":"","spLibelle2":"","acDateSerment":"","coordinates":[-61.5302374,16.2359224]},{"NomBarreau":"GUADELOUPE, SAINT MARTIN, SAINT BARTHELEMY","avNom":"GALVANI","avPrenom":"Tania","cbRaisonSociale":"GALVANI TANIA","cbSiretSiren":"489427468","cbAdresse1":"22 rue Victor Hugo","cbAdresse2":"","cbCp":"97110","cbVille":"POINTE-A-PITRE","spLibelle1":"","spLibelle2":"","acDateSerment":"","coordinates":[-61.5330059,16.237149]},{"NomBarreau":"GUADELOUPE, SAINT MARTIN, SAINT BARTHELEMY","avNom":"GELABALE","avPrenom":"Joselaine","cbRaisonSociale":"GELABALE JOSELAINE","cbSiretSiren":"810218479","cbAdresse1":"16 Rue FREBAULT","cbAdresse2":"","cbCp":"97110","cbVille":"POINTE-A-PITRE","spLibelle1":"","spLibelle2":"","acDateSerment":"","coordinates":[-61.5366155,16.2360365]},{"NomBarreau":"GUADELOUPE, SAINT MARTIN, SAINT BARTHELEMY","avNom":"GEOFFROY","avPrenom":"Vanessa","cbRaisonSociale":"GEOFFROY VANESSA","cbSiretSiren":"883733164","cbAdresse1":"12 rue d'Ennery","cbAdresse2":"","cbCp":"97110","cbVille":"POINTE-A-PITRE","spLibelle1":"","spLibelle2":"","acDateSerment":"","coordinates":[-61.5338365,16.2404743]},{"NomBarreau":"GUADELOUPE, SAINT MARTIN, SAINT BARTHELEMY","avNom":"HANNOTEAUX","avPrenom":"Charlotte","cbRaisonSociale":"HANNOTEAUX CHARLOTTE","cbSiretSiren":"793885567","cbAdresse1":"03 Quai Ferdinand de Lesseps","cbAdresse2":"","cbCp":"97110","cbVille":"POINTE-A-PITRE","spLibelle1":"","spLibelle2":"","acDateSerment":"","coordinates":[-61.5379636,16.2359191]},{"NomBarreau":"GUADELOUPE, SAINT MARTIN, SAINT BARTHELEMY","avNom":"HATCHI","avPrenom":"Laurent","cbRaisonSociale":"HATCHI LAURENT","cbSiretSiren":"502524101","cbAdresse1":"117 rue FREBAULT","cbAdresse2":"","cbCp":"97110","cbVille":"POINTE-A-PITRE","spLibelle1":"","spLibelle2":"","acDateSerment":"","coordinates":[-61.5353458,16.2403945]},{"NomBarreau":"GUADELOUPE, SAINT MARTIN, SAINT BARTHELEMY","avNom":"HILDEBERT","avPrenom":"Marie-Michelle","cbRaisonSociale":"NAEJUS-HILDEBERT","cbSiretSiren":"487852725","cbAdresse1":"12 rue LAMARTINE","cbAdresse2":"","cbCp":"97110","cbVille":"POINTE-A-PITRE","spLibelle1":"","spLibelle2":"","acDateSerment":"","coordinates":[-61.5365589,16.2395319]},{"NomBarreau":"GUADELOUPE, SAINT MARTIN, SAINT BARTHELEMY","avNom":"HODEBAR","avPrenom":"Angebert","cbRaisonSociale":"HODEBAR ANGEBERT","cbSiretSiren":"453145344","cbAdresse1":"28 Place de l'Eglise","cbAdresse2":"","cbCp":"97110","cbVille":"POINTE-A-PITRE","spLibelle1":"","spLibelle2":"","acDateSerment":"","coordinates":[-61.534649597262614,16.23844645]},{"NomBarreau":"GUADELOUPE, SAINT MARTIN, SAINT BARTHELEMY","avNom":"HOUDA","avPrenom":"Jamil","cbRaisonSociale":"HOUDA  JAMIL","cbSiretSiren":"351820691","cbAdresse1":"49 RUE FREBAULT","cbAdresse2":"","cbCp":"97110","cbVille":"POINTE-A-PITRE","spLibelle1":"","spLibelle2":"","acDateSerment":"","coordinates":[-61.5359507,16.2381052]},{"NomBarreau":"GUADELOUPE, SAINT MARTIN, SAINT BARTHELEMY","avNom":"JEAN-MARIE","avPrenom":"Frédéric","cbRaisonSociale":"JEAN-MARIE FREDERIC","cbSiretSiren":"408223857","cbAdresse1":"14 rue Alexandre Isaac","cbAdresse2":"","cbCp":"97110","cbVille":"POINTE-A-PITRE","spLibelle1":"","spLibelle2":"","acDateSerment":"","coordinates":[-61.53260241095348,16.2375382]},{"NomBarreau":"GUADELOUPE, SAINT MARTIN, SAINT BARTHELEMY","avNom":"LIMON LAMOTHE","avPrenom":"Dorothée","cbRaisonSociale":"LIMON LAMOTHE DOROTHEE","cbSiretSiren":"451319560","cbAdresse1":"13 RUE ALSACE LORRAINE","cbAdresse2":"RESIDENCE VILLA ISTANA","cbCp":"97110","cbVille":"POINTE-A-PITRE","spLibelle1":"","spLibelle2":"","acDateSerment":"","coordinates":[-61.5329935,16.2382982]},{"NomBarreau":"GUADELOUPE, SAINT MARTIN, SAINT BARTHELEMY","avNom":"LOUISE","avPrenom":"Lucien","cbRaisonSociale":"LOUISE LUCIEN","cbSiretSiren":"347615718","cbAdresse1":"04 rue DELGRES","cbAdresse2":"","cbCp":"97110","cbVille":"POINTE-A-PITRE","spLibelle1":"","spLibelle2":"","acDateSerment":"","coordinates":[-61.536601,16.235853]},{"NomBarreau":"GUADELOUPE, SAINT MARTIN, SAINT BARTHELEMY","avNom":"LOUIS-HODEBAR","avPrenom":"Yanick","cbRaisonSociale":"LOUIS-HODEBAR YANNICK","cbSiretSiren":"411960529","cbAdresse1":"28 Place de l'Eglise","cbAdresse2":"","cbCp":"97110","cbVille":"POINTE-A-PITRE","spLibelle1":"","spLibelle2":"","acDateSerment":"","coordinates":[-61.534649597262614,16.23844645]},{"NomBarreau":"GUADELOUPE, SAINT MARTIN, SAINT BARTHELEMY","avNom":"MAKDISSI","avPrenom":"Gwendalina","cbRaisonSociale":"MAKDISSI GWENDALINA","cbSiretSiren":"434502894","cbAdresse1":"112-114 Rue Schoelcher","cbAdresse2":"","cbCp":"97110","cbVille":"POINTE-A-PITRE","spLibelle1":"","spLibelle2":"","acDateSerment":"","coordinates":[-61.5366897,16.2380705]},{"NomBarreau":"GUADELOUPE, SAINT MARTIN, SAINT BARTHELEMY","avNom":"MARTIN-BRIERE","avPrenom":"Eve-Lyne","cbRaisonSociale":"MARTIN-BRIERE  EVE-LYNE","cbSiretSiren":"411538382","cbAdresse1":"83 rue Vatable","cbAdresse2":"","cbCp":"97110","cbVille":"POINTE-A-PITRE","spLibelle1":"Droit commercial, des affaires et de la concurrence","spLibelle2":"Droit des sociétés","acDateSerment":"","coordinates":[-61.5309335,16.2393413]},{"NomBarreau":"GUADELOUPE, SAINT MARTIN, SAINT BARTHELEMY","avNom":"NAEJUS","avPrenom":"Betty","cbRaisonSociale":"NAEJUS-HILDEBERT","cbSiretSiren":"487852725","cbAdresse1":"12 rue LAMARTINE","cbAdresse2":"","cbCp":"97110","cbVille":"POINTE-A-PITRE","spLibelle1":"","spLibelle2":"","acDateSerment":"","coordinates":[-61.5365589,16.2395319]},{"NomBarreau":"GUADELOUPE, SAINT MARTIN, SAINT BARTHELEMY","avNom":"RICHARD","avPrenom":"Annick","cbRaisonSociale":"RICHARD ANNICK","cbSiretSiren":"490823580","cbAdresse1":"29 RUE DELGRES","cbAdresse2":"1er ETAGE","cbCp":"97110","cbVille":"POINTE-A-PITRE","spLibelle1":"","spLibelle2":"","acDateSerment":"","coordinates":[-61.536601,16.235853]},{"NomBarreau":"GUADELOUPE, SAINT MARTIN, SAINT BARTHELEMY","avNom":"RICHARDS","avPrenom":"Aude","cbRaisonSociale":"RICHARDS AUDE","cbSiretSiren":"330020546","cbAdresse1":"04 rue Victor Hugues","cbAdresse2":"","cbCp":"97110","cbVille":"POINTE-A-PITRE","spLibelle1":"","spLibelle2":"","acDateSerment":"","coordinates":[-61.5350398,16.2380035]},{"NomBarreau":"GUADELOUPE, SAINT MARTIN, SAINT BARTHELEMY","avNom":"RINALDO","avPrenom":"Robert","cbRaisonSociale":"RINALDO ROBERT","cbSiretSiren":"390179976","cbAdresse1":"13 Place de l' Eglise","cbAdresse2":"","cbCp":"97110","cbVille":"POINTE-A-PITRE","spLibelle1":"","spLibelle2":"","acDateSerment":"","coordinates":[-61.534649597262614,16.23844645]},{"NomBarreau":"GUADELOUPE, SAINT MARTIN, SAINT BARTHELEMY","avNom":"ROLIN","avPrenom":"Anne-Marie","cbRaisonSociale":"ROLIN ANNE MARIE","cbSiretSiren":"392626313","cbAdresse1":"26 RUE DELGRES","cbAdresse2":"1er étage","cbCp":"97110","cbVille":"POINTE-A-PITRE","spLibelle1":"","spLibelle2":"","acDateSerment":"","coordinates":[-61.536601,16.235853]},{"NomBarreau":"GUADELOUPE, SAINT MARTIN, SAINT BARTHELEMY","avNom":"ROTH","avPrenom":"Alain","cbRaisonSociale":"ROTH ALAIN","cbSiretSiren":"399583731","cbAdresse1":"Rue Dugommier","cbAdresse2":"Residence la Darse","cbCp":"97110","cbVille":"POINTE-A-PITRE","spLibelle1":"","spLibelle2":"","acDateSerment":"","coordinates":[-61.53213,16.2379258]},{"NomBarreau":"GUADELOUPE, SAINT MARTIN, SAINT BARTHELEMY","avNom":"SAINT-CLEMENT","avPrenom":"Gladys","cbRaisonSociale":"SAINT-CLEMENT GLADYS","cbSiretSiren":"530545912","cbAdresse1":"12 rue d'ENNERY","cbAdresse2":"","cbCp":"97110","cbVille":"POINTE-A-PITRE","spLibelle1":"","spLibelle2":"","acDateSerment":"","coordinates":[-61.5338365,16.2404743]},{"NomBarreau":"GUADELOUPE, SAINT MARTIN, SAINT BARTHELEMY","avNom":"SYLVESTRE","avPrenom":"Joel","cbRaisonSociale":"SYLVESTRE JOEL","cbSiretSiren":"802367011","cbAdresse1":"80 rue Vatable","cbAdresse2":"","cbCp":"97110","cbVille":"POINTE-A-PITRE","spLibelle1":"","spLibelle2":"","acDateSerment":"","coordinates":[-61.5309335,16.2393413]},{"NomBarreau":"GUADELOUPE, SAINT MARTIN, SAINT BARTHELEMY","avNom":"TACITA","avPrenom":"Patrice","cbRaisonSociale":"TACITA PATRICE","cbSiretSiren":"400807590","cbAdresse1":"12 rue d'Ennery","cbAdresse2":"","cbCp":"97110","cbVille":"POINTE-A-PITRE","spLibelle1":"","spLibelle2":"","acDateSerment":"","coordinates":[-61.5338365,16.2404743]},{"NomBarreau":"GUADELOUPE, SAINT MARTIN, SAINT BARTHELEMY","avNom":"TACITA","avPrenom":"Socrate-Pierre","cbRaisonSociale":"TACITA SOCRATE-PIERRE","cbSiretSiren":"314475906","cbAdresse1":"12 rue d'Ennery","cbAdresse2":"","cbCp":"97110","cbVille":"POINTE-A-PITRE","spLibelle1":"","spLibelle2":"","acDateSerment":"","coordinates":[-61.5338365,16.2404743]},{"NomBarreau":"GUADELOUPE, SAINT MARTIN, SAINT BARTHELEMY","avNom":"TARDEL","avPrenom":"Tania","cbRaisonSociale":"TARDEL TANIA","cbSiretSiren":"393776695","cbAdresse1":"49 RUE FREBAULT","cbAdresse2":"","cbCp":"97110","cbVille":"POINTE-A-PITRE","spLibelle1":"","spLibelle2":"","acDateSerment":"","coordinates":[-61.5359507,16.2381052]},{"NomBarreau":"GUADELOUPE, SAINT MARTIN, SAINT BARTHELEMY","avNom":"THEOPHILE","avPrenom":"Johann ","cbRaisonSociale":"THEOPHILE JOHANN","cbSiretSiren":"883932576","cbAdresse1":"12 rue d'Ennery","cbAdresse2":"","cbCp":"97110","cbVille":"POINTE-A-PITRE","spLibelle1":"","spLibelle2":"","acDateSerment":"","coordinates":[-61.5338365,16.2404743]},{"NomBarreau":"GUADELOUPE, SAINT MARTIN, SAINT BARTHELEMY","avNom":"TOLASSY-SAULO","avPrenom":"Aurelie","cbRaisonSociale":"TOLASSY-SAULO AURELIE","cbSiretSiren":"893700823","cbAdresse1":"117 rue FREBAULT","cbAdresse2":"","cbCp":"97110","cbVille":"POINTE-A-PITRE","spLibelle1":"","spLibelle2":"","acDateSerment":"","coordinates":[-61.5353458,16.2403945]},{"NomBarreau":"GUADELOUPE, SAINT MARTIN, SAINT BARTHELEMY","avNom":"TROUPE","avPrenom":"Josselin","cbRaisonSociale":"TROUPE JOSSELIN","cbSiretSiren":"429384241","cbAdresse1":"28 place de l'Eglise","cbAdresse2":"","cbCp":"97110","cbVille":"POINTE-A-PITRE","spLibelle1":"","spLibelle2":"","acDateSerment":"","coordinates":[-61.534649597262614,16.23844645]},{"NomBarreau":"GUADELOUPE, SAINT MARTIN, SAINT BARTHELEMY","avNom":"WERTER","avPrenom":"Daniel","cbRaisonSociale":"WERTER DANIEL","cbSiretSiren":"314475864","cbAdresse1":"16 RUE FRANCOIS ARAGO","cbAdresse2":"","cbCp":"97110","cbVille":"POINTE-A-PITRE","spLibelle1":"","spLibelle2":"","acDateSerment":"","coordinates":[-61.5340184,16.2395156]},{"NomBarreau":"GUADELOUPE, SAINT MARTIN, SAINT BARTHELEMY","avNom":"ZIG","avPrenom":"Jennifer","cbRaisonSociale":"ZIG JENNIFER","cbSiretSiren":"833667819","cbAdresse1":"49 RUE FREBAULT","cbAdresse2":"","cbCp":"97110","cbVille":"POINTE-A-PITRE","spLibelle1":"","spLibelle2":"","acDateSerment":"","coordinates":[-61.5359507,16.2381052]}]