[{"NomBarreau":"GUADELOUPE, SAINT MARTIN, SAINT BARTHELEMY","avNom":"ABENAQUI","avPrenom":"Françoise","cbRaisonSociale":"ABENAQUI FRANCOISE","cbSiretSiren":"908723919","cbAdresse1":"3 QUAI FERDINAND DE LESSEPS","cbAdresse2":"","cbCp":"97110","cbVille":"POINTE A PITRE","spLibelle1":"","spLibelle2":"","acDateSerment":"","coordinates":[-61.5379636,16.2359191]},{"NomBarreau":"GUADELOUPE, SAINT MARTIN, SAINT BARTHELEMY","avNom":"AKO","avPrenom":"Hubert","cbRaisonSociale":"AKO HUBERT","cbSiretSiren":"532907268","cbAdresse1":"19 Faubourg Alexandre Isaac","cbAdresse2":"Immeuble Privalis","cbCp":"97110","cbVille":"POINTE A PITRE","spLibelle1":"","spLibelle2":"","acDateSerment":"","coordinates":[-61.5309172,16.2368963]},{"NomBarreau":"GUADELOUPE, SAINT MARTIN, SAINT BARTHELEMY","avNom":"ANDREA","avPrenom":"Patricia","cbRaisonSociale":"ANDREA PATRICIA","cbSiretSiren":"350904066","cbAdresse1":"34 rue Alexandre Isaac","cbAdresse2":"","cbCp":"97110","cbVille":"POINTE A PITRE","spLibelle1":"","spLibelle2":"","acDateSerment":"","coordinates":[-61.5336197,16.2379926]},{"NomBarreau":"GUADELOUPE, SAINT MARTIN, SAINT BARTHELEMY","avNom":"ARMAND","avPrenom":"Lionel ","cbRaisonSociale":"ARMAND LIONEL","cbSiretSiren":"894535780","cbAdresse1":"23 rue Francois Arago","cbAdresse2":"","cbCp":"97110","cbVille":"POINTE A PITRE","spLibelle1":"","spLibelle2":"","acDateSerment":"","coordinates":[-61.5340184,16.2395156]},{"NomBarreau":"GUADELOUPE, SAINT MARTIN, SAINT BARTHELEMY","avNom":"BALTA","avPrenom":"Anny","cbRaisonSociale":"BALTA ANNY","cbSiretSiren":"793885583","cbAdresse1":"01 Quai Foulon","cbAdresse2":"","cbCp":"97110","cbVille":"POINTE A PITRE","spLibelle1":"","spLibelle2":"","acDateSerment":"","coordinates":[-61.5385599,16.2368163]},{"NomBarreau":"GUADELOUPE, SAINT MARTIN, SAINT BARTHELEMY","avNom":"BARRE AUJOULAT","avPrenom":"Florence","cbRaisonSociale":"BARRE AUJOULAT FLORENCE","cbSiretSiren":"419305842","cbAdresse1":"62 Rue  Achille RENE BOISNEUF","cbAdresse2":"","cbCp":"97110","cbVille":"POINTE A PITRE","spLibelle1":"","spLibelle2":"","acDateSerment":"","coordinates":[-61.538504,16.2373787]},{"NomBarreau":"GUADELOUPE, SAINT MARTIN, SAINT BARTHELEMY","avNom":"BESSIN","avPrenom":"Max","cbRaisonSociale":"BESSIN MAX","cbSiretSiren":"822636197","cbAdresse1":"112-114 Rue Schoelcher","cbAdresse2":"","cbCp":"97110","cbVille":"POINTE A PITRE","spLibelle1":"","spLibelle2":"","acDateSerment":"","coordinates":[-61.5366897,16.2380705]},{"NomBarreau":"GUADELOUPE, SAINT MARTIN, SAINT BARTHELEMY","avNom":"BESSIS","avPrenom":"Ellen","cbRaisonSociale":"ELBA","cbSiretSiren":"753814318","cbAdresse1":"102 Quai Ferdinand de Lesseps","cbAdresse2":"Centre d'Affaires IFACOM","cbCp":"97110","cbVille":"POINTE A PITRE","spLibelle1":"","spLibelle2":"","acDateSerment":"","coordinates":[-61.5379636,16.2359191]},{"NomBarreau":"GUADELOUPE, SAINT MARTIN, SAINT BARTHELEMY","avNom":"BOUCHER","avPrenom":"Nadia","cbRaisonSociale":"BOUCHER NADIA","cbSiretSiren":"394114235","cbAdresse1":"26 Rue Louis Delgres","cbAdresse2":"","cbCp":"97110","cbVille":"POINTE A PITRE","spLibelle1":"","spLibelle2":"","acDateSerment":"","coordinates":[-61.3269324,16.2731141]},{"NomBarreau":"GUADELOUPE, SAINT MARTIN, SAINT BARTHELEMY","avNom":"CHARBIT-SEBAG","avPrenom":"Sarah","cbRaisonSociale":"CHARBIT SEBAG SARAH","cbSiretSiren":"481596310","cbAdresse1":"8 rue frebault","cbAdresse2":"","cbCp":"97110","cbVille":"POINTE A PITRE","spLibelle1":"","spLibelle2":"","acDateSerment":"","coordinates":[-61.5368379,16.235774]},{"NomBarreau":"GUADELOUPE, SAINT MARTIN, SAINT BARTHELEMY","avNom":"CHICOT","avPrenom":"Pierre-Yves","cbRaisonSociale":"CHICOT PIERRE-YVES","cbSiretSiren":"518048285","cbAdresse1":"58 Faubourg Victor Hugo","cbAdresse2":"Immeuble Gaelle","cbCp":"97110","cbVille":"POINTE A PITRE","spLibelle1":"","spLibelle2":"","acDateSerment":"","coordinates":[-61.5302374,16.2359224]},{"NomBarreau":"GUADELOUPE, SAINT MARTIN, SAINT BARTHELEMY","avNom":"CHIPAN","avPrenom":"Olivier","cbRaisonSociale":"CHIPAN OLIVIER","cbSiretSiren":"502044639","cbAdresse1":"03 Quai Ferdinand de LESSEPS","cbAdresse2":"","cbCp":"97110","cbVille":"POINTE A PITRE","spLibelle1":"","spLibelle2":"","acDateSerment":"","coordinates":[-61.5379636,16.2359191]},{"NomBarreau":"GUADELOUPE, SAINT MARTIN, SAINT BARTHELEMY","avNom":"COPPET","avPrenom":"Charles-Henri","cbRaisonSociale":"COPPET AVOCATS","cbSiretSiren":"848748307","cbAdresse1":"1 Rue Champy","cbAdresse2":"","cbCp":"97110","cbVille":"POINTE A PITRE","spLibelle1":"Droit du dommage corporel","spLibelle2":"","acDateSerment":"","coordinates":[-61.5378397,16.2365059]},{"NomBarreau":"GUADELOUPE, SAINT MARTIN, SAINT BARTHELEMY","avNom":"DEPORCQ","avPrenom":"Dominique","cbRaisonSociale":"DEPORCQ-ARMAND ET ASSOCIES","cbSiretSiren":"","cbAdresse1":"23 rue Francois Arago","cbAdresse2":"","cbCp":"97110","cbVille":"POINTE A PITRE","spLibelle1":"","spLibelle2":"","acDateSerment":"","coordinates":[-61.5340184,16.2395156]},{"NomBarreau":"GUADELOUPE, SAINT MARTIN, SAINT BARTHELEMY","avNom":"DESIREE","avPrenom":"Nicolas","cbRaisonSociale":"NICOLAS DESIREE","cbSiretSiren":"909084980","cbAdresse1":"24 RUE DELGRES","cbAdresse2":"","cbCp":"97110","cbVille":"POINTE A PITRE","spLibelle1":"","spLibelle2":"","acDateSerment":"","coordinates":[-61.536601,16.235853]},{"NomBarreau":"GUADELOUPE, SAINT MARTIN, SAINT BARTHELEMY","avNom":"DJIMI","avPrenom":"Marie-Catherine","cbRaisonSociale":"DJIMI MARIE CATHERINE","cbSiretSiren":"809348501","cbAdresse1":"3 QUAI FERDINAND DE LESSEPS","cbAdresse2":"","cbCp":"97110","cbVille":"POINTE A PITRE","spLibelle1":"","spLibelle2":"","acDateSerment":"","coordinates":[-61.5379636,16.2359191]},{"NomBarreau":"GUADELOUPE, SAINT MARTIN, SAINT BARTHELEMY","avNom":"DORSILE","avPrenom":"Rebecca","cbRaisonSociale":"DORSILE REBECCA","cbSiretSiren":"491288155","cbAdresse1":"04 Quai Foulon","cbAdresse2":"Résidence Horizon nAE 301","cbCp":"97110","cbVille":"POINTE A PITRE","spLibelle1":"","spLibelle2":"","acDateSerment":"","coordinates":[-61.5385599,16.2368163]},{"NomBarreau":"GUADELOUPE, SAINT MARTIN, SAINT BARTHELEMY","avNom":"DUBOIS-NICOLAS","avPrenom":"Virginie","cbRaisonSociale":"NICOLAS & DUBOIS","cbSiretSiren":"751900200","cbAdresse1":"22 Faubourg Victor HUGO","cbAdresse2":"","cbCp":"97110","cbVille":"POINTE A PITRE","spLibelle1":"","spLibelle2":"","acDateSerment":"","coordinates":[-61.5302374,16.2359224]},{"NomBarreau":"GUADELOUPE, SAINT MARTIN, SAINT BARTHELEMY","avNom":"FANDO-MONTOUT","avPrenom":"Sandrine","cbRaisonSociale":"FANDO-MONTOUT SANDRINE","cbSiretSiren":"792130775","cbAdresse1":"29 RUE DELGRES","cbAdresse2":"","cbCp":"97110","cbVille":"POINTE A PITRE","spLibelle1":"","spLibelle2":"","acDateSerment":"","coordinates":[-61.536601,16.235853]},{"NomBarreau":"GUADELOUPE, SAINT MARTIN, SAINT BARTHELEMY","avNom":"FERLY","avPrenom":"Jan-Marc","cbRaisonSociale":"CQFD AVOCATS","cbSiretSiren":"891320012","cbAdresse1":"3 Quai Ferdinand de Lesseps","cbAdresse2":"","cbCp":"97110","cbVille":"POINTE A PITRE","spLibelle1":"","spLibelle2":"","acDateSerment":"","coordinates":[-61.5379636,16.2359191]},{"NomBarreau":"GUADELOUPE, SAINT MARTIN, SAINT BARTHELEMY","avNom":"FIGUERES","avPrenom":"Julie","cbRaisonSociale":"FIGUERES JULIE","cbSiretSiren":"531136497","cbAdresse1":"19 RUE ACHILLE RENE BOISNEUF","cbAdresse2":"","cbCp":"97110","cbVille":"POINTE A PITRE","spLibelle1":"","spLibelle2":"","acDateSerment":"","coordinates":[-61.5370649,16.2367388]},{"NomBarreau":"GUADELOUPE, SAINT MARTIN, SAINT BARTHELEMY","avNom":"FONTAINE DE LA ROQUE","avPrenom":"Anne","cbRaisonSociale":"FONTAINE DE LA ROQUE ANNE","cbSiretSiren":"414434084","cbAdresse1":"14 Quai Ferdinand de Lesseps","cbAdresse2":"1er étage","cbCp":"97110","cbVille":"POINTE A PITRE","spLibelle1":"","spLibelle2":"","acDateSerment":"","coordinates":[-61.5379636,16.2359191]},{"NomBarreau":"GUADELOUPE, SAINT MARTIN, SAINT BARTHELEMY","avNom":"FUSENIG","avPrenom":"Béatrice","cbRaisonSociale":"DERUSSY-FUSENIG-MOLLET","cbSiretSiren":"817881394","cbAdresse1":"58 RUE ACHILLE RENE BOISNEUF","cbAdresse2":"","cbCp":"97110","cbVille":"POINTE A PITRE","spLibelle1":"Droit immobilier","spLibelle2":"","acDateSerment":"","coordinates":[-61.5382374,16.2372466]},{"NomBarreau":"GUADELOUPE, SAINT MARTIN, SAINT BARTHELEMY","avNom":"GUEREL","avPrenom":"Marie-Julianne","cbRaisonSociale":"GUEREL MARIE-JULIANNE","cbSiretSiren":"815046925","cbAdresse1":"03 Quai Ferdinand de Lesseps","cbAdresse2":"","cbCp":"97110","cbVille":"POINTE A PITRE","spLibelle1":"","spLibelle2":"","acDateSerment":"","coordinates":[-61.5379636,16.2359191]},{"NomBarreau":"GUADELOUPE, SAINT MARTIN, SAINT BARTHELEMY","avNom":"GUYARD","avPrenom":"Grégory","cbRaisonSociale":"COPPET AVOCATS","cbSiretSiren":"848748307","cbAdresse1":"1 Rue Champy","cbAdresse2":"","cbCp":"97110","cbVille":"POINTE A PITRE","spLibelle1":"","spLibelle2":"","acDateSerment":"","coordinates":[-61.5378397,16.2365059]},{"NomBarreau":"GUADELOUPE, SAINT MARTIN, SAINT BARTHELEMY","avNom":"GUYON","avPrenom":"Marialy","cbRaisonSociale":"GUYON MARIALY","cbSiretSiren":"802256677","cbAdresse1":"19 Rue Sadi Carnot","cbAdresse2":"","cbCp":"97110","cbVille":"POINTE A PITRE","spLibelle1":"","spLibelle2":"","acDateSerment":"","coordinates":[-61.5366897,16.2380705]},{"NomBarreau":"GUADELOUPE, SAINT MARTIN, SAINT BARTHELEMY","avNom":"HECKMANN","avPrenom":"Lise","cbRaisonSociale":"HECKMANN LISE","cbSiretSiren":"909536948","cbAdresse1":"117 RUE FREBAULT","cbAdresse2":"","cbCp":"97110","cbVille":"POINTE A PITRE","spLibelle1":"","spLibelle2":"","acDateSerment":"","coordinates":[-61.5353458,16.2403945]},{"NomBarreau":"GUADELOUPE, SAINT MARTIN, SAINT BARTHELEMY","avNom":"HIRCAU","avPrenom":"Jean","cbRaisonSociale":"HIRCAU JEAN","cbSiretSiren":"339792731","cbAdresse1":"4 Quai Foulon","cbAdresse2":"\tRsce HORIZON Bat E Porte 102","cbCp":"97110","cbVille":"POINTE A PITRE","spLibelle1":"","spLibelle2":"","acDateSerment":"","coordinates":[-61.5385599,16.2368163]},{"NomBarreau":"GUADELOUPE, SAINT MARTIN, SAINT BARTHELEMY","avNom":"LAHAUT","avPrenom":"Frédérique","cbRaisonSociale":"FILAO AVOCATS","cbSiretSiren":"834544561","cbAdresse1":"11 Rue Gambetta","cbAdresse2":"","cbCp":"97110","cbVille":"POINTE A PITRE","spLibelle1":"","spLibelle2":"","acDateSerment":"","coordinates":[-61.5355841,16.2373033]},{"NomBarreau":"GUADELOUPE, SAINT MARTIN, SAINT BARTHELEMY","avNom":"LAURENT","avPrenom":"Christelle","cbRaisonSociale":"LAURENT CHRISTELLE","cbSiretSiren":"531385201","cbAdresse1":"1 Quai Foulon","cbAdresse2":"","cbCp":"97110","cbVille":"POINTE A PITRE","spLibelle1":"","spLibelle2":"","acDateSerment":"","coordinates":[-61.5385599,16.2368163]},{"NomBarreau":"GUADELOUPE, SAINT MARTIN, SAINT BARTHELEMY","avNom":"MALOUCHE","avPrenom":"Anis","cbRaisonSociale":"LEXINDIES AVOCATS","cbSiretSiren":"828510230","cbAdresse1":"03 Quai Ferdinand de Lesseps","cbAdresse2":"","cbCp":"97110","cbVille":"POINTE A PITRE","spLibelle1":"","spLibelle2":"","acDateSerment":"","coordinates":[-61.5379636,16.2359191]},{"NomBarreau":"GUADELOUPE, SAINT MARTIN, SAINT BARTHELEMY","avNom":"MIGNOT","avPrenom":"Amaury","cbRaisonSociale":"MIGNOT AMAURY","cbSiretSiren":"533291217","cbAdresse1":"01 rue Achille RENE-BOISNEUF","cbAdresse2":"","cbCp":"97110","cbVille":"POINTE A PITRE","spLibelle1":"","spLibelle2":"","acDateSerment":"","coordinates":[-61.5370649,16.2367388]},{"NomBarreau":"GUADELOUPE, SAINT MARTIN, SAINT BARTHELEMY","avNom":"MINAR RODAP","avPrenom":"Noelle","cbRaisonSociale":"MINAR NOELLE","cbSiretSiren":"911435824","cbAdresse1":"23 rue Francois Arago","cbAdresse2":"","cbCp":"97110","cbVille":"POINTE A PITRE","spLibelle1":"","spLibelle2":"","acDateSerment":"","coordinates":[-61.5340184,16.2395156]},{"NomBarreau":"GUADELOUPE, SAINT MARTIN, SAINT BARTHELEMY","avNom":"MOLLET","avPrenom":"Nicolas","cbRaisonSociale":"DERUSSY-FUSENIG-MOLLET","cbSiretSiren":"817881394","cbAdresse1":"58 RUE ACHILLE RENE BOISNEUF","cbAdresse2":"","cbCp":"97110","cbVille":"POINTE A PITRE","spLibelle1":"","spLibelle2":"","acDateSerment":"","coordinates":[-61.5382374,16.2372466]},{"NomBarreau":"GUADELOUPE, SAINT MARTIN, SAINT BARTHELEMY","avNom":"MONDONNEIX","avPrenom":"Alberic","cbRaisonSociale":"MONDONNEIX ALBERIC","cbSiretSiren":"911128536","cbAdresse1":"10 quai Lardenoy","cbAdresse2":"","cbCp":"97110","cbVille":"POINTE A PITRE","spLibelle1":"","spLibelle2":"","acDateSerment":"","coordinates":[-61.5358501,16.2354573]},{"NomBarreau":"GUADELOUPE, SAINT MARTIN, SAINT BARTHELEMY","avNom":"MORELLI","avPrenom":"Stéphane","cbRaisonSociale":"MORELLI STEPHANE","cbSiretSiren":"520251521","cbAdresse1":"16 RUE FRANCOIS ARAGO","cbAdresse2":"CABINET DANIEL WERTER","cbCp":"97110","cbVille":"POINTE A PITRE","spLibelle1":"","spLibelle2":"","acDateSerment":"","coordinates":[-61.5340184,16.2395156]},{"NomBarreau":"GUADELOUPE, SAINT MARTIN, SAINT BARTHELEMY","avNom":"MORTON","avPrenom":"Louis-Raphael","cbRaisonSociale":"MORTON ET ASSOCIES AVOCATS","cbSiretSiren":"","cbAdresse1":"30 RUE DELGRES","cbAdresse2":"","cbCp":"97110","cbVille":"POINTE A PITRE","spLibelle1":"","spLibelle2":"","acDateSerment":"","coordinates":[-61.536601,16.235853]},{"NomBarreau":"GUADELOUPE, SAINT MARTIN, SAINT BARTHELEMY","avNom":"MORVAN","avPrenom":"Jenny","cbRaisonSociale":"MORVAN JENNY","cbSiretSiren":"749825295","cbAdresse1":"27 rue Vatable","cbAdresse2":"","cbCp":"97110","cbVille":"POINTE A PITRE","spLibelle1":"","spLibelle2":"","acDateSerment":"","coordinates":[-61.5309335,16.2393413]},{"NomBarreau":"GUADELOUPE, SAINT MARTIN, SAINT BARTHELEMY","avNom":"NIBERON","avPrenom":"Jérome","cbRaisonSociale":"MORTON ET ASSOCIES AVOCATS","cbSiretSiren":"","cbAdresse1":"30 RUE DELGRES","cbAdresse2":"","cbCp":"97110","cbVille":"POINTE A PITRE","spLibelle1":"Droit du travail","spLibelle2":"","acDateSerment":"","coordinates":[-61.536601,16.235853]},{"NomBarreau":"GUADELOUPE, SAINT MARTIN, SAINT BARTHELEMY","avNom":"NICOLAS","avPrenom":"Charles","cbRaisonSociale":"NICOLAS & DUBOIS","cbSiretSiren":"751900200","cbAdresse1":"22 Faubourg Victor HUGO","cbAdresse2":"","cbCp":"97110","cbVille":"POINTE A PITRE","spLibelle1":"","spLibelle2":"","acDateSerment":"","coordinates":[-61.5302374,16.2359224]},{"NomBarreau":"GUADELOUPE, SAINT MARTIN, SAINT BARTHELEMY","avNom":"PHILIBIEN","avPrenom":"Laurent","cbRaisonSociale":"FILAO AVOCATS","cbSiretSiren":"834544561","cbAdresse1":"11 Rue Gambetta","cbAdresse2":"","cbCp":"97110","cbVille":"POINTE A PITRE","spLibelle1":"","spLibelle2":"","acDateSerment":"","coordinates":[-61.5355841,16.2373033]},{"NomBarreau":"GUADELOUPE, SAINT MARTIN, SAINT BARTHELEMY","avNom":"PIERRE-LOUIS","avPrenom":"Nancy","cbRaisonSociale":"PIERRE-LOUIS NANCY","cbSiretSiren":"799944814","cbAdresse1":"04 Quai Foulon","cbAdresse2":"","cbCp":"97110","cbVille":"POINTE A PITRE","spLibelle1":"","spLibelle2":"","acDateSerment":"","coordinates":[-61.5385599,16.2368163]},{"NomBarreau":"GUADELOUPE, SAINT MARTIN, SAINT BARTHELEMY","avNom":"PLAGNOL","avPrenom":"Clémentine","cbRaisonSociale":"PLAGNOL CLEMENTINE","cbSiretSiren":"829041086","cbAdresse1":"1 Rue Champy","cbAdresse2":"3ème étage","cbCp":"97110","cbVille":"POINTE A PITRE","spLibelle1":"","spLibelle2":"","acDateSerment":"","coordinates":[-61.5378397,16.2365059]},{"NomBarreau":"GUADELOUPE, SAINT MARTIN, SAINT BARTHELEMY","avNom":"RELUT","avPrenom":"Simon","cbRaisonSociale":"RELUT SIMON","cbSiretSiren":"532760626","cbAdresse1":"130 Rue Schoelcher","cbAdresse2":"","cbCp":"97110","cbVille":"POINTE A PITRE","spLibelle1":"","spLibelle2":"","acDateSerment":"","coordinates":[-61.535987,16.2407282]},{"NomBarreau":"GUADELOUPE, SAINT MARTIN, SAINT BARTHELEMY","avNom":"RIZED","avPrenom":"Malika","cbRaisonSociale":"RIZED MALIKA","cbSiretSiren":"799796107","cbAdresse1":"117 RUE FREBAULT","cbAdresse2":"","cbCp":"97110","cbVille":"POINTE A PITRE","spLibelle1":"","spLibelle2":"","acDateSerment":"","coordinates":[-61.5353458,16.2403945]},{"NomBarreau":"GUADELOUPE, SAINT MARTIN, SAINT BARTHELEMY","avNom":"RONOT","avPrenom":"Jessica","cbRaisonSociale":"RONOT JESSICA","cbSiretSiren":"809069719","cbAdresse1":"3 QUAI FERDINAND DE LESSEPS","cbAdresse2":"ET 2 RUE FREBAULT","cbCp":"97110","cbVille":"POINTE A PITRE","spLibelle1":"","spLibelle2":"","acDateSerment":"","coordinates":[-61.5379636,16.2359191]},{"NomBarreau":"GUADELOUPE, SAINT MARTIN, SAINT BARTHELEMY","avNom":"SAINT-ETIENNE","avPrenom":"Lorinza","cbRaisonSociale":"NICOLAS & DUBOIS","cbSiretSiren":"751900200","cbAdresse1":"22 Faubourg Victor HUGO","cbAdresse2":"","cbCp":"97110","cbVille":"POINTE A PITRE","spLibelle1":"","spLibelle2":"","acDateSerment":"","coordinates":[-61.5302374,16.2359224]},{"NomBarreau":"GUADELOUPE, SAINT MARTIN, SAINT BARTHELEMY","avNom":"SZWARCBART-HUBERT","avPrenom":"Estelle","cbRaisonSociale":"MORTON ET ASSOCIES AVOCATS","cbSiretSiren":"","cbAdresse1":"30 RUE DELGRES","cbAdresse2":"","cbCp":"97110","cbVille":"POINTE A PITRE","spLibelle1":"","spLibelle2":"","acDateSerment":"","coordinates":[-61.536601,16.235853]},{"NomBarreau":"GUADELOUPE, SAINT MARTIN, SAINT BARTHELEMY","avNom":"TANDJIGORA","avPrenom":"Mahamadou","cbRaisonSociale":"TANDJIGORA MAHAMADOU","cbSiretSiren":"490199908","cbAdresse1":"06 Place de l'Eglise","cbAdresse2":"","cbCp":"97110","cbVille":"POINTE A PITRE","spLibelle1":"","spLibelle2":"","acDateSerment":"","coordinates":[-61.534649597262614,16.23844645]},{"NomBarreau":"GUADELOUPE, SAINT MARTIN, SAINT BARTHELEMY","avNom":"TAVERNIER","avPrenom":"Dominique","cbRaisonSociale":"TAVERNIER DOMINIQUE","cbSiretSiren":"788603868","cbAdresse1":"110 rue Schoelcher","cbAdresse2":"","cbCp":"97110","cbVille":"POINTE A PITRE","spLibelle1":"","spLibelle2":"","acDateSerment":"","coordinates":[-61.5362268,16.2398737]},{"NomBarreau":"GUADELOUPE, SAINT MARTIN, SAINT BARTHELEMY","avNom":"WIN BOMPARD","avPrenom":"Myriam","cbRaisonSociale":"WIN BOMPARD MYRIAM","cbSiretSiren":"342419546","cbAdresse1":"27 rue Achille RENE BOISNEUF","cbAdresse2":"2EME ETAGE","cbCp":"97110","cbVille":"POINTE A PITRE","spLibelle1":"Droit commercial, des affaires et de la concurrence","spLibelle2":"","acDateSerment":"","coordinates":[-61.5367371,16.2366518]},{"NomBarreau":"GUADELOUPE, SAINT MARTIN, SAINT BARTHELEMY","avNom":"ZOUZOUA-GALBAS","avPrenom":"Nelly","cbRaisonSociale":"ZOUZOUA NELLY","cbSiretSiren":"793663469","cbAdresse1":"110 rue Schoelcher","cbAdresse2":"","cbCp":"97110","cbVille":"POINTE A PITRE","spLibelle1":"","spLibelle2":"","acDateSerment":"","coordinates":[-61.5362268,16.2398737]}]