[{"NomBarreau":"HAUTS-DE-SEINE","avNom":"AIRAULT-VAQUEZ","avPrenom":"Martine","cbRaisonSociale":"AIRAULT-VAQUEZ MARTINE","cbSiretSiren":"511744302","cbAdresse1":"27 rue Saulnier","cbAdresse2":"","cbCp":"92800","cbVille":"PUTEAUX","spLibelle1":"","spLibelle2":"","acDateSerment":"","coordinates":[2.2402326,48.8814943]},{"NomBarreau":"HAUTS-DE-SEINE","avNom":"CALE","avPrenom":"Paul","cbRaisonSociale":"CALE PAUL","cbSiretSiren":"428526271","cbAdresse1":"66 Boulevard Richard Wallace","cbAdresse2":"","cbCp":"92800","cbVille":"PUTEAUX","spLibelle1":"","spLibelle2":"","acDateSerment":"","coordinates":[2.2375661,48.8810336]},{"NomBarreau":"HAUTS-DE-SEINE","avNom":"CORVEST","avPrenom":"Anne","cbRaisonSociale":"CORVEST ANNE","cbSiretSiren":"411148844","cbAdresse1":"34 Quai de Dion Bouton","cbAdresse2":"","cbCp":"92800","cbVille":"PUTEAUX","spLibelle1":"","spLibelle2":"","acDateSerment":"","coordinates":[2.2456518,48.8818937]},{"NomBarreau":"HAUTS-DE-SEINE","avNom":"DESMOUSSEAUX","avPrenom":"Anne","cbRaisonSociale":"ADMINISTER","cbSiretSiren":"790092829","cbAdresse1":"35 rue Eichenberger","cbAdresse2":"","cbCp":"92800","cbVille":"PUTEAUX","spLibelle1":"","spLibelle2":"","acDateSerment":"","coordinates":[2.2372686,48.8813228]},{"NomBarreau":"HAUTS-DE-SEINE","avNom":"DUCOURT","avPrenom":"Julie","cbRaisonSociale":"DUCOURT JULIE","cbSiretSiren":"802488601","cbAdresse1":"32 rue des Bas Rogers","cbAdresse2":"","cbCp":"92800","cbVille":"PUTEAUX","spLibelle1":"","spLibelle2":"","acDateSerment":"","coordinates":[2.2323996,48.879898]},{"NomBarreau":"HAUTS-DE-SEINE","avNom":"DUGUE","avPrenom":"Florence","cbRaisonSociale":"DUGUE FLORENCE","cbSiretSiren":"791842206","cbAdresse1":"34 Quai de Dion Bouton","cbAdresse2":"","cbCp":"92800","cbVille":"PUTEAUX","spLibelle1":"","spLibelle2":"","acDateSerment":"","coordinates":[2.2456518,48.8818937]},{"NomBarreau":"HAUTS-DE-SEINE","avNom":"GARREAU","avPrenom":"Sandrine","cbRaisonSociale":"GARREAU SANDRINE","cbSiretSiren":"503900839","cbAdresse1":"66 boulevard Richard Wallace","cbAdresse2":"","cbCp":"92800","cbVille":"PUTEAUX","spLibelle1":"","spLibelle2":"","acDateSerment":"","coordinates":[2.2375661,48.8810336]},{"NomBarreau":"HAUTS-DE-SEINE","avNom":"GRANCHON","avPrenom":"Stéphanie","cbRaisonSociale":"GRANCHON STEPHANIE","cbSiretSiren":"441067022","cbAdresse1":"42 rue Victor Hugo","cbAdresse2":"","cbCp":"92800","cbVille":"PUTEAUX","spLibelle1":"","spLibelle2":"","acDateSerment":"","coordinates":[2.2341343,48.8818501]},{"NomBarreau":"HAUTS-DE-SEINE","avNom":"KALAMBAY NDAYA","avPrenom":"Adele","cbRaisonSociale":"KALAMBAY NDAYA ADELE","cbSiretSiren":"791083413","cbAdresse1":"14 rue Anatole France","cbAdresse2":"","cbCp":"92800","cbVille":"PUTEAUX","spLibelle1":"","spLibelle2":"","acDateSerment":"","coordinates":[2.2396109,48.8839183]},{"NomBarreau":"HAUTS-DE-SEINE","avNom":"LACOMBLEZ","avPrenom":"Caroline","cbRaisonSociale":"LACOMBLEZ CAROLINE","cbSiretSiren":"452489909","cbAdresse1":"42 rue Victor Hugo","cbAdresse2":"","cbCp":"92800","cbVille":"PUTEAUX","spLibelle1":"","spLibelle2":"","acDateSerment":"","coordinates":[2.2341343,48.8818501]},{"NomBarreau":"HAUTS-DE-SEINE","avNom":"LESIGNE","avPrenom":"Emma","cbRaisonSociale":"LESIGNE EMMA","cbSiretSiren":"878530625","cbAdresse1":"66 boulevard Richard Wallace","cbAdresse2":"","cbCp":"92800","cbVille":"PUTEAUX","spLibelle1":"","spLibelle2":"","acDateSerment":"","coordinates":[2.2375661,48.8810336]},{"NomBarreau":"HAUTS-DE-SEINE","avNom":"MACHTOU","avPrenom":"Sophie","cbRaisonSociale":"MACHTOU SOPHIE","cbSiretSiren":"404504193","cbAdresse1":"56, rue Eichenberger","cbAdresse2":"","cbCp":"92800","cbVille":"PUTEAUX","spLibelle1":"","spLibelle2":"","acDateSerment":"","coordinates":[2.2388126,48.8823993]},{"NomBarreau":"HAUTS-DE-SEINE","avNom":"MAGNAC","avPrenom":"Grégory","cbRaisonSociale":"MAGNAC GREGORY","cbSiretSiren":"414321968","cbAdresse1":"6, rue Marius Jacotot","cbAdresse2":"","cbCp":"92800","cbVille":"PUTEAUX","spLibelle1":"","spLibelle2":"","acDateSerment":"","coordinates":[2.2401587,48.8831589]},{"NomBarreau":"HAUTS-DE-SEINE","avNom":"NICOLAY","avPrenom":"Paul","cbRaisonSociale":"NICOLAY PAUL","cbSiretSiren":"884712191","cbAdresse1":"59 bis Boulevard Richard Wallace","cbAdresse2":"","cbCp":"92800","cbVille":"PUTEAUX","spLibelle1":"","spLibelle2":"","acDateSerment":"","coordinates":[2.2406422,48.8794854]},{"NomBarreau":"HAUTS-DE-SEINE","avNom":"OUDY","avPrenom":"Karim","cbRaisonSociale":"BEHANZIN-OUDY","cbSiretSiren":"821674496","cbAdresse1":"32 rue des bas Rogers","cbAdresse2":"","cbCp":"92800","cbVille":"PUTEAUX","spLibelle1":"","spLibelle2":"","acDateSerment":"","coordinates":[2.2323996,48.879898]},{"NomBarreau":"HAUTS-DE-SEINE","avNom":"PONTIES","avPrenom":"Amandine","cbRaisonSociale":"PONTIES AMANDINE","cbSiretSiren":"538182940","cbAdresse1":"27 rue Saulnier","cbAdresse2":"","cbCp":"92800","cbVille":"PUTEAUX","spLibelle1":"","spLibelle2":"","acDateSerment":"","coordinates":[2.2402326,48.8814943]},{"NomBarreau":"HAUTS-DE-SEINE","avNom":"QUINN","avPrenom":"Shawn","cbRaisonSociale":"QUINN SHAWN","cbSiretSiren":"","cbAdresse1":"14 rue Anatole France","cbAdresse2":"","cbCp":"92800","cbVille":"PUTEAUX","spLibelle1":"","spLibelle2":"","acDateSerment":"","coordinates":[2.2396109,48.8839183]},{"NomBarreau":"HAUTS-DE-SEINE","avNom":"WISE","avPrenom":"Haywood","cbRaisonSociale":"WISE HAYWOOD","cbSiretSiren":"434543765","cbAdresse1":"59 bis Boulevard Richard Wallace","cbAdresse2":"","cbCp":"92800","cbVille":"PUTEAUX","spLibelle1":"","spLibelle2":"","acDateSerment":"","coordinates":[2.2406422,48.8794854]}]