[{"NomBarreau":"REIMS","avNom":"ACCARRINO-MOUSSY","avPrenom":"Angela","cbRaisonSociale":"ACCARRINO-MOUSSY ANGELA","cbSiretSiren":"835070384","cbAdresse1":"3 rue Gambetta","cbAdresse2":"","cbCp":"51100","cbVille":"REIMS","spLibelle1":"","spLibelle2":"","acDateSerment":"","coordinates":[4.0354636,49.2507596]},{"NomBarreau":"REIMS","avNom":"ALBERTINI","avPrenom":"Xavier","cbRaisonSociale":"ACG","cbSiretSiren":"333997823","cbAdresse1":"16 Rue du Clou dans le Fer","cbAdresse2":"","cbCp":"51100","cbVille":"REIMS","spLibelle1":"","spLibelle2":"","acDateSerment":"","coordinates":[4.0301885,49.2553679]},{"NomBarreau":"REIMS","avNom":"ALEXANDRE","avPrenom":"Claire","cbRaisonSociale":"D.JURIS","cbSiretSiren":"824166037","cbAdresse1":"6 rue de la Renfermerie","cbAdresse2":"","cbCp":"51100","cbVille":"REIMS","spLibelle1":"","spLibelle2":"","acDateSerment":"","coordinates":[4.0299277,49.2581995]},{"NomBarreau":"REIMS","avNom":"ALEXANDRE","avPrenom":"Claire","cbRaisonSociale":"ALEXANDRE CLAIRE","cbSiretSiren":"909812661","cbAdresse1":"16 Rue du Clou dans le Fer","cbAdresse2":"","cbCp":"51100","cbVille":"REIMS","spLibelle1":"","spLibelle2":"","acDateSerment":"","coordinates":[4.0301885,49.2553679]},{"NomBarreau":"REIMS","avNom":"ALTINOK","avPrenom":"Leyla","cbRaisonSociale":"ALTINOK LEYLA","cbSiretSiren":"509905204","cbAdresse1":"31 rue du Docteur Harman","cbAdresse2":"","cbCp":"51100","cbVille":"REIMS","spLibelle1":"","spLibelle2":"","acDateSerment":"","coordinates":[4.0334081,49.2351555]},{"NomBarreau":"REIMS","avNom":"AMMOURA","avPrenom":"Pascal","cbRaisonSociale":"AMMOURA BRAZY","cbSiretSiren":"751911173","cbAdresse1":"6 Rue de la Grue","cbAdresse2":"B.P. 2049","cbCp":"51100","cbVille":"REIMS","spLibelle1":"","spLibelle2":"","acDateSerment":"","coordinates":[4.0355055,49.255211]},{"NomBarreau":"REIMS","avNom":"ANTOINE","avPrenom":"Hervé","cbRaisonSociale":"SOCIETE JURIDIQUE ET FISCALE DE CHAMPAGNE","cbSiretSiren":"335581302","cbAdresse1":"19-21 Rue Denis Papin","cbAdresse2":"","cbCp":"51100","cbVille":"REIMS","spLibelle1":"Droit des sociétés","spLibelle2":"","acDateSerment":"","coordinates":[4.0728142,49.272184]},{"NomBarreau":"REIMS","avNom":"ATMANI","avPrenom":"Farid","cbRaisonSociale":"ATMANI FARID","cbSiretSiren":"847576162","cbAdresse1":"9 Rue des Marmouzets","cbAdresse2":"","cbCp":"51100","cbVille":"REIMS","spLibelle1":"","spLibelle2":"","acDateSerment":"","coordinates":[4.0371477,49.2557337]},{"NomBarreau":"REIMS","avNom":"BARTHELEMY","avPrenom":"Christophe","cbRaisonSociale":"BARTHELEMY CHRISTOPHE","cbSiretSiren":"508854940","cbAdresse1":"7 Rue des Marmouzets","cbAdresse2":"","cbCp":"51100","cbVille":"REIMS","spLibelle1":"","spLibelle2":"","acDateSerment":"","coordinates":[4.0369566,49.2557933]},{"NomBarreau":"REIMS","avNom":"BASSET","avPrenom":"Marine","cbRaisonSociale":"BASSET MARINE","cbSiretSiren":"810242073","cbAdresse1":"9 rue des Marmouzets","cbAdresse2":"","cbCp":"51100","cbVille":"REIMS","spLibelle1":"","spLibelle2":"","acDateSerment":"","coordinates":[4.0371477,49.2557337]},{"NomBarreau":"REIMS","avNom":"BEAUJARD","avPrenom":"Véronique","cbRaisonSociale":"ACG","cbSiretSiren":"333997823","cbAdresse1":"16 Rue du Clou dans le Fer","cbAdresse2":"","cbCp":"51100","cbVille":"REIMS","spLibelle1":"Droit immobilier","spLibelle2":"","acDateSerment":"","coordinates":[4.0301885,49.2553679]},{"NomBarreau":"REIMS","avNom":"BENKOUSSA","avPrenom":"Mourad","cbRaisonSociale":"ACG","cbSiretSiren":"333997823","cbAdresse1":"16 Rue du Clou dans le Fer","cbAdresse2":"","cbCp":"51100","cbVille":"REIMS","spLibelle1":"Droit pénal","spLibelle2":"","acDateSerment":"","coordinates":[4.0301885,49.2553679]},{"NomBarreau":"REIMS","avNom":"BERKANE","avPrenom":"Nedjma","cbRaisonSociale":"BERKANE NEDJMA","cbSiretSiren":"528084981","cbAdresse1":"30 boulevard de la paix","cbAdresse2":"","cbCp":"51100","cbVille":"REIMS","spLibelle1":"","spLibelle2":"","acDateSerment":"","coordinates":[4.0408403,49.2532508]},{"NomBarreau":"REIMS","avNom":"BERNARD","avPrenom":"Brigitte","cbRaisonSociale":"BERNARD BRIGITTE","cbSiretSiren":"403883168","cbAdresse1":"22 rue COURMEAUX","cbAdresse2":"","cbCp":"51100","cbVille":"REIMS","spLibelle1":"","spLibelle2":"","acDateSerment":"","coordinates":[4.0367134,49.2573429]},{"NomBarreau":"REIMS","avNom":"BIBE","avPrenom":"Hélène","cbRaisonSociale":"BIBE HELENE","cbSiretSiren":"882891492","cbAdresse1":"16 Rue du Clou dans le Fer","cbAdresse2":"","cbCp":"51100","cbVille":"REIMS","spLibelle1":"","spLibelle2":"","acDateSerment":"","coordinates":[4.0301885,49.2553679]},{"NomBarreau":"REIMS","avNom":"BILLET-DEROI","avPrenom":"Sophie","cbRaisonSociale":"BILLET-DEROI SOPHIE","cbSiretSiren":"441297348","cbAdresse1":"22 RUE COURMEAUX","cbAdresse2":"","cbCp":"51100","cbVille":"REIMS","spLibelle1":"","spLibelle2":"","acDateSerment":"","coordinates":[4.0367134,49.2573429]},{"NomBarreau":"REIMS","avNom":"BISSON","avPrenom":"Sophie","cbRaisonSociale":"BISSON SOPHIE","cbSiretSiren":"483150512","cbAdresse1":"10 RUE COURMEAUX","cbAdresse2":"","cbCp":"51100","cbVille":"REIMS","spLibelle1":"Droit de la famille, des personnes et de leur patrimoine","spLibelle2":"","acDateSerment":"","coordinates":[4.0355226,49.2568459]},{"NomBarreau":"REIMS","avNom":"BLANCHARD","avPrenom":"Théo","cbRaisonSociale":"BLANCHARD THEO","cbSiretSiren":"898471248","cbAdresse1":"16 Rue du Clou dans le Fer","cbAdresse2":"","cbCp":"51100","cbVille":"REIMS","spLibelle1":"","spLibelle2":"","acDateSerment":"","coordinates":[4.0301885,49.2553679]},{"NomBarreau":"REIMS","avNom":"BOILEAU","avPrenom":"Stéphane","cbRaisonSociale":"BOILEAU AVOCATS-CONSEILS","cbSiretSiren":"834214199","cbAdresse1":"10 Rue Courmeaux","cbAdresse2":"","cbCp":"51100","cbVille":"REIMS","spLibelle1":"","spLibelle2":"","acDateSerment":"","coordinates":[4.0355226,49.2568459]},{"NomBarreau":"REIMS","avNom":"BOISSY","avPrenom":"Aurore","cbRaisonSociale":"ACG","cbSiretSiren":"333997823","cbAdresse1":"16 Rue du Clou dans le Fer","cbAdresse2":"","cbCp":"51100","cbVille":"REIMS","spLibelle1":"","spLibelle2":"","acDateSerment":"","coordinates":[4.0301885,49.2553679]},{"NomBarreau":"REIMS","avNom":"BONHOMME","avPrenom":"Christophe","cbRaisonSociale":"BONHOMME GOBLET AVOCATS ASSOCI","cbSiretSiren":"519026561","cbAdresse1":"34 Rue des MOULINS","cbAdresse2":"Centre d'Affaires COLBERT","cbCp":"51100","cbVille":"REIMS","spLibelle1":"Droit fiscal et droit douanier","spLibelle2":"","acDateSerment":"","coordinates":[4.0373595,49.2461459]},{"NomBarreau":"REIMS","avNom":"BONNEROT","avPrenom":"Virginie","cbRaisonSociale":"BONNEROT VIRGINIE","cbSiretSiren":"412941221","cbAdresse1":"3 PLACE LEON BOURGEOIS","cbAdresse2":"","cbCp":"51100","cbVille":"REIMS","spLibelle1":"","spLibelle2":"","acDateSerment":"","coordinates":[4.0354664,49.257611]},{"NomBarreau":"REIMS","avNom":"BONY","avPrenom":"Isabelle","cbRaisonSociale":"ANTOINE & BMC ASSOCIES","cbSiretSiren":"883736118","cbAdresse1":"87 Place Drouet D'Erlon","cbAdresse2":"","cbCp":"51100","cbVille":"REIMS","spLibelle1":"Droit de la sécurité sociale et de la protection sociale","spLibelle2":"Droit du travail","acDateSerment":"","coordinates":[4.0259622,49.2566597]},{"NomBarreau":"REIMS","avNom":"BOSCARIOL","avPrenom":"David","cbRaisonSociale":"BOSCARIOL DAVID","cbSiretSiren":"519846612","cbAdresse1":"125 D Rue de Vesle","cbAdresse2":"","cbCp":"51100","cbVille":"REIMS","spLibelle1":"","spLibelle2":"","acDateSerment":"","coordinates":[4.022392,49.2511232]},{"NomBarreau":"REIMS","avNom":"BRANDICOURT","avPrenom":"Delphine","cbRaisonSociale":"BRANDICOURT DELPHINE","cbSiretSiren":"799807029","cbAdresse1":"8 Rue Courmeaux","cbAdresse2":"","cbCp":"51100","cbVille":"REIMS","spLibelle1":"","spLibelle2":"","acDateSerment":"","coordinates":[4.0354392,49.2568162]},{"NomBarreau":"REIMS","avNom":"BRAZY","avPrenom":"Nicolas","cbRaisonSociale":"AMMOURA BRAZY","cbSiretSiren":"751911173","cbAdresse1":"6 Rue de la Grue","cbAdresse2":"B.P. 2049","cbCp":"51100","cbVille":"REIMS","spLibelle1":"","spLibelle2":"","acDateSerment":"","coordinates":[4.0355055,49.255211]},{"NomBarreau":"REIMS","avNom":"BRICOUT","avPrenom":"Cyndie","cbRaisonSociale":"MCMB","cbSiretSiren":"908330160","cbAdresse1":"23 rue du Clou dans le Fer","cbAdresse2":"","cbCp":"51100","cbVille":"REIMS","spLibelle1":"","spLibelle2":"","acDateSerment":"","coordinates":[4.0301715,49.2552674]},{"NomBarreau":"REIMS","avNom":"BRIEZ-PROCUREUR","avPrenom":"Corinne","cbRaisonSociale":"BRIEZ-PROCUREUR CORINNE","cbSiretSiren":"350023792","cbAdresse1":"4-6-8 Rue Pluche","cbAdresse2":"","cbCp":"51100","cbVille":"REIMS","spLibelle1":"","spLibelle2":"","acDateSerment":"","coordinates":[4.0352241,49.2575378]},{"NomBarreau":"REIMS","avNom":"BROCARD","avPrenom":"Emmanuel","cbRaisonSociale":"CABINET D'AVOCATS DE MAITRE EMMANUEL BROCARD","cbSiretSiren":"844748764","cbAdresse1":"4 Rue Chabaud","cbAdresse2":"","cbCp":"51100","cbVille":"REIMS","spLibelle1":"Droit commercial, des affaires et de la concurrence","spLibelle2":"Droit des sociétés","acDateSerment":"","coordinates":[4.025417,49.2516153]},{"NomBarreau":"REIMS","avNom":"BRONQUARD","avPrenom":"Elizabeth","cbRaisonSociale":"BRONQUARD ELIZABETH","cbSiretSiren":"337823561","cbAdresse1":"1 rue Bertin","cbAdresse2":"","cbCp":"51100","cbVille":"REIMS","spLibelle1":"Droit commercial, des affaires et de la concurrence","spLibelle2":"","acDateSerment":"","coordinates":[4.0341174,49.2560051]},{"NomBarreau":"REIMS","avNom":"BRUN","avPrenom":"Philippe","cbRaisonSociale":"BRUN","cbSiretSiren":"509482311","cbAdresse1":"12 Rue du Clou dans le Fer","cbAdresse2":"","cbCp":"51100","cbVille":"REIMS","spLibelle1":"","spLibelle2":"","acDateSerment":"","coordinates":[4.0306226,49.2548087]},{"NomBarreau":"REIMS","avNom":"CALOT","avPrenom":"Steven","cbRaisonSociale":"ACG","cbSiretSiren":"333997823","cbAdresse1":"16 Rue du Clou dans le Fer","cbAdresse2":"","cbCp":"51100","cbVille":"REIMS","spLibelle1":"","spLibelle2":"","acDateSerment":"","coordinates":[4.0301885,49.2553679]},{"NomBarreau":"REIMS","avNom":"CAPELLI","avPrenom":"Nathalie","cbRaisonSociale":"MCMB","cbSiretSiren":"908330160","cbAdresse1":"23 rue du Clou dans le Fer","cbAdresse2":"","cbCp":"51100","cbVille":"REIMS","spLibelle1":"","spLibelle2":"","acDateSerment":"","coordinates":[4.0301715,49.2552674]},{"NomBarreau":"REIMS","avNom":"CASTELLO","avPrenom":"Isabelle","cbRaisonSociale":"DELVINCOURT - CAULIER-RICHARD - CASTELLO AVOCATS ASSOCIES","cbSiretSiren":"322083841","cbAdresse1":"34 Rue des Moulins","cbAdresse2":"Centre d'Affaires Colbert","cbCp":"51100","cbVille":"REIMS","spLibelle1":"","spLibelle2":"","acDateSerment":"","coordinates":[4.0373595,49.2461459]},{"NomBarreau":"REIMS","avNom":"CAULIER-RICHARD","avPrenom":"Mélanie","cbRaisonSociale":"DELVINCOURT - CAULIER-RICHARD - CASTELLO AVOCATS ASSOCIES","cbSiretSiren":"322083841","cbAdresse1":"34 Rue des Moulins","cbAdresse2":"Centre d'Affaires Colbert","cbCp":"51100","cbVille":"REIMS","spLibelle1":"Procédure d'appel","spLibelle2":"","acDateSerment":"","coordinates":[4.0373595,49.2461459]},{"NomBarreau":"REIMS","avNom":"CENS","avPrenom":"Marine","cbRaisonSociale":"CENS MARINE","cbSiretSiren":"800401119","cbAdresse1":"4 Place Aristide Briand","cbAdresse2":"","cbCp":"51100","cbVille":"REIMS","spLibelle1":"","spLibelle2":"","acDateSerment":"","coordinates":[4.0392113,49.2569683]},{"NomBarreau":"REIMS","avNom":"CHALON","avPrenom":"Gérald","cbRaisonSociale":"ACG","cbSiretSiren":"333997823","cbAdresse1":"16 Rue du Clou dans le Fer","cbAdresse2":"","cbCp":"51100","cbVille":"REIMS","spLibelle1":"Droit du travail","spLibelle2":"Droit public","acDateSerment":"","coordinates":[4.0301885,49.2553679]},{"NomBarreau":"REIMS","avNom":"CHALOT","avPrenom":"Olivier","cbRaisonSociale":"CHALOT OLIVIER","cbSiretSiren":"353261100","cbAdresse1":"2 Rue de l'Etape","cbAdresse2":"","cbCp":"51100","cbVille":"REIMS","spLibelle1":"","spLibelle2":"","acDateSerment":"","coordinates":[4.0286151,49.2556376]},{"NomBarreau":"REIMS","avNom":"CHASTE","avPrenom":"Timothée","cbRaisonSociale":"AGN AVOCATS REIMS","cbSiretSiren":"878955384","cbAdresse1":"21 Cours Anatole France","cbAdresse2":"","cbCp":"51100","cbVille":"REIMS","spLibelle1":"","spLibelle2":"","acDateSerment":"","coordinates":[4.0361262,49.2535573]},{"NomBarreau":"REIMS","avNom":"CHAUVEAUX","avPrenom":"Benjamin","cbRaisonSociale":"CHAUVEAUX BENJAMIN","cbSiretSiren":"417651908","cbAdresse1":"2 rue de l'Etape","cbAdresse2":"","cbCp":"51100","cbVille":"REIMS","spLibelle1":"","spLibelle2":"","acDateSerment":"","coordinates":[4.0286151,49.2556376]},{"NomBarreau":"REIMS","avNom":"CHEMLA","avPrenom":"Gérard","cbRaisonSociale":"ACG","cbSiretSiren":"333997823","cbAdresse1":"16 Rue du Clou dans le Fer","cbAdresse2":"","cbCp":"51100","cbVille":"REIMS","spLibelle1":"Droit du travail","spLibelle2":"Droit pénal","acDateSerment":"","coordinates":[4.0301885,49.2553679]},{"NomBarreau":"REIMS","avNom":"CHOFFRUT","avPrenom":"Bruno","cbRaisonSociale":"LE CAB AVOCATS","cbSiretSiren":"444649875","cbAdresse1":"9 Rue des Marmouzets","cbAdresse2":"","cbCp":"51100","cbVille":"REIMS","spLibelle1":"Droit de la famille, des personnes et de leur patrimoine","spLibelle2":"Droit public","acDateSerment":"","coordinates":[4.0371477,49.2557337]},{"NomBarreau":"REIMS","avNom":"CIUTTI","avPrenom":"Matthieu","cbRaisonSociale":"PERSEE","cbSiretSiren":"908673098","cbAdresse1":"4 rue Simon","cbAdresse2":"","cbCp":"51100","cbVille":"REIMS","spLibelle1":"","spLibelle2":"","acDateSerment":"","coordinates":[4.0390477,49.2447896]},{"NomBarreau":"REIMS","avNom":"COEUGNIET","avPrenom":"Julie","cbRaisonSociale":"COEUGNIET JULIE","cbSiretSiren":"790914139","cbAdresse1":"8 Rue Camille Lenoir","cbAdresse2":"","cbCp":"51100","cbVille":"REIMS","spLibelle1":"","spLibelle2":"","acDateSerment":"","coordinates":[4.0391972,49.2585233]},{"NomBarreau":"REIMS","avNom":"COLLIN","avPrenom":"Gilles","cbRaisonSociale":"COLLIN GILLES","cbSiretSiren":"342228244","cbAdresse1":"16 Rue du Clou dans le Fer","cbAdresse2":"","cbCp":"51100","cbVille":"REIMS","spLibelle1":"","spLibelle2":"","acDateSerment":"","coordinates":[4.0301885,49.2553679]},{"NomBarreau":"REIMS","avNom":"COLSON","avPrenom":"Edouard","cbRaisonSociale":"GUYOT - DE CAMPOS","cbSiretSiren":"479918690","cbAdresse1":"4 rue Thiers","cbAdresse2":"","cbCp":"51100","cbVille":"REIMS","spLibelle1":"","spLibelle2":"","acDateSerment":"","coordinates":[4.0307671,49.2578945]},{"NomBarreau":"REIMS","avNom":"CORDIER-DUMETZ","avPrenom":"Christine","cbRaisonSociale":"CORDIER-DUMETZ CHRISTINE","cbSiretSiren":"429160419","cbAdresse1":"6 Boulevard de la Paix","cbAdresse2":"","cbCp":"51100","cbVille":"REIMS","spLibelle1":"","spLibelle2":"","acDateSerment":"","coordinates":[4.0394588,49.256209]},{"NomBarreau":"REIMS","avNom":"COUCHOU-MEILLOT","avPrenom":"Delphine","cbRaisonSociale":"COUCHOU-MEILLOT DELPHINE","cbSiretSiren":"418671046","cbAdresse1":"10 rue Courmeaux","cbAdresse2":"","cbCp":"51100","cbVille":"REIMS","spLibelle1":"","spLibelle2":"","acDateSerment":"","coordinates":[4.0355226,49.2568459]},{"NomBarreau":"REIMS","avNom":"COUTANT","avPrenom":"Julie","cbRaisonSociale":"COUTANT JULIE","cbSiretSiren":"451382915","cbAdresse1":"2 Rue de l'Etape","cbAdresse2":"","cbCp":"51100","cbVille":"REIMS","spLibelle1":"","spLibelle2":"","acDateSerment":"","coordinates":[4.0286151,49.2556376]},{"NomBarreau":"REIMS","avNom":"COYAC","avPrenom":"Pauline","cbRaisonSociale":"COYAC PAULINE","cbSiretSiren":"793995747","cbAdresse1":"1 Rue du Clou dans le Fer","cbAdresse2":"","cbCp":"51100","cbVille":"REIMS","spLibelle1":"","spLibelle2":"","acDateSerment":"","coordinates":[4.0307553,49.2544803]},{"NomBarreau":"REIMS","avNom":"CROON","avPrenom":"Raphael","cbRaisonSociale":"SAMMUT CROON JOURNE-LEAU","cbSiretSiren":"382220317","cbAdresse1":"34 rue des Moulins","cbAdresse2":"","cbCp":"51100","cbVille":"REIMS","spLibelle1":"","spLibelle2":"","acDateSerment":"","coordinates":[4.0373595,49.2461459]},{"NomBarreau":"REIMS","avNom":"DA SILVA","avPrenom":"Mickael","cbRaisonSociale":"DA SILVA MICKAEL","cbSiretSiren":"882864416","cbAdresse1":"16 Rue du Clou dans le Fer","cbAdresse2":"","cbCp":"51100","cbVille":"REIMS","spLibelle1":"","spLibelle2":"","acDateSerment":"","coordinates":[4.0301885,49.2553679]},{"NomBarreau":"REIMS","avNom":"D'ANGELO","avPrenom":"Julie","cbRaisonSociale":"D'ANGELO JULIE","cbSiretSiren":"834888604","cbAdresse1":"34 Rue des Moulins","cbAdresse2":"Centre d'Affaires Colbert","cbCp":"51100","cbVille":"REIMS","spLibelle1":"","spLibelle2":"","acDateSerment":"","coordinates":[4.0373595,49.2461459]},{"NomBarreau":"REIMS","avNom":"DANTON-OMRI","avPrenom":"Caroline","cbRaisonSociale":"DANTON-OMRI CAROLINE","cbSiretSiren":"389784877","cbAdresse1":"12 Place du Chapitre","cbAdresse2":"","cbCp":"51100","cbVille":"REIMS","spLibelle1":"","spLibelle2":"","acDateSerment":"","coordinates":[4.0330681,49.2546387]},{"NomBarreau":"REIMS","avNom":"DE CAMPOS","avPrenom":"Carlos","cbRaisonSociale":"GUYOT - DE CAMPOS","cbSiretSiren":"479918690","cbAdresse1":"4 rue Thiers","cbAdresse2":"","cbCp":"51100","cbVille":"REIMS","spLibelle1":"","spLibelle2":"","acDateSerment":"","coordinates":[4.0307671,49.2578945]},{"NomBarreau":"REIMS","avNom":"DECAMPS","avPrenom":"Benoit","cbRaisonSociale":"DECAMPS BENOUŽT","cbSiretSiren":"790367239","cbAdresse1":"16 Rue du Clou dans le Fer","cbAdresse2":"","cbCp":"51100","cbVille":"REIMS","spLibelle1":"","spLibelle2":"","acDateSerment":"","coordinates":[4.0301885,49.2553679]},{"NomBarreau":"REIMS","avNom":"DELACHAMBRE FERRER","avPrenom":"Albane","cbRaisonSociale":"DEVARENNE ASSOCIES GRAND-EST","cbSiretSiren":"448300434","cbAdresse1":"48 Rue Ponsardin","cbAdresse2":"","cbCp":"51100","cbVille":"REIMS","spLibelle1":"","spLibelle2":"","acDateSerment":"","coordinates":[4.0392266,49.2550044]},{"NomBarreau":"REIMS","avNom":"DELANS","avPrenom":"Amal","cbRaisonSociale":"DELANS AMAL","cbSiretSiren":"815302922","cbAdresse1":"16 Rue du Clou dans le Fer","cbAdresse2":"","cbCp":"51100","cbVille":"REIMS","spLibelle1":"","spLibelle2":"","acDateSerment":"","coordinates":[4.0301885,49.2553679]},{"NomBarreau":"REIMS","avNom":"DELIERE-PIETRZAK","avPrenom":"Emilie","cbRaisonSociale":"DELIERE-PIETRZAK EMILIE","cbSiretSiren":"817448137","cbAdresse1":"149/151 AVENUE JEAN JAURES","cbAdresse2":"","cbCp":"51100","cbVille":"REIMS","spLibelle1":"","spLibelle2":"","acDateSerment":"","coordinates":[4.0413579,49.2581509]},{"NomBarreau":"REIMS","avNom":"DELVINCOURT","avPrenom":"Olivier","cbRaisonSociale":"DELVINCOURT - CAULIER-RICHARD - CASTELLO AVOCATS ASSOCIES","cbSiretSiren":"322083841","cbAdresse1":"34 Rue des Moulins","cbAdresse2":"Centre d'Affaires Colbert","cbCp":"51100","cbVille":"REIMS","spLibelle1":"Procédure d'appel","spLibelle2":"","acDateSerment":"","coordinates":[4.0373595,49.2461459]},{"NomBarreau":"REIMS","avNom":"DENIS-VAUCHELIN","avPrenom":"Héloise","cbRaisonSociale":"DENIS-VAUCHELIN HELOASE","cbSiretSiren":"488063504","cbAdresse1":"9 BIS Cours Anatole France","cbAdresse2":"","cbCp":"51100","cbVille":"REIMS","spLibelle1":"","spLibelle2":"","acDateSerment":"","coordinates":[4.0351678,49.2544165]},{"NomBarreau":"REIMS","avNom":"DESGRIPPES","avPrenom":"Catherine","cbRaisonSociale":"DESGRIPPES CATHERINE","cbSiretSiren":"440441236","cbAdresse1":"5 BIS rue des Templiers","cbAdresse2":"","cbCp":"51100","cbVille":"REIMS","spLibelle1":"","spLibelle2":"","acDateSerment":"","coordinates":[4.0375837,49.2589732]},{"NomBarreau":"REIMS","avNom":"DESPAQUIS","avPrenom":"Jean-Marc","cbRaisonSociale":"DESPAQUIS JEAN-MARC","cbSiretSiren":"428867022","cbAdresse1":"6 Boulevard de la Paix","cbAdresse2":"","cbCp":"51100","cbVille":"REIMS","spLibelle1":"","spLibelle2":"","acDateSerment":"","coordinates":[4.0394588,49.256209]},{"NomBarreau":"REIMS","avNom":"DIALLO","avPrenom":"Diégo","cbRaisonSociale":"DIALLO DIEGO","cbSiretSiren":"480743970","cbAdresse1":"2 Rue Carnot","cbAdresse2":"","cbCp":"51100","cbVille":"REIMS","spLibelle1":"","spLibelle2":"","acDateSerment":"","coordinates":[4.033279361688311,49.2553622]},{"NomBarreau":"REIMS","avNom":"DIALLO","avPrenom":"Karoline","cbRaisonSociale":"DIALLO KAROLINE","cbSiretSiren":"488192501","cbAdresse1":"26 Rue des Moulins","cbAdresse2":"","cbCp":"51100","cbVille":"REIMS","spLibelle1":"","spLibelle2":"","acDateSerment":"","coordinates":[4.0379325,49.2463505]},{"NomBarreau":"REIMS","avNom":"DIOT","avPrenom":"Sophie","cbRaisonSociale":"DIOT SOPHIE","cbSiretSiren":"381020346","cbAdresse1":"4 Rue Chabaud","cbAdresse2":"","cbCp":"51100","cbVille":"REIMS","spLibelle1":"","spLibelle2":"","acDateSerment":"","coordinates":[4.025417,49.2516153]},{"NomBarreau":"REIMS","avNom":"DOCQ","avPrenom":"Sébastien","cbRaisonSociale":"DOCQ SEBASTIEN","cbSiretSiren":"893490789","cbAdresse1":"3 rue Max Holste","cbAdresse2":"","cbCp":"51100","cbVille":"REIMS","spLibelle1":"","spLibelle2":"","acDateSerment":"","coordinates":[4.0615959,49.2379048]},{"NomBarreau":"REIMS","avNom":"DOUE-VEYRIER","avPrenom":"Laurence","cbRaisonSociale":"DOUE-VEYRIER LAURENCE","cbSiretSiren":"395077852","cbAdresse1":"3 BIS rue Warnier","cbAdresse2":"","cbCp":"51100","cbVille":"REIMS","spLibelle1":"","spLibelle2":"","acDateSerment":"","coordinates":[4.0392623,49.2580599]},{"NomBarreau":"REIMS","avNom":"DROUOT","avPrenom":"François","cbRaisonSociale":"OCTAV","cbSiretSiren":"493863039","cbAdresse1":"8 Rue Camille Lenoir","cbAdresse2":"","cbCp":"51100","cbVille":"REIMS","spLibelle1":"","spLibelle2":"","acDateSerment":"","coordinates":[4.0391972,49.2585233]},{"NomBarreau":"REIMS","avNom":"DUGUIT","avPrenom":"Foucauld","cbRaisonSociale":"DUGUIT & ASSOCIES","cbSiretSiren":"792511263","cbAdresse1":"40 Rue Buirette","cbAdresse2":"","cbCp":"51100","cbVille":"REIMS","spLibelle1":"","spLibelle2":"","acDateSerment":"","coordinates":[4.0247353,49.2543703]},{"NomBarreau":"REIMS","avNom":"DUMONT","avPrenom":"Maylis","cbRaisonSociale":"C. POUGEOISE-M. DUMONT-C.BIA","cbSiretSiren":"384044004","cbAdresse1":"23 Rue Ponsardin","cbAdresse2":"","cbCp":"51100","cbVille":"REIMS","spLibelle1":"","spLibelle2":"","acDateSerment":"","coordinates":[4.0395336,49.2545731]},{"NomBarreau":"REIMS","avNom":"DUPONT","avPrenom":"Charlotte","cbRaisonSociale":"BOILEAU AVOCATS-CONSEILS","cbSiretSiren":"834214199","cbAdresse1":"10 Rue Courmeaux","cbAdresse2":"","cbCp":"51100","cbVille":"REIMS","spLibelle1":"","spLibelle2":"","acDateSerment":"","coordinates":[4.0355226,49.2568459]},{"NomBarreau":"REIMS","avNom":"EVRARD","avPrenom":"Carole","cbRaisonSociale":"EVRARD CAROLE","cbSiretSiren":"505045377","cbAdresse1":"125 D Rue de Vesle","cbAdresse2":"","cbCp":"51100","cbVille":"REIMS","spLibelle1":"","spLibelle2":"","acDateSerment":"","coordinates":[4.022392,49.2511232]},{"NomBarreau":"REIMS","avNom":"FABRY","avPrenom":"Hugo","cbRaisonSociale":"FABRY HUGO","cbSiretSiren":"880215777","cbAdresse1":"16 Rue du Clou dans le Fer","cbAdresse2":"","cbCp":"51100","cbVille":"REIMS","spLibelle1":"","spLibelle2":"","acDateSerment":"","coordinates":[4.0301885,49.2553679]},{"NomBarreau":"REIMS","avNom":"FALLET","avPrenom":"Estelle","cbRaisonSociale":"FWF ASSOCIES","cbSiretSiren":"808014575","cbAdresse1":"2 Place ROYALE","cbAdresse2":"","cbCp":"51100","cbVille":"REIMS","spLibelle1":"","spLibelle2":"","acDateSerment":"","coordinates":[4.033858,49.2555792]},{"NomBarreau":"REIMS","avNom":"FAUTRES","avPrenom":"Damien","cbRaisonSociale":"FAUTRES DAMIEN","cbSiretSiren":"893649103","cbAdresse1":"43 Rue Libergier","cbAdresse2":"","cbCp":"51100","cbVille":"REIMS","spLibelle1":"","spLibelle2":"","acDateSerment":"","coordinates":[4.0286962,49.2516658]},{"NomBarreau":"REIMS","avNom":"FISCHBACH-RENY","avPrenom":"Françoise","cbRaisonSociale":"LORETTE ET ASSOCIES","cbSiretSiren":"380223271","cbAdresse1":"34 Rue des Moulins","cbAdresse2":"","cbCp":"51100","cbVille":"REIMS","spLibelle1":"Droit fiscal et droit douanier","spLibelle2":"","acDateSerment":"","coordinates":[4.0373595,49.2461459]},{"NomBarreau":"REIMS","avNom":"FOSSIER","avPrenom":"Francis","cbRaisonSociale":"FOSSIER NOURDIN","cbSiretSiren":"819516998","cbAdresse1":"43 Rue Libergier","cbAdresse2":"","cbCp":"51100","cbVille":"REIMS","spLibelle1":"Droit commercial, des affaires et de la concurrence","spLibelle2":"Droit pénal","acDateSerment":"","coordinates":[4.0286962,49.2516658]},{"NomBarreau":"REIMS","avNom":"FOSSIER-VOGT","avPrenom":"Chéryl","cbRaisonSociale":"FOSSIER NOURDIN","cbSiretSiren":"819516998","cbAdresse1":"43 Rue Libergier","cbAdresse2":"","cbCp":"51100","cbVille":"REIMS","spLibelle1":"","spLibelle2":"","acDateSerment":"","coordinates":[4.0286962,49.2516658]},{"NomBarreau":"REIMS","avNom":"FOULEY","avPrenom":"Juline","cbRaisonSociale":"FOULEY JULINE","cbSiretSiren":"909812620","cbAdresse1":"16 Rue du Clou dans le Fer","cbAdresse2":"","cbCp":"51100","cbVille":"REIMS","spLibelle1":"","spLibelle2":"","acDateSerment":"","coordinates":[4.0301885,49.2553679]},{"NomBarreau":"REIMS","avNom":"FOURTINES ROCHET","avPrenom":"Perrine","cbRaisonSociale":"ACG","cbSiretSiren":"333997823","cbAdresse1":"16 Rue du Clou dans le Fer","cbAdresse2":"","cbCp":"51100","cbVille":"REIMS","spLibelle1":"","spLibelle2":"","acDateSerment":"","coordinates":[4.0301885,49.2553679]},{"NomBarreau":"REIMS","avNom":"FROUGE","avPrenom":"Daniel","cbRaisonSociale":"FROUGE DANIEL","cbSiretSiren":"835104183","cbAdresse1":"16 Rue du Clou dans le Fer","cbAdresse2":"","cbCp":"51100","cbVille":"REIMS","spLibelle1":"","spLibelle2":"","acDateSerment":"","coordinates":[4.0301885,49.2553679]},{"NomBarreau":"REIMS","avNom":"GALLAND","avPrenom":"Aude","cbRaisonSociale":"ACG","cbSiretSiren":"333997823","cbAdresse1":"16 Rue du Clou dans le Fer","cbAdresse2":"","cbCp":"51100","cbVille":"REIMS","spLibelle1":"","spLibelle2":"","acDateSerment":"","coordinates":[4.0301885,49.2553679]},{"NomBarreau":"REIMS","avNom":"GATTOUFI","avPrenom":"Sami","cbRaisonSociale":"SG AVOCATS CONSEIL","cbSiretSiren":"533905691","cbAdresse1":"16 Rue des Elus","cbAdresse2":"","cbCp":"51100","cbVille":"REIMS","spLibelle1":"Droit du travail","spLibelle2":"","acDateSerment":"","coordinates":[4.0303665,49.2550909]},{"NomBarreau":"REIMS","avNom":"GAYET","avPrenom":"Marie-Charlotte","cbRaisonSociale":"DUGUIT & ASSOCIES","cbSiretSiren":"792511263","cbAdresse1":"40 Rue Buirette","cbAdresse2":"","cbCp":"51100","cbVille":"REIMS","spLibelle1":"","spLibelle2":"","acDateSerment":"","coordinates":[4.0247353,49.2543703]},{"NomBarreau":"REIMS","avNom":"GENIN-LAHMAR","avPrenom":"Sandrine","cbRaisonSociale":"GENIN-LAHMAR SANDRINE","cbSiretSiren":"531394948","cbAdresse1":"10 Rue Bonhomme","cbAdresse2":"","cbCp":"51100","cbVille":"REIMS","spLibelle1":"","spLibelle2":"","acDateSerment":"","coordinates":[4.0361918,49.2567828]},{"NomBarreau":"REIMS","avNom":"GERVAIS","avPrenom":"Arnaud","cbRaisonSociale":"GERVAIS ARNAUD","cbSiretSiren":"410869713","cbAdresse1":"34 Rue des Moulins","cbAdresse2":"Centre d'Affaires Colbert","cbCp":"51100","cbVille":"REIMS","spLibelle1":"","spLibelle2":"","acDateSerment":"","coordinates":[4.0373595,49.2461459]},{"NomBarreau":"REIMS","avNom":"GIBAUD","avPrenom":"Frédérique","cbRaisonSociale":"GIBAUD FREDERIQUE","cbSiretSiren":"440447167","cbAdresse1":"38 Rue Ponsardin","cbAdresse2":"","cbCp":"51100","cbVille":"REIMS","spLibelle1":"","spLibelle2":"","acDateSerment":"","coordinates":[4.0390708,49.2554617]},{"NomBarreau":"REIMS","avNom":"GINER","avPrenom":"Manon","cbRaisonSociale":"GINER MANON","cbSiretSiren":"911600070","cbAdresse1":"6 Rue de la Grue","cbAdresse2":"B.P. 2049","cbCp":"51100","cbVille":"REIMS","spLibelle1":"","spLibelle2":"","acDateSerment":"","coordinates":[4.0355055,49.255211]},{"NomBarreau":"REIMS","avNom":"GINESTRA","avPrenom":"Antoine","cbRaisonSociale":"GINESTRA ANTOINE","cbSiretSiren":"404200768","cbAdresse1":"49 Rue de Chativesle","cbAdresse2":"","cbCp":"51100","cbVille":"REIMS","spLibelle1":"","spLibelle2":"","acDateSerment":"","coordinates":[4.0236148,49.2549759]},{"NomBarreau":"REIMS","avNom":"GIRAL-FLAYELLE","avPrenom":"Clémence","cbRaisonSociale":"GIRAL-FLAYELLE CLEMENCE","cbSiretSiren":"791636699","cbAdresse1":"22 RUE COURMEAUX","cbAdresse2":"","cbCp":"51100","cbVille":"REIMS","spLibelle1":"","spLibelle2":"","acDateSerment":"","coordinates":[4.0367134,49.2573429]},{"NomBarreau":"REIMS","avNom":"GOBILLARD-COLIN","avPrenom":"Valérie","cbRaisonSociale":"EFFIS","cbSiretSiren":"801091919","cbAdresse1":"5 Boulevard Foch","cbAdresse2":"","cbCp":"51100","cbVille":"REIMS","spLibelle1":"","spLibelle2":"","acDateSerment":"","coordinates":[4.029326,49.2598956]},{"NomBarreau":"REIMS","avNom":"GOBLET","avPrenom":"Anne-Lise","cbRaisonSociale":"GP AVOCATS ASSOCIES","cbSiretSiren":"839056355","cbAdresse1":"26 Rue des Moulins","cbAdresse2":"","cbCp":"51100","cbVille":"REIMS","spLibelle1":"","spLibelle2":"","acDateSerment":"","coordinates":[4.0379325,49.2463505]},{"NomBarreau":"REIMS","avNom":"GOBLET","avPrenom":"Philippe","cbRaisonSociale":"GP AVOCATS ASSOCIES","cbSiretSiren":"839056355","cbAdresse1":"26 Rue des Moulins","cbAdresse2":"","cbCp":"51100","cbVille":"REIMS","spLibelle1":"Droit de la sécurité sociale et de la protection sociale","spLibelle2":"Droit du travail","acDateSerment":"","coordinates":[4.0379325,49.2463505]},{"NomBarreau":"REIMS","avNom":"GROSDEMANGE","avPrenom":"Pascal","cbRaisonSociale":"G.R.M.A.","cbSiretSiren":"751612813","cbAdresse1":"34 Rue des Moulins","cbAdresse2":"centre d'Affaires Colbert","cbCp":"51100","cbVille":"REIMS","spLibelle1":"","spLibelle2":"","acDateSerment":"","coordinates":[4.0373595,49.2461459]},{"NomBarreau":"REIMS","avNom":"GUERARD","avPrenom":"Damien","cbRaisonSociale":"GUERARD DAMIEN","cbSiretSiren":"439714775","cbAdresse1":"39 Rue de Talleyrand","cbAdresse2":"","cbCp":"51100","cbVille":"REIMS","spLibelle1":"","spLibelle2":"","acDateSerment":"","coordinates":[4.0284304,49.2562703]},{"NomBarreau":"REIMS","avNom":"GUILLANEUX","avPrenom":"Edith","cbRaisonSociale":"GUILLANEUX EDITH","cbSiretSiren":"381513514","cbAdresse1":"31 AVENUE JEAN JAURES","cbAdresse2":"","cbCp":"51100","cbVille":"REIMS","spLibelle1":"","spLibelle2":"","acDateSerment":"","coordinates":[4.0412811,49.2582088]},{"NomBarreau":"REIMS","avNom":"GUILLAUME","avPrenom":"Pascal","cbRaisonSociale":"GUILLAUME PASCAL","cbSiretSiren":"338109804","cbAdresse1":"4 Place Aristide Briand","cbAdresse2":"","cbCp":"51100","cbVille":"REIMS","spLibelle1":"Procédure d'appel","spLibelle2":"","acDateSerment":"","coordinates":[4.0392113,49.2569683]},{"NomBarreau":"REIMS","avNom":"GUILLAUMET-DECORNE","avPrenom":"Isabelle","cbRaisonSociale":"OPTHEMIS","cbSiretSiren":"842949687","cbAdresse1":"5 rue des Murs","cbAdresse2":"","cbCp":"51100","cbVille":"REIMS","spLibelle1":"","spLibelle2":"","acDateSerment":"","coordinates":[4.0391181,49.2519697]},{"NomBarreau":"REIMS","avNom":"GUINOISEAU","avPrenom":"Justine","cbRaisonSociale":"LORETTE ET ASSOCIES","cbSiretSiren":"380223271","cbAdresse1":"34 Rue des Moulins","cbAdresse2":"","cbCp":"51100","cbVille":"REIMS","spLibelle1":"","spLibelle2":"","acDateSerment":"","coordinates":[4.0373595,49.2461459]},{"NomBarreau":"REIMS","avNom":"GUYOT","avPrenom":"Christophe","cbRaisonSociale":"GUYOT - DE CAMPOS","cbSiretSiren":"479918690","cbAdresse1":"4 rue Thiers","cbAdresse2":"","cbCp":"51100","cbVille":"REIMS","spLibelle1":"","spLibelle2":"","acDateSerment":"","coordinates":[4.0307671,49.2578945]},{"NomBarreau":"REIMS","avNom":"HAMI-ZNATI","avPrenom":"Nawel","cbRaisonSociale":"HAMI-ZNATI NAWEL","cbSiretSiren":"790656953","cbAdresse1":"1 Rue du Clou dans le Fer","cbAdresse2":"","cbCp":"51100","cbVille":"REIMS","spLibelle1":"","spLibelle2":"","acDateSerment":"","coordinates":[4.0307553,49.2544803]},{"NomBarreau":"REIMS","avNom":"HANNECART","avPrenom":"Margaux","cbRaisonSociale":"DUGUIT & ASSOCIES","cbSiretSiren":"792511263","cbAdresse1":"40 Rue Buirette","cbAdresse2":"","cbCp":"51100","cbVille":"REIMS","spLibelle1":"","spLibelle2":"","acDateSerment":"","coordinates":[4.0247353,49.2543703]},{"NomBarreau":"REIMS","avNom":"HARANT","avPrenom":"Sandy","cbRaisonSociale":"HARANT SANDY","cbSiretSiren":"519626337","cbAdresse1":"26 rue des Moulins","cbAdresse2":"","cbCp":"51100","cbVille":"REIMS","spLibelle1":"","spLibelle2":"","acDateSerment":"","coordinates":[4.0379325,49.2463505]},{"NomBarreau":"REIMS","avNom":"HAUSMANN","avPrenom":"Nathalie","cbRaisonSociale":"ACG","cbSiretSiren":"333997823","cbAdresse1":"16 Rue du Clou dans le Fer","cbAdresse2":"","cbCp":"51100","cbVille":"REIMS","spLibelle1":"","spLibelle2":"","acDateSerment":"","coordinates":[4.0301885,49.2553679]},{"NomBarreau":"REIMS","avNom":"HONORE","avPrenom":"Lysiane","cbRaisonSociale":"HONORE LYSIANE","cbSiretSiren":"328087051","cbAdresse1":"3 BIS rue Warnier","cbAdresse2":"","cbCp":"51100","cbVille":"REIMS","spLibelle1":"Droit de la famille, des personnes et de leur patrimoine","spLibelle2":"","acDateSerment":"","coordinates":[4.0392623,49.2580599]},{"NomBarreau":"REIMS","avNom":"HUœBSCH","avPrenom":"Nicolas","cbRaisonSociale":"HBS","cbSiretSiren":"894615442","cbAdresse1":"27 rue Ponsardin","cbAdresse2":"","cbCp":"51100","cbVille":"REIMS","spLibelle1":"","spLibelle2":"","acDateSerment":"","coordinates":[4.0396811,49.2541276]},{"NomBarreau":"REIMS","avNom":"JEAN-BAPTISTE","avPrenom":"Fabienne","cbRaisonSociale":"JEAN-BAPTISTE FABIENNE","cbSiretSiren":"398433433","cbAdresse1":"7 rue des Marmouzets","cbAdresse2":"","cbCp":"51100","cbVille":"REIMS","spLibelle1":"","spLibelle2":"","acDateSerment":"","coordinates":[4.0369566,49.2557933]},{"NomBarreau":"REIMS","avNom":"JOCHUM","avPrenom":"Damien","cbRaisonSociale":"RAFFIN ASSOCIES","cbSiretSiren":"808670632","cbAdresse1":"35 Rue Buirette","cbAdresse2":"","cbCp":"51100","cbVille":"REIMS","spLibelle1":"","spLibelle2":"","acDateSerment":"","coordinates":[4.024861138072595,49.25390785]},{"NomBarreau":"REIMS","avNom":"KOLMER-IENNY","avPrenom":"Stéphanie","cbRaisonSociale":"MELKOR","cbSiretSiren":"834128142","cbAdresse1":"4 Rue Rockefeller","cbAdresse2":"","cbCp":"51100","cbVille":"REIMS","spLibelle1":"","spLibelle2":"","acDateSerment":"","coordinates":[4.0316755,49.253078]},{"NomBarreau":"REIMS","avNom":"LABCIR","avPrenom":"Sabah","cbRaisonSociale":"LABCIR SABAH","cbSiretSiren":"529596090","cbAdresse1":"2 Place ROYALE","cbAdresse2":"","cbCp":"51100","cbVille":"REIMS","spLibelle1":"","spLibelle2":"","acDateSerment":"","coordinates":[4.033858,49.2555792]},{"NomBarreau":"REIMS","avNom":"LABEAU-BETTINGER","avPrenom":"Béatrice","cbRaisonSociale":"LABEAU-BETTINGER BEATRICE","cbSiretSiren":"345098230","cbAdresse1":"9 Cours Anatole France","cbAdresse2":"","cbCp":"51100","cbVille":"REIMS","spLibelle1":"","spLibelle2":"","acDateSerment":"","coordinates":[4.0357297,49.2540013]},{"NomBarreau":"REIMS","avNom":"LAITHIER","avPrenom":"Lydie","cbRaisonSociale":"LAITHIER LYDIE","cbSiretSiren":"412217986","cbAdresse1":"49 Rue de Chativesle","cbAdresse2":"","cbCp":"51100","cbVille":"REIMS","spLibelle1":"","spLibelle2":"","acDateSerment":"","coordinates":[4.0236148,49.2549759]},{"NomBarreau":"REIMS","avNom":"LAMOTTE","avPrenom":"Marie-Clothilde","cbRaisonSociale":"LAMOTTE MARIE-CLOTHILDE","cbSiretSiren":"841580400","cbAdresse1":"4 RUE TRUDAINE","cbAdresse2":"","cbCp":"51100","cbVille":"REIMS","spLibelle1":"","spLibelle2":"","acDateSerment":"","coordinates":[4.0334411,49.255732]},{"NomBarreau":"REIMS","avNom":"LE FLOHIC","avPrenom":"Anne-Laure","cbRaisonSociale":"OPTHEMIS","cbSiretSiren":"842949687","cbAdresse1":"5 rue des Murs","cbAdresse2":"","cbCp":"51100","cbVille":"REIMS","spLibelle1":"","spLibelle2":"","acDateSerment":"","coordinates":[4.0391181,49.2519697]},{"NomBarreau":"REIMS","avNom":"LEGRAS","avPrenom":"Delphine","cbRaisonSociale":"D. LEGRAS","cbSiretSiren":"422786822","cbAdresse1":"4 Rue Pluche","cbAdresse2":"","cbCp":"51100","cbVille":"REIMS","spLibelle1":"","spLibelle2":"","acDateSerment":"","coordinates":[4.0347248,49.2572176]},{"NomBarreau":"REIMS","avNom":"LEHMANN","avPrenom":"Vanessa","cbRaisonSociale":"ACG","cbSiretSiren":"333997823","cbAdresse1":"16 Rue du Clou dans le Fer","cbAdresse2":"","cbCp":"51100","cbVille":"REIMS","spLibelle1":"","spLibelle2":"","acDateSerment":"","coordinates":[4.0301885,49.2553679]},{"NomBarreau":"REIMS","avNom":"LHERBIER","avPrenom":"Jean-Etienne","cbRaisonSociale":"LHERBIER JEAN-ETIENNE","cbSiretSiren":"327148243","cbAdresse1":"40 rue Buirette","cbAdresse2":"","cbCp":"51100","cbVille":"REIMS","spLibelle1":"","spLibelle2":"","acDateSerment":"","coordinates":[4.0247353,49.2543703]},{"NomBarreau":"REIMS","avNom":"LUDOT","avPrenom":"Claire","cbRaisonSociale":"LUDOT CLAIRE","cbSiretSiren":"847593597","cbAdresse1":"27 Boulevard Foch","cbAdresse2":"","cbCp":"51100","cbVille":"REIMS","spLibelle1":"","spLibelle2":"","acDateSerment":"","coordinates":[4.0281201,49.2589384]},{"NomBarreau":"REIMS","avNom":"LUDOT","avPrenom":"Emmanuel","cbRaisonSociale":"LUDOT EMMANUEL","cbSiretSiren":"327148169","cbAdresse1":"27 Boulevard Foch","cbAdresse2":"","cbCp":"51100","cbVille":"REIMS","spLibelle1":"","spLibelle2":"","acDateSerment":"","coordinates":[4.0281201,49.2589384]},{"NomBarreau":"REIMS","avNom":"MAAZ","avPrenom":"Isma","cbRaisonSociale":"MAAZ ISMA","cbSiretSiren":"892086943","cbAdresse1":"34 Rue des Moulins","cbAdresse2":"Centre d'Affaires Colbert","cbCp":"51100","cbVille":"REIMS","spLibelle1":"","spLibelle2":"","acDateSerment":"","coordinates":[4.0373595,49.2461459]},{"NomBarreau":"REIMS","avNom":"MAINNEVRET","avPrenom":"Romain","cbRaisonSociale":"MAINNEVRET-MALBLANC","cbSiretSiren":"882935984","cbAdresse1":"9-11 Rue Gaston BOYER","cbAdresse2":"","cbCp":"51100","cbVille":"REIMS","spLibelle1":"","spLibelle2":"","acDateSerment":"","coordinates":[4.0223042,49.2603476]},{"NomBarreau":"REIMS","avNom":"MAZIER","avPrenom":"Aude","cbRaisonSociale":"HBS","cbSiretSiren":"894615442","cbAdresse1":"27 rue Ponsardin","cbAdresse2":"","cbCp":"51100","cbVille":"REIMS","spLibelle1":"","spLibelle2":"","acDateSerment":"","coordinates":[4.0396811,49.2541276]},{"NomBarreau":"REIMS","avNom":"MECHERI","avPrenom":"Justine","cbRaisonSociale":"MECHERI JUSTINE","cbSiretSiren":"825366958","cbAdresse1":"27 rue Ponsardin","cbAdresse2":"","cbCp":"51100","cbVille":"REIMS","spLibelle1":"","spLibelle2":"","acDateSerment":"","coordinates":[4.0396811,49.2541276]},{"NomBarreau":"REIMS","avNom":"METIDJI-TALBI","avPrenom":"Sihem","cbRaisonSociale":"ANTOINE & BMC ASSOCIES","cbSiretSiren":"883736118","cbAdresse1":"87 Place Drouet D'Erlon","cbAdresse2":"","cbCp":"51100","cbVille":"REIMS","spLibelle1":"","spLibelle2":"","acDateSerment":"","coordinates":[4.0259622,49.2566597]},{"NomBarreau":"REIMS","avNom":"MFENJOU","avPrenom":"Nji Modeste Chouaibou","cbRaisonSociale":"MFENJOU NJI MODESTE CHOUAABOU","cbSiretSiren":"451379028","cbAdresse1":"48 Cours Langlet","cbAdresse2":"","cbCp":"51100","cbVille":"REIMS","spLibelle1":"","spLibelle2":"","acDateSerment":"","coordinates":[4.0296063,49.2577373]},{"NomBarreau":"REIMS","avNom":"MICHELET","avPrenom":"Franck","cbRaisonSociale":"MCMB","cbSiretSiren":"908330160","cbAdresse1":"23 rue du Clou dans le Fer","cbAdresse2":"","cbCp":"51100","cbVille":"REIMS","spLibelle1":"","spLibelle2":"","acDateSerment":"","coordinates":[4.0301715,49.2552674]},{"NomBarreau":"REIMS","avNom":"MICHELOT","avPrenom":"Valérie","cbRaisonSociale":"GM & ASSOCIES","cbSiretSiren":"480622448","cbAdresse1":"2 Rue Carnot","cbAdresse2":"","cbCp":"51100","cbVille":"REIMS","spLibelle1":"","spLibelle2":"","acDateSerment":"","coordinates":[4.033279361688311,49.2553622]},{"NomBarreau":"REIMS","avNom":"MILTAT","avPrenom":"Ingrid","cbRaisonSociale":"MILTAT INGRID","cbSiretSiren":"517914073","cbAdresse1":"57 rue Talleyrand","cbAdresse2":"","cbCp":"51100","cbVille":"REIMS","spLibelle1":"","spLibelle2":"","acDateSerment":"","coordinates":[4.0281275,49.2577664]},{"NomBarreau":"REIMS","avNom":"MINI","avPrenom":"Magalie","cbRaisonSociale":"MINI MAGALIE","cbSiretSiren":"478352214","cbAdresse1":"30 boulevard de la paix","cbAdresse2":"","cbCp":"51100","cbVille":"REIMS","spLibelle1":"","spLibelle2":"","acDateSerment":"","coordinates":[4.0408403,49.2532508]},{"NomBarreau":"REIMS","avNom":"MIRAVETE","avPrenom":"Simon","cbRaisonSociale":"MIRAVETE SIMON","cbSiretSiren":"","cbAdresse1":"23 Rue du Clou dans le Fer","cbAdresse2":"","cbCp":"51100","cbVille":"REIMS","spLibelle1":"Droit du dommage corporel","spLibelle2":"Droit pénal","acDateSerment":"","coordinates":[4.0301715,49.2552674]},{"NomBarreau":"REIMS","avNom":"MIRGALET","avPrenom":"Céline","cbRaisonSociale":"LORETTE ET ASSOCIES","cbSiretSiren":"380223271","cbAdresse1":"34 Rue des Moulins","cbAdresse2":"","cbCp":"51100","cbVille":"REIMS","spLibelle1":"","spLibelle2":"","acDateSerment":"","coordinates":[4.0373595,49.2461459]},{"NomBarreau":"REIMS","avNom":"MOINAULT","avPrenom":"Ludiwine","cbRaisonSociale":"MOINAULT LUDIWINE","cbSiretSiren":"530592575","cbAdresse1":"27 C Boulevard de la Paix","cbAdresse2":"","cbCp":"51100","cbVille":"REIMS","spLibelle1":"","spLibelle2":"","acDateSerment":"","coordinates":[4.0396414,49.2565044]},{"NomBarreau":"REIMS","avNom":"MONETA","avPrenom":"Virginie","cbRaisonSociale":"OCTAV","cbSiretSiren":"493863039","cbAdresse1":"8 Rue Camille Lenoir","cbAdresse2":"","cbCp":"51100","cbVille":"REIMS","spLibelle1":"","spLibelle2":"","acDateSerment":"","coordinates":[4.0391972,49.2585233]},{"NomBarreau":"REIMS","avNom":"MONNIER","avPrenom":"Clément","cbRaisonSociale":"MONNIER CLEMENT","cbSiretSiren":"539510172","cbAdresse1":"63 rue Libergier","cbAdresse2":"","cbCp":"51100","cbVille":"REIMS","spLibelle1":"","spLibelle2":"","acDateSerment":"","coordinates":[4.026469,49.2508095]},{"NomBarreau":"REIMS","avNom":"MOREL","avPrenom":"Antoine","cbRaisonSociale":"MOREL-THIBAUT","cbSiretSiren":"481731396","cbAdresse1":"8 bis Boulevard Lundy","cbAdresse2":"","cbCp":"51100","cbVille":"REIMS","spLibelle1":"Droit immobilier","spLibelle2":"","acDateSerment":"","coordinates":[4.0381747,49.2584379]},{"NomBarreau":"REIMS","avNom":"MORETTI","avPrenom":"Marie","cbRaisonSociale":"MORETTI MARIE","cbSiretSiren":"519798268","cbAdresse1":"4 rue Thiers","cbAdresse2":"","cbCp":"51100","cbVille":"REIMS","spLibelle1":"","spLibelle2":"","acDateSerment":"","coordinates":[4.0307671,49.2578945]},{"NomBarreau":"REIMS","avNom":"MOULIN","avPrenom":"Cécile","cbRaisonSociale":"MOULIN CECILE","cbSiretSiren":"892004730","cbAdresse1":"35 Rue Buirette","cbAdresse2":"","cbCp":"51100","cbVille":"REIMS","spLibelle1":"","spLibelle2":"","acDateSerment":"","coordinates":[4.024861138072595,49.25390785]},{"NomBarreau":"REIMS","avNom":"NICOLAS","avPrenom":"Vincent","cbRaisonSociale":"NICOLAS VINCENT","cbSiretSiren":"440537488","cbAdresse1":"2 Rue de l'Etape","cbAdresse2":"","cbCp":"51100","cbVille":"REIMS","spLibelle1":"","spLibelle2":"","acDateSerment":"","coordinates":[4.0286151,49.2556376]},{"NomBarreau":"REIMS","avNom":"NIMAL","avPrenom":"Marine","cbRaisonSociale":"NIMAL MARINE","cbSiretSiren":"790448492","cbAdresse1":"2 Rue Carnot","cbAdresse2":"","cbCp":"51100","cbVille":"REIMS","spLibelle1":"","spLibelle2":"","acDateSerment":"","coordinates":[4.033279361688311,49.2553622]},{"NomBarreau":"REIMS","avNom":"NOIZET","avPrenom":"César","cbRaisonSociale":"NOIZET CESAR","cbSiretSiren":"482825080","cbAdresse1":"27 C Boulevard de la Paix","cbAdresse2":"","cbCp":"51100","cbVille":"REIMS","spLibelle1":"Droit public","spLibelle2":"","acDateSerment":"","coordinates":[4.0396414,49.2565044]},{"NomBarreau":"REIMS","avNom":"NORMAND","avPrenom":"Franck","cbRaisonSociale":"EFC","cbSiretSiren":"487786766","cbAdresse1":"21 rue de Courcelles","cbAdresse2":"","cbCp":"51100","cbVille":"REIMS","spLibelle1":"Droit des sociétés","spLibelle2":"","acDateSerment":"","coordinates":[4.0215611,49.2579125]},{"NomBarreau":"REIMS","avNom":"NOURDIN","avPrenom":"Sara","cbRaisonSociale":"FOSSIER NOURDIN","cbSiretSiren":"819516998","cbAdresse1":"43 Rue Libergier","cbAdresse2":"","cbCp":"51100","cbVille":"REIMS","spLibelle1":"","spLibelle2":"","acDateSerment":"","coordinates":[4.0286962,49.2516658]},{"NomBarreau":"REIMS","avNom":"OLAH","avPrenom":"Sandrine","cbRaisonSociale":"OLAH SANDRINE","cbSiretSiren":"807901657","cbAdresse1":"57 rue Talleyrand","cbAdresse2":"","cbCp":"51100","cbVille":"REIMS","spLibelle1":"","spLibelle2":"","acDateSerment":"","coordinates":[4.0281275,49.2577664]},{"NomBarreau":"REIMS","avNom":"OLIVIER","avPrenom":"Capucine","cbRaisonSociale":"OLIVIER CAPUCINE","cbSiretSiren":"893490771","cbAdresse1":"27 rue Ponsardin","cbAdresse2":"","cbCp":"51100","cbVille":"REIMS","spLibelle1":"","spLibelle2":"","acDateSerment":"","coordinates":[4.0396811,49.2541276]},{"NomBarreau":"REIMS","avNom":"OSSETE OKOYA","avPrenom":"Gilles Carson","cbRaisonSociale":"OSSETE OKOYA GILLES CARSON","cbSiretSiren":"803791797","cbAdresse1":"1 Rue du Clou dans le Fer","cbAdresse2":"","cbCp":"51100","cbVille":"REIMS","spLibelle1":"","spLibelle2":"","acDateSerment":"","coordinates":[4.0307553,49.2544803]},{"NomBarreau":"REIMS","avNom":"PAPIS","avPrenom":"Magali","cbRaisonSociale":"PAPIS MAGALI","cbSiretSiren":"808736532","cbAdresse1":"4-6-8 Rue Pluche","cbAdresse2":"","cbCp":"51100","cbVille":"REIMS","spLibelle1":"","spLibelle2":"","acDateSerment":"","coordinates":[4.0352241,49.2575378]},{"NomBarreau":"REIMS","avNom":"PELLETREAU","avPrenom":"Sylvain","cbRaisonSociale":"RICHELIEU AVOCATS","cbSiretSiren":"504512708","cbAdresse1":"22 RUE COURMEAUX","cbAdresse2":"","cbCp":"51100","cbVille":"REIMS","spLibelle1":"Droit de l'environnement","spLibelle2":"","acDateSerment":"","coordinates":[4.0367134,49.2573429]},{"NomBarreau":"REIMS","avNom":"PENAUD","avPrenom":"Isabelle","cbRaisonSociale":"OCTAV","cbSiretSiren":"493863039","cbAdresse1":"8 Rue Camille Lenoir","cbAdresse2":"","cbCp":"51100","cbVille":"REIMS","spLibelle1":"","spLibelle2":"","acDateSerment":"","coordinates":[4.0391972,49.2585233]},{"NomBarreau":"REIMS","avNom":"PEREZ","avPrenom":"Flore","cbRaisonSociale":"PEREZ FLORE","cbSiretSiren":"808120786","cbAdresse1":"4 rue Pluche","cbAdresse2":"","cbCp":"51100","cbVille":"REIMS","spLibelle1":"","spLibelle2":"","acDateSerment":"","coordinates":[4.0347248,49.2572176]},{"NomBarreau":"REIMS","avNom":"PINCON","avPrenom":"Olivier","cbRaisonSociale":"PINCON OLIVIER","cbSiretSiren":"394577068","cbAdresse1":"4 Rue Rockefeller","cbAdresse2":"","cbCp":"51100","cbVille":"REIMS","spLibelle1":"","spLibelle2":"","acDateSerment":"","coordinates":[4.0316755,49.253078]},{"NomBarreau":"REIMS","avNom":"PLICHARD","avPrenom":"Virginie","cbRaisonSociale":"PLICHARD VIRGINIE","cbSiretSiren":"811595362","cbAdresse1":"108 AVENUE DE LAON","cbAdresse2":"","cbCp":"51100","cbVille":"REIMS","spLibelle1":"","spLibelle2":"","acDateSerment":"","coordinates":[4.0252505,49.2667513]},{"NomBarreau":"REIMS","avNom":"PLONQUET-LAURENCEAU","avPrenom":"Arthur","cbRaisonSociale":"FOSSIER NOURDIN","cbSiretSiren":"819516998","cbAdresse1":"43 Rue Libergier","cbAdresse2":"","cbCp":"51100","cbVille":"REIMS","spLibelle1":"","spLibelle2":"","acDateSerment":"","coordinates":[4.0286962,49.2516658]},{"NomBarreau":"REIMS","avNom":"PONCET","avPrenom":"Philippe","cbRaisonSociale":"PONCET PHILIPPE","cbSiretSiren":"353731870","cbAdresse1":"30 Place du Forum","cbAdresse2":"","cbCp":"51100","cbVille":"REIMS","spLibelle1":"","spLibelle2":"","acDateSerment":"","coordinates":[4.0345497,49.2570317]},{"NomBarreau":"REIMS","avNom":"POTTIER","avPrenom":"Nathalie","cbRaisonSociale":"POTTIER NATHALIE","cbSiretSiren":"488093725","cbAdresse1":"30 Place du Forum","cbAdresse2":"B.P. 2135","cbCp":"51100","cbVille":"REIMS","spLibelle1":"","spLibelle2":"","acDateSerment":"","coordinates":[4.0345497,49.2570317]},{"NomBarreau":"REIMS","avNom":"PREAUX","avPrenom":"Sandrine","cbRaisonSociale":"S.P.R.","cbSiretSiren":"844130757","cbAdresse1":"10 Rue Courmeaux","cbAdresse2":"","cbCp":"51100","cbVille":"REIMS","spLibelle1":"Droit du travail","spLibelle2":"","acDateSerment":"","coordinates":[4.0355226,49.2568459]},{"NomBarreau":"REIMS","avNom":"PREZ","avPrenom":"Xavier","cbRaisonSociale":"PREZ XAVIER","cbSiretSiren":"480744010","cbAdresse1":"7 Rue Thiers","cbAdresse2":"","cbCp":"51100","cbVille":"REIMS","spLibelle1":"","spLibelle2":"","acDateSerment":"","coordinates":[4.0310025,49.2577247]},{"NomBarreau":"REIMS","avNom":"PROTTE","avPrenom":"Jonathan","cbRaisonSociale":"PROTTE JONATHAN","cbSiretSiren":"539840165","cbAdresse1":"5 rue des Murs","cbAdresse2":"","cbCp":"51100","cbVille":"REIMS","spLibelle1":"","spLibelle2":"","acDateSerment":"","coordinates":[4.0391181,49.2519697]},{"NomBarreau":"REIMS","avNom":"PRUDHOMME","avPrenom":"Esther","cbRaisonSociale":"PRUDHOMME ESTHER","cbSiretSiren":"899971469","cbAdresse1":"48 Cours jean-baptiste LANGLET","cbAdresse2":"","cbCp":"51100","cbVille":"REIMS","spLibelle1":"","spLibelle2":"","acDateSerment":"","coordinates":[4.0296063,49.2577373]},{"NomBarreau":"REIMS","avNom":"QUENTIN","avPrenom":"Fanny","cbRaisonSociale":"BQD AVOCATS","cbSiretSiren":"521547091","cbAdresse1":"63 rue Libergier","cbAdresse2":"","cbCp":"51100","cbVille":"REIMS","spLibelle1":"","spLibelle2":"","acDateSerment":"","coordinates":[4.026469,49.2508095]},{"NomBarreau":"REIMS","avNom":"RACE","avPrenom":"Pauline","cbRaisonSociale":"RACE PAULINE","cbSiretSiren":"848207783","cbAdresse1":"4 Rue Chabaud","cbAdresse2":"","cbCp":"51100","cbVille":"REIMS","spLibelle1":"","spLibelle2":"","acDateSerment":"","coordinates":[4.025417,49.2516153]},{"NomBarreau":"REIMS","avNom":"RAFFIN","avPrenom":"Eric","cbRaisonSociale":"RAFFIN ASSOCIES","cbSiretSiren":"808670632","cbAdresse1":"35 Rue Buirette","cbAdresse2":"","cbCp":"51100","cbVille":"REIMS","spLibelle1":"Droit du travail","spLibelle2":"","acDateSerment":"","coordinates":[4.024861138072595,49.25390785]},{"NomBarreau":"REIMS","avNom":"RAFFIN","avPrenom":"Louis-Stanislas","cbRaisonSociale":"RAFFIN ASSOCIES","cbSiretSiren":"808670632","cbAdresse1":"35 Rue Buirette","cbAdresse2":"","cbCp":"51100","cbVille":"REIMS","spLibelle1":"","spLibelle2":"","acDateSerment":"","coordinates":[4.024861138072595,49.25390785]},{"NomBarreau":"REIMS","avNom":"RIOU","avPrenom":"Gwendoline","cbRaisonSociale":"RIOU GWENDOLINE","cbSiretSiren":"817692783","cbAdresse1":"34 RUE DES MOULINS","cbAdresse2":"","cbCp":"51100","cbVille":"REIMS","spLibelle1":"","spLibelle2":"","acDateSerment":"","coordinates":[4.0373595,49.2461459]},{"NomBarreau":"REIMS","avNom":"ROBERT","avPrenom":"Jean-Emmanuel","cbRaisonSociale":"ROBERT JEAN-EMMANUEL","cbSiretSiren":"417999539","cbAdresse1":"10 Rue Courmeaux","cbAdresse2":"","cbCp":"51100","cbVille":"REIMS","spLibelle1":"","spLibelle2":"","acDateSerment":"","coordinates":[4.0355226,49.2568459]},{"NomBarreau":"REIMS","avNom":"ROFFI","avPrenom":"Marie-Hélène","cbRaisonSociale":"M.H. ROFFI JURIS CONSEIL","cbSiretSiren":"383077534","cbAdresse1":"201 Avenue de Laon","cbAdresse2":"","cbCp":"51100","cbVille":"REIMS","spLibelle1":"Droit des sociétés","spLibelle2":"Droit fiscal et droit douanier","acDateSerment":"","coordinates":[4.0225915,49.2694532]},{"NomBarreau":"REIMS","avNom":"ROLLAND","avPrenom":"David","cbRaisonSociale":"CABINET ROLLAND AVOCATS","cbSiretSiren":"538018862","cbAdresse1":"9 Rue des Marmouzets","cbAdresse2":"","cbCp":"51100","cbVille":"REIMS","spLibelle1":"","spLibelle2":"","acDateSerment":"","coordinates":[4.0371477,49.2557337]},{"NomBarreau":"REIMS","avNom":"ROMDANE","avPrenom":"Camille","cbRaisonSociale":"ROMDANE CAMILLE","cbSiretSiren":"825404973","cbAdresse1":"23 Rue du Clou dans le Fer","cbAdresse2":"","cbCp":"51100","cbVille":"REIMS","spLibelle1":"","spLibelle2":"","acDateSerment":"","coordinates":[4.0301715,49.2552674]},{"NomBarreau":"REIMS","avNom":"RONDOT","avPrenom":"Jessica","cbRaisonSociale":"RAFFIN ASSOCIES","cbSiretSiren":"808670632","cbAdresse1":"35 Rue Buirette","cbAdresse2":"","cbCp":"51100","cbVille":"REIMS","spLibelle1":"","spLibelle2":"","acDateSerment":"","coordinates":[4.024861138072595,49.25390785]},{"NomBarreau":"REIMS","avNom":"ROTA-GUALTIERI","avPrenom":"Elisabeth","cbRaisonSociale":"ROTA-GUALTIERI ELISABETH","cbSiretSiren":"421879016","cbAdresse1":"09 rue des Marmouzets","cbAdresse2":"","cbCp":"51100","cbVille":"REIMS","spLibelle1":"","spLibelle2":"","acDateSerment":"","coordinates":[4.0367278,49.2559179]},{"NomBarreau":"REIMS","avNom":"ROUSSELLE","avPrenom":"Bernard","cbRaisonSociale":"ROUSSELLE BERNARD","cbSiretSiren":"337823314","cbAdresse1":"2 Rue de l'Etape","cbAdresse2":"","cbCp":"51100","cbVille":"REIMS","spLibelle1":"","spLibelle2":"","acDateSerment":"","coordinates":[4.0286151,49.2556376]},{"NomBarreau":"REIMS","avNom":"SAUDE","avPrenom":"Alisson","cbRaisonSociale":"SAUDE ALISSON","cbSiretSiren":"","cbAdresse1":"10 Rue Courmeaux","cbAdresse2":"","cbCp":"51100","cbVille":"REIMS","spLibelle1":"","spLibelle2":"","acDateSerment":"","coordinates":[4.0355226,49.2568459]},{"NomBarreau":"REIMS","avNom":"SAUER-BOURGUET","avPrenom":"Christine","cbRaisonSociale":"SAUER-BOURGUET CHRISTINE","cbSiretSiren":"341410223","cbAdresse1":"7 rue des Marmouzets","cbAdresse2":"","cbCp":"51100","cbVille":"REIMS","spLibelle1":"","spLibelle2":"","acDateSerment":"","coordinates":[4.0369566,49.2557933]},{"NomBarreau":"REIMS","avNom":"SELLAMNA","avPrenom":"Amine","cbRaisonSociale":"SELLAMNA AMINE","cbSiretSiren":"800184491","cbAdresse1":"30 rue de Thillois","cbAdresse2":"","cbCp":"51100","cbVille":"REIMS","spLibelle1":"","spLibelle2":"","acDateSerment":"","coordinates":[4.02635,49.2536363]},{"NomBarreau":"REIMS","avNom":"SELLIER","avPrenom":"Emeline","cbRaisonSociale":"AGN AVOCATS REIMS","cbSiretSiren":"878955384","cbAdresse1":"21 Cours Anatole France","cbAdresse2":"","cbCp":"51100","cbVille":"REIMS","spLibelle1":"","spLibelle2":"","acDateSerment":"","coordinates":[4.0361262,49.2535573]},{"NomBarreau":"REIMS","avNom":"SEURAT","avPrenom":"Elodie","cbRaisonSociale":"ACG","cbSiretSiren":"333997823","cbAdresse1":"16 Rue du Clou dans le Fer","cbAdresse2":"","cbCp":"51100","cbVille":"REIMS","spLibelle1":"","spLibelle2":"","acDateSerment":"","coordinates":[4.0301885,49.2553679]},{"NomBarreau":"REIMS","avNom":"SIX","avPrenom":"Florence","cbRaisonSociale":"HERMINE AVOCATS ASSOCIES","cbSiretSiren":"325517183","cbAdresse1":"4 PLACE ARISTIDE BRIAND","cbAdresse2":"","cbCp":"51100","cbVille":"REIMS","spLibelle1":"Procédure d'appel","spLibelle2":"","acDateSerment":"","coordinates":[4.0392113,49.2569683]},{"NomBarreau":"REIMS","avNom":"SUBSTELNY","avPrenom":"Caroline","cbRaisonSociale":"SUBSTELNY","cbSiretSiren":"514813187","cbAdresse1":"19 Boulevard Foch","cbAdresse2":"","cbCp":"51100","cbVille":"REIMS","spLibelle1":"","spLibelle2":"","acDateSerment":"","coordinates":[4.0287749,49.2594636]},{"NomBarreau":"REIMS","avNom":"TELLACHE","avPrenom":"Jacques","cbRaisonSociale":"GUYOT - DE CAMPOS","cbSiretSiren":"479918690","cbAdresse1":"4 rue Thiers","cbAdresse2":"","cbCp":"51100","cbVille":"REIMS","spLibelle1":"","spLibelle2":"","acDateSerment":"","coordinates":[4.0307671,49.2578945]},{"NomBarreau":"REIMS","avNom":"TERNON","avPrenom":"Alexandra","cbRaisonSociale":"TERNON ALEXANDRA","cbSiretSiren":"538846411","cbAdresse1":"21 Rue de Courcelles","cbAdresse2":"","cbCp":"51100","cbVille":"REIMS","spLibelle1":"","spLibelle2":"","acDateSerment":"","coordinates":[4.0215611,49.2579125]},{"NomBarreau":"REIMS","avNom":"TEYCHENNE","avPrenom":"Marine","cbRaisonSociale":"TEYCHENNE MARINE","cbSiretSiren":"799475678","cbAdresse1":"4 RUE TRUDAINE","cbAdresse2":"","cbCp":"51100","cbVille":"REIMS","spLibelle1":"","spLibelle2":"","acDateSerment":"","coordinates":[4.0334411,49.255732]},{"NomBarreau":"REIMS","avNom":"THIBAUT","avPrenom":"Muriel","cbRaisonSociale":"MOREL-THIBAUT","cbSiretSiren":"481731396","cbAdresse1":"8 bis Boulevard Lundy","cbAdresse2":"","cbCp":"51100","cbVille":"REIMS","spLibelle1":"","spLibelle2":"","acDateSerment":"","coordinates":[4.0381747,49.2584379]},{"NomBarreau":"REIMS","avNom":"THIEFFRY","avPrenom":"Laurent","cbRaisonSociale":"CTB AVOCATS ET ASSOCIES","cbSiretSiren":"801249509","cbAdresse1":"7 Rue THIERS","cbAdresse2":"","cbCp":"51100","cbVille":"REIMS","spLibelle1":"","spLibelle2":"","acDateSerment":"","coordinates":[4.0310025,49.2577247]},{"NomBarreau":"REIMS","avNom":"THIERART","avPrenom":"Stéphanie","cbRaisonSociale":"ACG","cbSiretSiren":"333997823","cbAdresse1":"16 Rue du Clou dans le Fer","cbAdresse2":"","cbCp":"51100","cbVille":"REIMS","spLibelle1":"","spLibelle2":"","acDateSerment":"","coordinates":[4.0301885,49.2553679]},{"NomBarreau":"REIMS","avNom":"THIERY-AMMEUX","avPrenom":"Pauline","cbRaisonSociale":"THIERY-AMMEUX PAULINE","cbSiretSiren":"893420646","cbAdresse1":"9 Rue des Marmouzets","cbAdresse2":"","cbCp":"51100","cbVille":"REIMS","spLibelle1":"","spLibelle2":"","acDateSerment":"","coordinates":[4.0371477,49.2557337]},{"NomBarreau":"REIMS","avNom":"THOMAS","avPrenom":"Francine","cbRaisonSociale":"ACG","cbSiretSiren":"333997823","cbAdresse1":"16 Rue du Clou dans le Fer","cbAdresse2":"","cbCp":"51100","cbVille":"REIMS","spLibelle1":"","spLibelle2":"","acDateSerment":"","coordinates":[4.0301885,49.2553679]},{"NomBarreau":"REIMS","avNom":"TOUFFLIN-DONNENFELD","avPrenom":"Pauline","cbRaisonSociale":"LORETTE ET ASSOCIES","cbSiretSiren":"380223271","cbAdresse1":"34 Rue des Moulins","cbAdresse2":"","cbCp":"51100","cbVille":"REIMS","spLibelle1":"","spLibelle2":"","acDateSerment":"","coordinates":[4.0373595,49.2461459]},{"NomBarreau":"REIMS","avNom":"TUNC","avPrenom":"Nilufer","cbRaisonSociale":"TUNC NILUFER","cbSiretSiren":"909968307","cbAdresse1":"201 Avenue de Laon","cbAdresse2":"","cbCp":"51100","cbVille":"REIMS","spLibelle1":"","spLibelle2":"","acDateSerment":"","coordinates":[4.0225915,49.2694532]},{"NomBarreau":"REIMS","avNom":"VAN HOVE","avPrenom":"Aurore","cbRaisonSociale":"ACG","cbSiretSiren":"333997823","cbAdresse1":"16 Rue du Clou dans le Fer","cbAdresse2":"","cbCp":"51100","cbVille":"REIMS","spLibelle1":"","spLibelle2":"","acDateSerment":"","coordinates":[4.0301885,49.2553679]},{"NomBarreau":"REIMS","avNom":"VAN-OOSTENDE","avPrenom":"Stéphanie","cbRaisonSociale":"VAN-OOSTENDE STEPHANIE","cbSiretSiren":"442652897","cbAdresse1":"57 Rue de Talleyrand","cbAdresse2":"","cbCp":"51100","cbVille":"REIMS","spLibelle1":"","spLibelle2":"","acDateSerment":"","coordinates":[4.0281275,49.2577664]},{"NomBarreau":"REIMS","avNom":"VIOLA","avPrenom":"Virginie","cbRaisonSociale":"VIOLA VIRGINIE","cbSiretSiren":"530091354","cbAdresse1":"57 Rue de Talleyrand","cbAdresse2":"","cbCp":"51100","cbVille":"REIMS","spLibelle1":"","spLibelle2":"","acDateSerment":"","coordinates":[4.0281275,49.2577664]},{"NomBarreau":"REIMS","avNom":"WOZNIAK-FARIA","avPrenom":"Jessica","cbRaisonSociale":"FWF ASSOCIES","cbSiretSiren":"808014575","cbAdresse1":"2 Place ROYALE","cbAdresse2":"","cbCp":"51100","cbVille":"REIMS","spLibelle1":"","spLibelle2":"","acDateSerment":"","coordinates":[4.033858,49.2555792]},{"NomBarreau":"REIMS","avNom":"ZAJARA","avPrenom":"Manuel","cbRaisonSociale":"ZAJARA MANUEL","cbSiretSiren":"340994052","cbAdresse1":"39 Rue de Talleyrand","cbAdresse2":"","cbCp":"51100","cbVille":"REIMS","spLibelle1":"","spLibelle2":"","acDateSerment":"","coordinates":[4.0284304,49.2562703]}]