[{"NomBarreau":"SAINT-BRIEUC","avNom":"BEBIN","avPrenom":"Laurence","cbRaisonSociale":"KOVALEX","cbSiretSiren":"450279674","cbAdresse1":"34 rue de Paris","cbAdresse2":"","cbCp":"22000","cbVille":"SAINT-BRIEUC","spLibelle1":"Droit de la famille, des personnes et de leur patrimoine","spLibelle2":"","acDateSerment":"","coordinates":[-2.7418406,48.5042694]},{"NomBarreau":"SAINT-BRIEUC","avNom":"BOCHIKHINA","avPrenom":"Yulia","cbRaisonSociale":"KOVALEX","cbSiretSiren":"450279674","cbAdresse1":"34 rue de Paris","cbAdresse2":"","cbCp":"22000","cbVille":"SAINT-BRIEUC","spLibelle1":"","spLibelle2":"","acDateSerment":"","coordinates":[-2.7418406,48.5042694]},{"NomBarreau":"SAINT-BRIEUC","avNom":"BORDEAU","avPrenom":"Clémentine","cbRaisonSociale":"BORDEAU CLEMENTINE","cbSiretSiren":"909656274","cbAdresse1":"34 rue de Paris","cbAdresse2":"","cbCp":"22000","cbVille":"SAINT-BRIEUC","spLibelle1":"","spLibelle2":"","acDateSerment":"","coordinates":[-2.7418406,48.5042694]},{"NomBarreau":"SAINT-BRIEUC","avNom":"CALONNE- DU TEILLEUL","avPrenom":"Dorothée","cbRaisonSociale":"CALONNE DU TEILLEUL DOROTHEE","cbSiretSiren":"400246831","cbAdresse1":"2 Boulevard Clemenceau","cbAdresse2":"","cbCp":"22000","cbVille":"SAINT-BRIEUC","spLibelle1":"","spLibelle2":"","acDateSerment":"","coordinates":[-2.7594449,48.5107544]},{"NomBarreau":"SAINT-BRIEUC","avNom":"DARDY","avPrenom":"Hervé","cbRaisonSociale":"KOVALEX","cbSiretSiren":"450279674","cbAdresse1":"34 rue de Paris","cbAdresse2":"","cbCp":"22000","cbVille":"SAINT-BRIEUC","spLibelle1":"Droit bancaire et boursier","spLibelle2":"Droit commercial, des affaires et de la concurrence","acDateSerment":"","coordinates":[-2.7418406,48.5042694]},{"NomBarreau":"SAINT-BRIEUC","avNom":"DURAND","avPrenom":"Emilie","cbRaisonSociale":"DURAND EMILIE","cbSiretSiren":"844793166","cbAdresse1":"34 rue de Paris","cbAdresse2":"","cbCp":"22000","cbVille":"SAINT-BRIEUC","spLibelle1":"","spLibelle2":"","acDateSerment":"","coordinates":[-2.7418406,48.5042694]},{"NomBarreau":"SAINT-BRIEUC","avNom":"FAURE","avPrenom":"Bertrand","cbRaisonSociale":"JURIS'ARMOR","cbSiretSiren":"793488461","cbAdresse1":"12 Boulevard Clemenceau","cbAdresse2":"","cbCp":"22000","cbVille":"SAINT-BRIEUC","spLibelle1":"","spLibelle2":"","acDateSerment":"","coordinates":[-2.7599472,48.509548]},{"NomBarreau":"SAINT-BRIEUC","avNom":"GUEGAN","avPrenom":"Mathilde","cbRaisonSociale":"GUEGAN MATHILDE","cbSiretSiren":"893759837","cbAdresse1":"34 rue de Paris","cbAdresse2":"","cbCp":"22000","cbVille":"SAINT-BRIEUC","spLibelle1":"","spLibelle2":"","acDateSerment":"","coordinates":[-2.7418406,48.5042694]},{"NomBarreau":"SAINT-BRIEUC","avNom":"GUERIN","avPrenom":"Murielle","cbRaisonSociale":"GUERIN","cbSiretSiren":"403600000","cbAdresse1":"30 Boulevard Waldeck Rousseau","cbAdresse2":"","cbCp":"22000","cbVille":"SAINT-BRIEUC","spLibelle1":"","spLibelle2":"","acDateSerment":"","coordinates":[-2.7574488,48.5096291]},{"NomBarreau":"SAINT-BRIEUC","avNom":"GUILLOIS","avPrenom":"Alexandre ","cbRaisonSociale":"KOVALEX","cbSiretSiren":"450279674","cbAdresse1":"34 rue de Paris","cbAdresse2":"","cbCp":"22000","cbVille":"SAINT-BRIEUC","spLibelle1":"","spLibelle2":"","acDateSerment":"","coordinates":[-2.7418406,48.5042694]},{"NomBarreau":"SAINT-BRIEUC","avNom":"LAZENNEC","avPrenom":"Morgane","cbRaisonSociale":"LAZENNEC MORGANE","cbSiretSiren":"519541098","cbAdresse1":"2 rue Monseigneur Morelle","cbAdresse2":"","cbCp":"22000","cbVille":"SAINT-BRIEUC","spLibelle1":"","spLibelle2":"","acDateSerment":"","coordinates":[-2.7570418,48.5114991]},{"NomBarreau":"SAINT-BRIEUC","avNom":"LE BLANC","avPrenom":"David","cbRaisonSociale":"KOVALEX","cbSiretSiren":"450279674","cbAdresse1":"34 rue de Paris","cbAdresse2":"","cbCp":"22000","cbVille":"SAINT-BRIEUC","spLibelle1":"","spLibelle2":"","acDateSerment":"","coordinates":[-2.7418406,48.5042694]},{"NomBarreau":"SAINT-BRIEUC","avNom":"LE GAGNE","avPrenom":"Florence","cbRaisonSociale":"KOVALEX","cbSiretSiren":"450279674","cbAdresse1":"34 rue de Paris","cbAdresse2":"","cbCp":"22000","cbVille":"SAINT-BRIEUC","spLibelle1":"Droit du travail","spLibelle2":"","acDateSerment":"","coordinates":[-2.7418406,48.5042694]},{"NomBarreau":"SAINT-BRIEUC","avNom":"LESIEUR","avPrenom":"Ludovic","cbRaisonSociale":"LESIEUR LUDOVIC","cbSiretSiren":"947671400","cbAdresse1":"34 rue de Paris","cbAdresse2":"","cbCp":"22000","cbVille":"SAINT-BRIEUC","spLibelle1":"","spLibelle2":"","acDateSerment":"","coordinates":[-2.7418406,48.5042694]},{"NomBarreau":"SAINT-BRIEUC","avNom":"MARCHAND","avPrenom":"Angélina","cbRaisonSociale":"MARCHAND ANGELINA","cbSiretSiren":"903181378","cbAdresse1":"34 rue de Paris","cbAdresse2":"","cbCp":"22000","cbVille":"SAINT-BRIEUC","spLibelle1":"","spLibelle2":"","acDateSerment":"","coordinates":[-2.7418406,48.5042694]},{"NomBarreau":"SAINT-BRIEUC","avNom":"MAROS","avPrenom":"Margot","cbRaisonSociale":"MAROS MARGOT","cbSiretSiren":"891049066","cbAdresse1":"34 rue de Paris","cbAdresse2":"","cbCp":"22000","cbVille":"SAINT-BRIEUC","spLibelle1":"","spLibelle2":"","acDateSerment":"","coordinates":[-2.7418406,48.5042694]},{"NomBarreau":"SAINT-BRIEUC","avNom":"MORICE","avPrenom":"Albane","cbRaisonSociale":"ALBANE MORICE - JURIS'AFFAIRES","cbSiretSiren":"500056155","cbAdresse1":"37 Avenue des Promenades","cbAdresse2":"","cbCp":"22000","cbVille":"SAINT-BRIEUC","spLibelle1":"","spLibelle2":"","acDateSerment":"","coordinates":[-2.7572524,48.5145532]},{"NomBarreau":"SAINT-BRIEUC","avNom":"NIQUE","avPrenom":"Gaelle","cbRaisonSociale":"NIQUE & SEGALEN & PICHON","cbSiretSiren":"513471110","cbAdresse1":"7 Boulevard de la Commune","cbAdresse2":"","cbCp":"22000","cbVille":"SAINT-BRIEUC","spLibelle1":"","spLibelle2":"","acDateSerment":"","coordinates":[-2.7546898,48.5151068]},{"NomBarreau":"SAINT-BRIEUC","avNom":"PICHON","avPrenom":"Anne-Elisabeth","cbRaisonSociale":"NIQUE & SEGALEN & PICHON","cbSiretSiren":"513471110","cbAdresse1":"7 Boulevard de la Commune","cbAdresse2":"","cbCp":"22000","cbVille":"SAINT-BRIEUC","spLibelle1":"","spLibelle2":"","acDateSerment":"","coordinates":[-2.7546898,48.5151068]},{"NomBarreau":"SAINT-BRIEUC","avNom":"PONDAVEN","avPrenom":"Sabrina","cbRaisonSociale":"PONDAVEN SABRINA","cbSiretSiren":"453658544","cbAdresse1":"9 Avenue des Promenades","cbAdresse2":"","cbCp":"22000","cbVille":"SAINT-BRIEUC","spLibelle1":"","spLibelle2":"","acDateSerment":"","coordinates":[-2.7575759,48.5124395]},{"NomBarreau":"SAINT-BRIEUC","avNom":"RAULT","avPrenom":"Guillaume","cbRaisonSociale":"RAULT GUILLAUME","cbSiretSiren":"832658009","cbAdresse1":"34 rue de Paris","cbAdresse2":"","cbCp":"22000","cbVille":"SAINT-BRIEUC","spLibelle1":"","spLibelle2":"","acDateSerment":"","coordinates":[-2.7418406,48.5042694]},{"NomBarreau":"SAINT-BRIEUC","avNom":"RENARD","avPrenom":"Diane","cbRaisonSociale":"KOVALEX","cbSiretSiren":"450279674","cbAdresse1":"34 rue de Paris","cbAdresse2":"","cbCp":"22000","cbVille":"SAINT-BRIEUC","spLibelle1":"","spLibelle2":"","acDateSerment":"","coordinates":[-2.7418406,48.5042694]},{"NomBarreau":"SAINT-BRIEUC","avNom":"SACHET","avPrenom":"Fanny","cbRaisonSociale":"SACHET FANNY","cbSiretSiren":"844783530","cbAdresse1":"34 rue de Paris","cbAdresse2":"","cbCp":"22000","cbVille":"SAINT-BRIEUC","spLibelle1":"","spLibelle2":"","acDateSerment":"","coordinates":[-2.7418406,48.5042694]}]