[{"NomBarreau":"SAINT-ETIENNE","avNom":"ABEL","avPrenom":"Clément","cbRaisonSociale":"ABEL CLEMENT","cbSiretSiren":"909040933","cbAdresse1":"14 rue Gambetta","cbAdresse2":"Immeuble Saint Louis","cbCp":"42000","cbVille":"SAINT ETIENNE","spLibelle1":"","spLibelle2":"","acDateSerment":"","coordinates":[4.3884996,45.4342035]},{"NomBarreau":"SAINT-ETIENNE","avNom":"ABRIAL","avPrenom":"Cécile","cbRaisonSociale":"JUDICAL-CLERGUE-ABRIAL","cbSiretSiren":"351014451","cbAdresse1":"145 rue de la Montat","cbAdresse2":"L'Arche 145","cbCp":"42100","cbVille":"SAINT ETIENNE","spLibelle1":"","spLibelle2":"","acDateSerment":"","coordinates":[4.4055021,45.4414133]},{"NomBarreau":"SAINT-ETIENNE","avNom":"BOISSERAND","avPrenom":"Lauriane","cbRaisonSociale":"BOISSERAND JULIEN-BOISSERAND","cbSiretSiren":"808942593","cbAdresse1":"14 rue Gambetta","cbAdresse2":"Immeuble Saint Louis","cbCp":"42000","cbVille":"SAINT ETIENNE","spLibelle1":"","spLibelle2":"","acDateSerment":"","coordinates":[4.3884996,45.4342035]},{"NomBarreau":"SAINT-ETIENNE","avNom":"GAZDALLI","avPrenom":"Jihene","cbRaisonSociale":"GAZDALLI JIHENE","cbSiretSiren":"880539481","cbAdresse1":"4 rue Georges Teissier","cbAdresse2":"","cbCp":"42000","cbVille":"SAINT ETIENNE","spLibelle1":"","spLibelle2":"","acDateSerment":"","coordinates":[4.3870368,45.4376618]},{"NomBarreau":"SAINT-ETIENNE","avNom":"GUERIN","avPrenom":"Marlène","cbRaisonSociale":"GUERIN MARLENE","cbSiretSiren":"518859525","cbAdresse1":"6 rue Galle","cbAdresse2":"","cbCp":"42000","cbVille":"SAINT ETIENNE","spLibelle1":"","spLibelle2":"","acDateSerment":"","coordinates":[4.3866767,45.4443455]},{"NomBarreau":"SAINT-ETIENNE","avNom":"HADJ BENELEZAAR","avPrenom":"Hedi","cbRaisonSociale":"HADJ BENELEZAAR HEDI","cbSiretSiren":"880539473","cbAdresse1":"22 rue Michel Rondet","cbAdresse2":"","cbCp":"42000","cbVille":"SAINT ETIENNE","spLibelle1":"","spLibelle2":"","acDateSerment":"","coordinates":[4.3844491,45.4380251]},{"NomBarreau":"SAINT-ETIENNE","avNom":"JULIEN-BOISSERAND","avPrenom":"Pascale","cbRaisonSociale":"BOISSERAND JULIEN-BOISSERAND","cbSiretSiren":"808942593","cbAdresse1":"14 rue Gambetta","cbAdresse2":"Immeuble Saint Louis","cbCp":"42000","cbVille":"SAINT ETIENNE","spLibelle1":"","spLibelle2":"","acDateSerment":"","coordinates":[4.3884996,45.4342035]},{"NomBarreau":"SAINT-ETIENNE","avNom":"MAYMON","avPrenom":"Romain","cbRaisonSociale":"MAYMON ROMAIN","cbSiretSiren":"415384916","cbAdresse1":"4 rue Georges Teissier","cbAdresse2":"","cbCp":"42000","cbVille":"SAINT ETIENNE","spLibelle1":"","spLibelle2":"","acDateSerment":"","coordinates":[4.3870368,45.4376618]},{"NomBarreau":"SAINT-ETIENNE","avNom":"PALLE","avPrenom":"Stéphanie","cbRaisonSociale":"PALLE STEPHANIE","cbSiretSiren":"428793970","cbAdresse1":"12 Cours Pierre-Lucien Buisson","cbAdresse2":"","cbCp":"42000","cbVille":"SAINT ETIENNE","spLibelle1":"","spLibelle2":"","acDateSerment":"","coordinates":[4.383233,45.4369439]},{"NomBarreau":"SAINT-ETIENNE","avNom":"SOLLALLIER","avPrenom":"Charlène","cbRaisonSociale":"SOLLALLIER CHARLENE","cbSiretSiren":"808687024","cbAdresse1":"145 rue de la Montat","cbAdresse2":"L'Arche 145","cbCp":"42100","cbVille":"SAINT ETIENNE","spLibelle1":"","spLibelle2":"","acDateSerment":"","coordinates":[4.4055021,45.4414133]},{"NomBarreau":"SAINT-ETIENNE","avNom":"TOMC","avPrenom":"Nicolas","cbRaisonSociale":"TOMC NICOLAS","cbSiretSiren":"795098532","cbAdresse1":"3 Place du Palais de Justice","cbAdresse2":"","cbCp":"42000","cbVille":"SAINT ETIENNE","spLibelle1":"","spLibelle2":"","acDateSerment":"","coordinates":[4.3844708,45.4373407]},{"NomBarreau":"SAINT-ETIENNE","avNom":"VIALLARD-VALEZY","avPrenom":"Solange","cbRaisonSociale":"VIALLARD-VALEZY SOLANGE","cbSiretSiren":"349495291","cbAdresse1":"22 rue Michel Rondet","cbAdresse2":"","cbCp":"42000","cbVille":"SAINT ETIENNE","spLibelle1":"","spLibelle2":"","acDateSerment":"","coordinates":[4.3844491,45.4380251]},{"NomBarreau":"SAINT-ETIENNE","avNom":"VILLAND","avPrenom":"Géraldine","cbRaisonSociale":"VILLAND GERALDINE","cbSiretSiren":"403412224","cbAdresse1":"36 BIS rue du Onze Novembre","cbAdresse2":"","cbCp":"42100","cbVille":"SAINT ETIENNE","spLibelle1":"","spLibelle2":"","acDateSerment":"","coordinates":[4.3910972,45.4259354]}]