[{"NomBarreau":"SAINTES","avNom":"ARAGUAS","avPrenom":"Emmanuel","cbRaisonSociale":"ARAGUAS EMMANUEL","cbSiretSiren":"445024318","cbAdresse1":"14 rue Saint Michel","cbAdresse2":"","cbCp":"17100","cbVille":"SAINTES","spLibelle1":"","spLibelle2":"","acDateSerment":"","coordinates":[-0.6317906,45.7456018]},{"NomBarreau":"SAINTES","avNom":"BERTRAND","avPrenom":"Bénédicte","cbRaisonSociale":"BERTRAND","cbSiretSiren":"403814452","cbAdresse1":"75 Cours National","cbAdresse2":"","cbCp":"17100","cbVille":"SAINTES","spLibelle1":"","spLibelle2":"","acDateSerment":"","coordinates":[-0.6306847,45.7470465]},{"NomBarreau":"SAINTES","avNom":"BISSIERE-MARTINEZ","avPrenom":"Juliette","cbRaisonSociale":"BISSIERE-MARTINEZ JULIETTE","cbSiretSiren":"834846735","cbAdresse1":"11 Place Blair","cbAdresse2":"","cbCp":"17100","cbVille":"SAINTES","spLibelle1":"","spLibelle2":"","acDateSerment":"","coordinates":[-0.6347124,45.7428339]},{"NomBarreau":"SAINTES","avNom":"BITEAU","avPrenom":"Maéva","cbRaisonSociale":"BITEAU","cbSiretSiren":"798085932","cbAdresse1":"48 cours lemercier","cbAdresse2":"","cbCp":"17100","cbVille":"SAINTES","spLibelle1":"","spLibelle2":"","acDateSerment":"","coordinates":[-0.6374979,45.7474057]},{"NomBarreau":"SAINTES","avNom":"BOLLINI","avPrenom":"Maelysse","cbRaisonSociale":"BOLLINI MAELYSSE","cbSiretSiren":"","cbAdresse1":"18 boulevard Guillet Maillet","cbAdresse2":"","cbCp":"17100","cbVille":"SAINTES","spLibelle1":"","spLibelle2":"","acDateSerment":"","coordinates":[-0.6265046,45.7473214]},{"NomBarreau":"SAINTES","avNom":"BOSSEBOEUF","avPrenom":"Marine","cbRaisonSociale":"BOSSEBOEUF","cbSiretSiren":"510109630","cbAdresse1":"77 Cours National","cbAdresse2":"","cbCp":"17100","cbVille":"SAINTES","spLibelle1":"","spLibelle2":"","acDateSerment":"","coordinates":[-0.6306847,45.7470465]},{"NomBarreau":"SAINTES","avNom":"BOUTIRA","avPrenom":"Gaétan","cbRaisonSociale":"BOUTIRA GAETAN","cbSiretSiren":"892641580","cbAdresse1":"14 Rue Saint Michel","cbAdresse2":"","cbCp":"17100","cbVille":"SAINTES","spLibelle1":"","spLibelle2":"","acDateSerment":"","coordinates":[-0.6317906,45.7456018]},{"NomBarreau":"SAINTES","avNom":"BRIDOUX","avPrenom":"Thomas","cbRaisonSociale":"SELARL BRIDOUX-ECOBICHON","cbSiretSiren":"834753600","cbAdresse1":"93 Cours National","cbAdresse2":"","cbCp":"17100","cbVille":"SAINTES","spLibelle1":"","spLibelle2":"","acDateSerment":"","coordinates":[-0.6306847,45.7470465]},{"NomBarreau":"SAINTES","avNom":"BRIN","avPrenom":"Stéphanie","cbRaisonSociale":"BRIN","cbSiretSiren":"790634810","cbAdresse1":"1 Rue Saint Vivien","cbAdresse2":"","cbCp":"17100","cbVille":"SAINTES","spLibelle1":"","spLibelle2":"","acDateSerment":"","coordinates":[-0.6345931,45.7491595]},{"NomBarreau":"SAINTES","avNom":"CAPLOT","avPrenom":"Sylviane","cbRaisonSociale":"CAPLOT SYLVIANE","cbSiretSiren":"338047608","cbAdresse1":"2 rue de l'Artois","cbAdresse2":"","cbCp":"17100","cbVille":"SAINTES","spLibelle1":"","spLibelle2":"","acDateSerment":"","coordinates":[-0.6317069,45.7473922]},{"NomBarreau":"SAINTES","avNom":"CAURAND","avPrenom":"Florence","cbRaisonSociale":"CAURAND","cbSiretSiren":"380852822","cbAdresse1":"48 cours National","cbAdresse2":"","cbCp":"17100","cbVille":"SAINTES","spLibelle1":"","spLibelle2":"","acDateSerment":"","coordinates":[-0.6306847,45.7470465]},{"NomBarreau":"SAINTES","avNom":"CHALEIX","avPrenom":"Vanessa","cbRaisonSociale":"CHALEIX VANESSA","cbSiretSiren":"824457006","cbAdresse1":"101 cours National","cbAdresse2":"","cbCp":"17100","cbVille":"SAINTES","spLibelle1":"","spLibelle2":"","acDateSerment":"","coordinates":[-0.6306847,45.7470465]},{"NomBarreau":"SAINTES","avNom":"CHUSSEAU","avPrenom":"Maxime","cbRaisonSociale":"CHUSSEAU","cbSiretSiren":"790413504","cbAdresse1":"4 rue Alsace Lorraine","cbAdresse2":"","cbCp":"17100","cbVille":"SAINTES","spLibelle1":"","spLibelle2":"","acDateSerment":"","coordinates":[-0.6331146,45.7461229]},{"NomBarreau":"SAINTES","avNom":"CORVISIER","avPrenom":"Jényfer","cbRaisonSociale":"CORVISIER JENYFER","cbSiretSiren":"901684670","cbAdresse1":"68 Cours National","cbAdresse2":"BP 10257","cbCp":"17105","cbVille":"SAINTES","spLibelle1":"","spLibelle2":"","acDateSerment":"","coordinates":[-0.6306847,45.7470465]},{"NomBarreau":"SAINTES","avNom":"COTINAUT","avPrenom":"Pierre","cbRaisonSociale":"COTINAUT","cbSiretSiren":"522766351","cbAdresse1":"48 cours Lemercier","cbAdresse2":"","cbCp":"17100","cbVille":"SAINTES","spLibelle1":"","spLibelle2":"","acDateSerment":"","coordinates":[-0.6374979,45.7474057]},{"NomBarreau":"SAINTES","avNom":"DIETZ","avPrenom":"Dorothée","cbRaisonSociale":"CABINET DIETZ","cbSiretSiren":"434732582","cbAdresse1":"77 Cours National","cbAdresse2":"","cbCp":"17100","cbVille":"SAINTES","spLibelle1":"","spLibelle2":"","acDateSerment":"","coordinates":[-0.6306847,45.7470465]},{"NomBarreau":"SAINTES","avNom":"ECOBICHON","avPrenom":"Claire","cbRaisonSociale":"SELARL BRIDOUX-ECOBICHON","cbSiretSiren":"834753600","cbAdresse1":"93 Cours National","cbAdresse2":"","cbCp":"17100","cbVille":"SAINTES","spLibelle1":"","spLibelle2":"","acDateSerment":"","coordinates":[-0.6306847,45.7470465]},{"NomBarreau":"SAINTES","avNom":"FILLOUX","avPrenom":"Nadine","cbRaisonSociale":"PAYET FILLOUX","cbSiretSiren":"451637243","cbAdresse1":"30 rue Marcelin Berthelot","cbAdresse2":"BP 20036","cbCp":"17102","cbVille":"SAINTES","spLibelle1":"","spLibelle2":"","acDateSerment":"","coordinates":[-0.6206898,45.7439394]},{"NomBarreau":"SAINTES","avNom":"FINE","avPrenom":"Arnaud","cbRaisonSociale":"SOCIETE D'AVOCATS ETIC","cbSiretSiren":"531782258","cbAdresse1":"77 Cours National","cbAdresse2":"","cbCp":"17100","cbVille":"SAINTES","spLibelle1":"","spLibelle2":"","acDateSerment":"","coordinates":[-0.6306847,45.7470465]},{"NomBarreau":"SAINTES","avNom":"FLEUROUX","avPrenom":"Anais","cbRaisonSociale":"SELARL FLEUROUX AVOCAT","cbSiretSiren":"480874155","cbAdresse1":"77 Cours National","cbAdresse2":"","cbCp":"17100","cbVille":"SAINTES","spLibelle1":"","spLibelle2":"","acDateSerment":"","coordinates":[-0.6306847,45.7470465]},{"NomBarreau":"SAINTES","avNom":"FRUCHARD LAURENT","avPrenom":"Stéphanie","cbRaisonSociale":"AIGOIN FRUCHARD-LAURENT","cbSiretSiren":"380841015","cbAdresse1":"93 cours National","cbAdresse2":"","cbCp":"17100","cbVille":"SAINTES","spLibelle1":"","spLibelle2":"","acDateSerment":"","coordinates":[-0.6306847,45.7470465]},{"NomBarreau":"SAINTES","avNom":"GERMAIN","avPrenom":"Romuald","cbRaisonSociale":"GERMAIN","cbSiretSiren":"388935934","cbAdresse1":"93 cours National","cbAdresse2":"","cbCp":"17100","cbVille":"SAINTES","spLibelle1":"","spLibelle2":"","acDateSerment":"","coordinates":[-0.6306847,45.7470465]},{"NomBarreau":"SAINTES","avNom":"GIUGE","avPrenom":"Valérie","cbRaisonSociale":"GIUGE","cbSiretSiren":"539283796","cbAdresse1":"1 rue Saint Vivien","cbAdresse2":"","cbCp":"17100","cbVille":"SAINTES","spLibelle1":"","spLibelle2":"","acDateSerment":"","coordinates":[-0.6345931,45.7491595]},{"NomBarreau":"SAINTES","avNom":"GREVIN","avPrenom":"Fanny","cbRaisonSociale":"GREVIN","cbSiretSiren":"394174007","cbAdresse1":"101 cours National","cbAdresse2":"","cbCp":"17100","cbVille":"SAINTES","spLibelle1":"","spLibelle2":"","acDateSerment":"","coordinates":[-0.6306847,45.7470465]},{"NomBarreau":"SAINTES","avNom":"GREZILLIER","avPrenom":"Alice","cbRaisonSociale":"GREZILLIER ALICE","cbSiretSiren":"800081309","cbAdresse1":"18 Boulevard Guillet Maillet","cbAdresse2":"","cbCp":"17100","cbVille":"SAINTES","spLibelle1":"","spLibelle2":"","acDateSerment":"","coordinates":[-0.6265046,45.7473214]},{"NomBarreau":"SAINTES","avNom":"HAGUENIER","avPrenom":"Sylvie","cbRaisonSociale":"HAGUENIER SYLVIE","cbSiretSiren":"401543624","cbAdresse1":"23 cours Lemercier","cbAdresse2":"","cbCp":"17100","cbVille":"SAINTES","spLibelle1":"","spLibelle2":"","acDateSerment":"","coordinates":[-0.6374979,45.7474057]},{"NomBarreau":"SAINTES","avNom":"HAMARD","avPrenom":"Angélina","cbRaisonSociale":"HAMARD ANGELINA","cbSiretSiren":"909056251","cbAdresse1":"68 Cours National","cbAdresse2":"BP 10257","cbCp":"17105","cbVille":"SAINTES","spLibelle1":"","spLibelle2":"","acDateSerment":"","coordinates":[-0.6306847,45.7470465]},{"NomBarreau":"SAINTES","avNom":"HUBERDEAU","avPrenom":"Vincent","cbRaisonSociale":"ACTE JURIS","cbSiretSiren":"451040828","cbAdresse1":"1 Cours Lemercier","cbAdresse2":"","cbCp":"17100","cbVille":"SAINTES","spLibelle1":"","spLibelle2":"","acDateSerment":"","coordinates":[-0.6374979,45.7474057]},{"NomBarreau":"SAINTES","avNom":"KHAMLICHI RIOU","avPrenom":"Elias","cbRaisonSociale":"KHAMLICHI RIOU ELIAS","cbSiretSiren":"908078546","cbAdresse1":"77 Cours National","cbAdresse2":"","cbCp":"17100","cbVille":"SAINTES","spLibelle1":"","spLibelle2":"","acDateSerment":"","coordinates":[-0.6306847,45.7470465]},{"NomBarreau":"SAINTES","avNom":"KOUASSI","avPrenom":"Françoise","cbRaisonSociale":"KOUASSI FRANCOISE","cbSiretSiren":"893804187","cbAdresse1":"10 Place du Bastion","cbAdresse2":"","cbCp":"17100","cbVille":"SAINTES","spLibelle1":"","spLibelle2":"","acDateSerment":"","coordinates":[-0.6372198,45.7470471]},{"NomBarreau":"SAINTES","avNom":"KURZAWA","avPrenom":"Thibaut","cbRaisonSociale":"CALLAUD - MELLIER - KURZAWA","cbSiretSiren":"838501245","cbAdresse1":"24 COURS lEMERCIER","cbAdresse2":"","cbCp":"17100","cbVille":"SAINTES","spLibelle1":"","spLibelle2":"","acDateSerment":"","coordinates":[-0.6374979,45.7474057]},{"NomBarreau":"SAINTES","avNom":"LAINE","avPrenom":"Julien","cbRaisonSociale":"NOGARET & LAINE","cbSiretSiren":"880634183","cbAdresse1":"4 rue Alsace Lorraine","cbAdresse2":"","cbCp":"17100","cbVille":"SAINTES","spLibelle1":"","spLibelle2":"","acDateSerment":"","coordinates":[-0.6331146,45.7461229]},{"NomBarreau":"SAINTES","avNom":"LAMBERT","avPrenom":"Aurelie","cbRaisonSociale":"A.LAMBERT AVOCAT","cbSiretSiren":"412698466","cbAdresse1":"5 rue Pierre et Marie Curie","cbAdresse2":"","cbCp":"17100","cbVille":"SAINTES","spLibelle1":"","spLibelle2":"","acDateSerment":"","coordinates":[-0.659863,45.7477877]},{"NomBarreau":"SAINTES","avNom":"LAVAUD","avPrenom":"Patrick","cbRaisonSociale":"CABINET LAVAUD","cbSiretSiren":"390224129","cbAdresse1":"64 COURS NATIONAL","cbAdresse2":"","cbCp":"17100","cbVille":"SAINTES","spLibelle1":"","spLibelle2":"","acDateSerment":"","coordinates":[-0.6306847,45.7470465]},{"NomBarreau":"SAINTES","avNom":"LECUREUR","avPrenom":"Antoine","cbRaisonSociale":"LECUREUR ANTOINE","cbSiretSiren":"909013435","cbAdresse1":"87 avenue Gambetta","cbAdresse2":"BP 260","cbCp":"17105","cbVille":"SAINTES","spLibelle1":"","spLibelle2":"","acDateSerment":"","coordinates":[-0.6205353,45.7464567]},{"NomBarreau":"SAINTES","avNom":"LEGWINSKI","avPrenom":"Claire","cbRaisonSociale":"LEGWINSKI CLAIRE","cbSiretSiren":"845174325","cbAdresse1":"11 Place Blair","cbAdresse2":"","cbCp":"17100","cbVille":"SAINTES","spLibelle1":"","spLibelle2":"","acDateSerment":"","coordinates":[-0.6347124,45.7428339]},{"NomBarreau":"SAINTES","avNom":"LOCHET","avPrenom":"Célia","cbRaisonSociale":"LOCHET","cbSiretSiren":"809210016","cbAdresse1":"30 cours national","cbAdresse2":"","cbCp":"17100","cbVille":"saintes","spLibelle1":"","spLibelle2":"","acDateSerment":"","coordinates":[-0.6306847,45.7470465]},{"NomBarreau":"SAINTES","avNom":"MELLIER","avPrenom":"Laure","cbRaisonSociale":"CALLAUD - MELLIER - KURZAWA","cbSiretSiren":"838501245","cbAdresse1":"24 COURS lEMERCIER","cbAdresse2":"","cbCp":"17100","cbVille":"SAINTES","spLibelle1":"","spLibelle2":"","acDateSerment":"","coordinates":[-0.6374979,45.7474057]},{"NomBarreau":"SAINTES","avNom":"MINIER","avPrenom":"Philippe","cbRaisonSociale":"LLM SOCIETE D'AVOCATS LEFEBVRE LAMOUROUX MINIER MEYRAND REMY ROUX-MICHOT","cbSiretSiren":"391959335","cbAdresse1":"68 Cours National","cbAdresse2":"BP 10257","cbCp":"17105","cbVille":"SAINTES","spLibelle1":"","spLibelle2":"","acDateSerment":"","coordinates":[-0.6306847,45.7470465]},{"NomBarreau":"SAINTES","avNom":"NOEL","avPrenom":"Marie-Anne","cbRaisonSociale":"NOEL MARIE-ANNE","cbSiretSiren":"378226781","cbAdresse1":"111 cours National","cbAdresse2":"","cbCp":"17100","cbVille":"SAINTES","spLibelle1":"","spLibelle2":"","acDateSerment":"","coordinates":[-0.6306847,45.7470465]},{"NomBarreau":"SAINTES","avNom":"NOGARET","avPrenom":"Julien","cbRaisonSociale":"NOGARET & LAINE","cbSiretSiren":"880634183","cbAdresse1":"4 rue Alsace Lorraine","cbAdresse2":"","cbCp":"17100","cbVille":"SAINTES","spLibelle1":"","spLibelle2":"","acDateSerment":"","coordinates":[-0.6331146,45.7461229]},{"NomBarreau":"SAINTES","avNom":"PAPINEAU","avPrenom":"Julien","cbRaisonSociale":"PAPINEAU JULIEN","cbSiretSiren":"841234883","cbAdresse1":"4 Rue Alsace-Lorraine","cbAdresse2":"","cbCp":"17100","cbVille":"SAINTES","spLibelle1":"","spLibelle2":"","acDateSerment":"","coordinates":[-0.6331146,45.7461229]},{"NomBarreau":"SAINTES","avNom":"PAVAGEAU","avPrenom":"Coraline","cbRaisonSociale":"PAVAGEAU","cbSiretSiren":"519258602","cbAdresse1":"30 Cours National","cbAdresse2":"","cbCp":"17100","cbVille":"SAINTES","spLibelle1":"","spLibelle2":"","acDateSerment":"","coordinates":[-0.6306847,45.7470465]},{"NomBarreau":"SAINTES","avNom":"PAYET","avPrenom":"Patrick","cbRaisonSociale":"PAYET FILLOUX","cbSiretSiren":"451637243","cbAdresse1":"30 rue Marcelin Berthelot","cbAdresse2":"BP 20036","cbCp":"17102","cbVille":"SAINTES","spLibelle1":"Droit fiscal et droit douanier","spLibelle2":"","acDateSerment":"","coordinates":[-0.6206898,45.7439394]},{"NomBarreau":"SAINTES","avNom":"RANSON-HUBERDEAU","avPrenom":"Stephanie","cbRaisonSociale":"RANSON","cbSiretSiren":"509800322","cbAdresse1":"1 Cours Lemercier","cbAdresse2":"","cbCp":"17100","cbVille":"SAINTES","spLibelle1":"","spLibelle2":"","acDateSerment":"","coordinates":[-0.6374979,45.7474057]},{"NomBarreau":"SAINTES","avNom":"REMOND","avPrenom":"Rebecca","cbRaisonSociale":"REMOND","cbSiretSiren":"393826268","cbAdresse1":"77 Cours National","cbAdresse2":"","cbCp":"17100","cbVille":"SAINTES","spLibelle1":"","spLibelle2":"","acDateSerment":"","coordinates":[-0.6306847,45.7470465]},{"NomBarreau":"SAINTES","avNom":"REMY","avPrenom":"Aurelie","cbRaisonSociale":"LLM SOCIETE D'AVOCATS LEFEBVRE LAMOUROUX MINIER MEYRAND REMY ROUX-MICHOT","cbSiretSiren":"391959335","cbAdresse1":"68 Cours National","cbAdresse2":"BP 10257","cbCp":"17105","cbVille":"SAINTES","spLibelle1":"","spLibelle2":"","acDateSerment":"","coordinates":[-0.6306847,45.7470465]},{"NomBarreau":"SAINTES","avNom":"RICOU","avPrenom":"Laurence","cbRaisonSociale":"RICOU","cbSiretSiren":"400100657","cbAdresse1":"3 bis rue Pierre et Marie Curie","cbAdresse2":"","cbCp":"17100","cbVille":"SAINTES","spLibelle1":"Droit du travail","spLibelle2":"","acDateSerment":"","coordinates":[-0.660807,45.7474886]},{"NomBarreau":"SAINTES","avNom":"ROUGIER","avPrenom":"Magalie","cbRaisonSociale":"ROUGIER VIENNOIS FERNANDES","cbSiretSiren":"409526035","cbAdresse1":"18 boulevard Guillet Maillet","cbAdresse2":"","cbCp":"17100","cbVille":"SAINTES","spLibelle1":"","spLibelle2":"","acDateSerment":"","coordinates":[-0.6265046,45.7473214]},{"NomBarreau":"SAINTES","avNom":"ROUX-MICHOT","avPrenom":"Cécile","cbRaisonSociale":"LLM SOCIETE D'AVOCATS LEFEBVRE LAMOUROUX MINIER MEYRAND REMY ROUX-MICHOT","cbSiretSiren":"391959335","cbAdresse1":"68 Cours National","cbAdresse2":"BP 10257","cbCp":"17105","cbVille":"SAINTES","spLibelle1":"","spLibelle2":"","acDateSerment":"","coordinates":[-0.6306847,45.7470465]},{"NomBarreau":"SAINTES","avNom":"SAINTE MARIE PRICOT","avPrenom":"Elisabeth","cbRaisonSociale":"SOCIETE D'AVOCATS ETIC","cbSiretSiren":"531782258","cbAdresse1":"77 Cours National","cbAdresse2":"","cbCp":"17100","cbVille":"SAINTES","spLibelle1":"","spLibelle2":"","acDateSerment":"","coordinates":[-0.6306847,45.7470465]},{"NomBarreau":"SAINTES","avNom":"SAINTE MARIE PRICOT","avPrenom":"Régis","cbRaisonSociale":"ACTE JURIS","cbSiretSiren":"451040828","cbAdresse1":"1 Cours Lemercier","cbAdresse2":"","cbCp":"17100","cbVille":"SAINTES","spLibelle1":"Droit de la famille, des personnes et de leur patrimoine","spLibelle2":"","acDateSerment":"","coordinates":[-0.6374979,45.7474057]},{"NomBarreau":"SAINTES","avNom":"SATTA","avPrenom":"Francesca","cbRaisonSociale":"CABINET D'AVOCATS FRANCESCA SATTA","cbSiretSiren":"531969723","cbAdresse1":"55 rue de l'Arc de Triomphe","cbAdresse2":"","cbCp":"17100","cbVille":"SAINTES","spLibelle1":"","spLibelle2":"","acDateSerment":"","coordinates":[-0.626437,45.7457479]},{"NomBarreau":"SAINTES","avNom":"SEVET","avPrenom":"Julien","cbRaisonSociale":"SEVET","cbSiretSiren":"510198252","cbAdresse1":"30 cours National","cbAdresse2":"","cbCp":"17100","cbVille":"SAINTES","spLibelle1":"","spLibelle2":"","acDateSerment":"","coordinates":[-0.6306847,45.7470465]},{"NomBarreau":"SAINTES","avNom":"VIENNOIS","avPrenom":"Marion","cbRaisonSociale":"ROUGIER VIENNOIS FERNANDES","cbSiretSiren":"409526035","cbAdresse1":"18 boulevard Guillet Maillet","cbAdresse2":"","cbCp":"17100","cbVille":"SAINTES","spLibelle1":"Droit de la famille, des personnes et de leur patrimoine","spLibelle2":"","acDateSerment":"","coordinates":[-0.6265046,45.7473214]}]