[{"NomBarreau":"SARREGUEMINES","avNom":"ALBERT","avPrenom":"Christelle","cbRaisonSociale":"ALBERT CHRISTELLE","cbSiretSiren":"480686005","cbAdresse1":"13 PLACE DU MARCHE","cbAdresse2":"","cbCp":"57200","cbVille":"SARREGUEMINES","spLibelle1":"","spLibelle2":"","acDateSerment":"","coordinates":[7.0651407,49.1113446]},{"NomBarreau":"SARREGUEMINES","avNom":"ALT","avPrenom":"Pierre","cbRaisonSociale":"ALT ET KELLER","cbSiretSiren":"780033593","cbAdresse1":"4 rue du Palais","cbAdresse2":"","cbCp":"57200","cbVille":"SARREGUEMINES","spLibelle1":"Droit de la famille, des personnes et de leur patrimoine","spLibelle2":"Droit du dommage corporel","acDateSerment":"","coordinates":[7.068457,49.10905]},{"NomBarreau":"SARREGUEMINES","avNom":"AUBLED","avPrenom":"Cécile","cbRaisonSociale":"AUBLED","cbSiretSiren":"394158257","cbAdresse1":"3 rue de la Chapelle","cbAdresse2":"","cbCp":"57200","cbVille":"SARREGUEMINES","spLibelle1":"","spLibelle2":"","acDateSerment":"","coordinates":[7.068159,49.110074]},{"NomBarreau":"SARREGUEMINES","avNom":"BARTH","avPrenom":"Cécile","cbRaisonSociale":"BARTH CECILE","cbSiretSiren":"833840804","cbAdresse1":"13 rue des Vosges","cbAdresse2":"","cbCp":"57200","cbVille":"SARREGUEMINES","spLibelle1":"","spLibelle2":"","acDateSerment":"","coordinates":[7.067383,49.108721]},{"NomBarreau":"SARREGUEMINES","avNom":"BATON","avPrenom":"Estelle","cbRaisonSociale":"BATON","cbSiretSiren":"349218107","cbAdresse1":"13 rue Pasteur","cbAdresse2":"","cbCp":"57200","cbVille":"SARREGUEMINES","spLibelle1":"","spLibelle2":"","acDateSerment":"","coordinates":[7.176016,49.117464]},{"NomBarreau":"SARREGUEMINES","avNom":"BECKER","avPrenom":"Sarah","cbRaisonSociale":"BECKER SARAH","cbSiretSiren":"808917199","cbAdresse1":"01 rue Haffner","cbAdresse2":"","cbCp":"57200","cbVille":"SARREGUEMINES","spLibelle1":"","spLibelle2":"","acDateSerment":"","coordinates":[7.0692205,49.1081607]},{"NomBarreau":"SARREGUEMINES","avNom":"BECKER-ENGEL","avPrenom":"Laurence","cbRaisonSociale":"BECKER-ENGEL LAURENCE","cbSiretSiren":"329797096","cbAdresse1":"01 rue HAFFNER","cbAdresse2":"","cbCp":"57200","cbVille":"SARREGUEMINES","spLibelle1":"Droit de la famille, des personnes et de leur patrimoine","spLibelle2":"Droit du crédit et de la consommation","acDateSerment":"","coordinates":[7.0692205,49.1081607]},{"NomBarreau":"SARREGUEMINES","avNom":"BIEBER","avPrenom":"Jean-Luc","cbRaisonSociale":"JUROPE","cbSiretSiren":"353728611","cbAdresse1":"7 B rue Raymond POINCARE","cbAdresse2":"","cbCp":"57200","cbVille":"SARREGUEMINES","spLibelle1":"","spLibelle2":"","acDateSerment":"","coordinates":[7.0738542,49.1040064]},{"NomBarreau":"SARREGUEMINES","avNom":"BIZZARRI","avPrenom":"Benjamin","cbRaisonSociale":"BERARD-JEMOLI-SANTELLI-BURKATZKI-BIZZARRI","cbSiretSiren":"479080897","cbAdresse1":"9 rue de la Paix","cbAdresse2":"","cbCp":"57200","cbVille":"SARREGUEMINES","spLibelle1":"","spLibelle2":"","acDateSerment":"","coordinates":[7.094226,49.090213]},{"NomBarreau":"SARREGUEMINES","avNom":"BORDONNE","avPrenom":"Alexandra","cbRaisonSociale":"BORDONNE ALEXANDRA","cbSiretSiren":"827754706","cbAdresse1":"20 rue Nationale","cbAdresse2":"","cbCp":"57200","cbVille":"SARREGUEMINES","spLibelle1":"","spLibelle2":"","acDateSerment":"","coordinates":[7.066888,49.111137]},{"NomBarreau":"SARREGUEMINES","avNom":"BURKATZKI","avPrenom":"François","cbRaisonSociale":"BURKATZKI FRANCOIS","cbSiretSiren":"305424905","cbAdresse1":"09 rue de la Paix","cbAdresse2":"","cbCp":"57200","cbVille":"SARREGUEMINES","spLibelle1":"","spLibelle2":"","acDateSerment":"","coordinates":[7.0660026,49.1126715]},{"NomBarreau":"SARREGUEMINES","avNom":"CARA","avPrenom":"Fanny","cbRaisonSociale":"MARTIAL GAGNEUX FANNY CARA","cbSiretSiren":"847668563","cbAdresse1":"14 rue de la Chapelle","cbAdresse2":"","cbCp":"57200","cbVille":"SARREGUEMINES","spLibelle1":"","spLibelle2":"","acDateSerment":"","coordinates":[7.164401,49.083735]},{"NomBarreau":"SARREGUEMINES","avNom":"DRUI","avPrenom":"Anne","cbRaisonSociale":"DRUI","cbSiretSiren":"790855001","cbAdresse1":"4 rue du Parc","cbAdresse2":"","cbCp":"57200","cbVille":"SARREGUEMINES","spLibelle1":"","spLibelle2":"","acDateSerment":"","coordinates":[7.067805,49.10894]},{"NomBarreau":"SARREGUEMINES","avNom":"EHRMANN-BARDA","avPrenom":"Cathy","cbRaisonSociale":"EHRMANN-BARDA CATHY","cbSiretSiren":"519735963","cbAdresse1":"3 rue Pierre Haffner","cbAdresse2":"","cbCp":"57200","cbVille":"SARREGUEMINES","spLibelle1":"","spLibelle2":"","acDateSerment":"","coordinates":[7.069469,49.108195]},{"NomBarreau":"SARREGUEMINES","avNom":"FOTRE","avPrenom":"Nathalie","cbRaisonSociale":"FOTRE NATHALIE","cbSiretSiren":"792390460","cbAdresse1":"13 rue des Vosges","cbAdresse2":"","cbCp":"57200","cbVille":"SARREGUEMINES","spLibelle1":"","spLibelle2":"","acDateSerment":"","coordinates":[7.067383,49.108721]},{"NomBarreau":"SARREGUEMINES","avNom":"FREY","avPrenom":"Camille","cbRaisonSociale":"DIVALEX CONSEILS","cbSiretSiren":"899384812","cbAdresse1":"04 Place Sibille","cbAdresse2":"","cbCp":"57200","cbVille":"SARREGUEMINES","spLibelle1":"","spLibelle2":"","acDateSerment":"","coordinates":[7.0687358,49.1085072]},{"NomBarreau":"SARREGUEMINES","avNom":"FREYERMUTH-CRISTACHE","avPrenom":"Adriana","cbRaisonSociale":"FREYERMUTH-CRISTACHE ADRIANA","cbSiretSiren":"805043890","cbAdresse1":"4 rue du Parc","cbAdresse2":"","cbCp":"57200","cbVille":"SARREGUEMINES","spLibelle1":"","spLibelle2":"","acDateSerment":"","coordinates":[7.067805,49.10894]},{"NomBarreau":"SARREGUEMINES","avNom":"GAGNEUX","avPrenom":"Martial","cbRaisonSociale":"MARTIAL GAGNEUX FANNY CARA","cbSiretSiren":"847668563","cbAdresse1":"14 rue de la Chapelle","cbAdresse2":"","cbCp":"57200","cbVille":"SARREGUEMINES","spLibelle1":"","spLibelle2":"","acDateSerment":"","coordinates":[7.164401,49.083735]},{"NomBarreau":"SARREGUEMINES","avNom":"GROSS","avPrenom":"Laura","cbRaisonSociale":"GROSS LAURA","cbSiretSiren":"892536145","cbAdresse1":"4 rue du Palais","cbAdresse2":"","cbCp":"57200","cbVille":"SARREGUEMINES","spLibelle1":"","spLibelle2":"","acDateSerment":"","coordinates":[7.068457,49.10905]},{"NomBarreau":"SARREGUEMINES","avNom":"HENNARD","avPrenom":"Armand","cbRaisonSociale":"ODENHEIMER ET HENNARD","cbSiretSiren":"340151182","cbAdresse1":"21 rue de la Paix","cbAdresse2":"","cbCp":"57200","cbVille":"SARREGUEMINES","spLibelle1":"Droit commercial, des affaires et de la concurrence","spLibelle2":"Droit immobilier","acDateSerment":"","coordinates":[7.0662,49.113126]},{"NomBarreau":"SARREGUEMINES","avNom":"HOFFMANN","avPrenom":"Bertrand","cbRaisonSociale":"HOFFMANN BERTRAND","cbSiretSiren":"318453180","cbAdresse1":"24 rue du Marquis de Chamborand","cbAdresse2":"","cbCp":"57200","cbVille":"SARREGUEMINES","spLibelle1":"Droit commercial, des affaires et de la concurrence","spLibelle2":"Droit international et de l'Union européenne","acDateSerment":"","coordinates":[7.070055,49.108363]},{"NomBarreau":"SARREGUEMINES","avNom":"HUM","avPrenom":"Angélique","cbRaisonSociale":"HUM ET SCHWARTZ","cbSiretSiren":"780033551","cbAdresse1":"08 RUE PASTEUR","cbAdresse2":"","cbCp":"57200","cbVille":"SARREGUEMINES","spLibelle1":"","spLibelle2":"","acDateSerment":"","coordinates":[7.1791814,49.1179596]},{"NomBarreau":"SARREGUEMINES","avNom":"HUTT","avPrenom":"Philippe","cbRaisonSociale":"HUTT PHILIPPE","cbSiretSiren":"348431149","cbAdresse1":"13 rue des Vosges","cbAdresse2":"","cbCp":"57200","cbVille":"SARREGUEMINES","spLibelle1":"","spLibelle2":"","acDateSerment":"","coordinates":[7.067383,49.108721]},{"NomBarreau":"SARREGUEMINES","avNom":"KELLER","avPrenom":"Manuel","cbRaisonSociale":"ALT ET KELLER","cbSiretSiren":"780033593","cbAdresse1":"4 rue du Palais","cbAdresse2":"","cbCp":"57200","cbVille":"SARREGUEMINES","spLibelle1":"","spLibelle2":"","acDateSerment":"","coordinates":[7.068457,49.10905]},{"NomBarreau":"SARREGUEMINES","avNom":"KEMMER","avPrenom":"Bettina","cbRaisonSociale":"KEMMER","cbSiretSiren":"380982165","cbAdresse1":"22 rue du Blauberg","cbAdresse2":"","cbCp":"57200","cbVille":"SARREGUEMINES","spLibelle1":"","spLibelle2":"","acDateSerment":"","coordinates":[7.066039,49.104194]},{"NomBarreau":"SARREGUEMINES","avNom":"METZGER","avPrenom":"Isabelle","cbRaisonSociale":"METZGER","cbSiretSiren":"394235410","cbAdresse1":"13 PLACE DU MARCHE","cbAdresse2":"","cbCp":"57200","cbVille":"SARREGUEMINES","spLibelle1":"","spLibelle2":"","acDateSerment":"","coordinates":[7.0651407,49.1113446]},{"NomBarreau":"SARREGUEMINES","avNom":"METZINGER","avPrenom":"Colette","cbRaisonSociale":"METZINGER COLETTE","cbSiretSiren":"334946233","cbAdresse1":"33 rue Raymond POINCARE","cbAdresse2":"","cbCp":"57200","cbVille":"SARREGUEMINES","spLibelle1":"","spLibelle2":"","acDateSerment":"","coordinates":[7.0717338,49.1065327]},{"NomBarreau":"SARREGUEMINES","avNom":"MICLO","avPrenom":"Jean-Christophe","cbRaisonSociale":"MICLO JEAN-CHRISTOPHE","cbSiretSiren":"817895741","cbAdresse1":"08 rue Louis Pasteur","cbAdresse2":"","cbCp":"57200","cbVille":"SARREGUEMINES","spLibelle1":"","spLibelle2":"","acDateSerment":"","coordinates":[7.0701463,49.1114359]},{"NomBarreau":"SARREGUEMINES","avNom":"OLONA","avPrenom":"Véronique","cbRaisonSociale":"OLONA","cbSiretSiren":"403372303","cbAdresse1":"3-5 rue de la Chapelle","cbAdresse2":"","cbCp":"57200","cbVille":"SARREGUEMINES","spLibelle1":"","spLibelle2":"","acDateSerment":"","coordinates":[7.1631392,49.088539]},{"NomBarreau":"SARREGUEMINES","avNom":"PIETERS-FIMBEL","avPrenom":"Nadia","cbRaisonSociale":"PIETERS-FIMBEL","cbSiretSiren":"342038676","cbAdresse1":"20 rue Nationale","cbAdresse2":"Résidence Elysée","cbCp":"57200","cbVille":"SARREGUEMINES","spLibelle1":"Droit de la famille, des personnes et de leur patrimoine","spLibelle2":"Droit du crédit et de la consommation","acDateSerment":"","coordinates":[7.066888,49.111137]},{"NomBarreau":"SARREGUEMINES","avNom":"SCHWARTZ","avPrenom":"Mathieu","cbRaisonSociale":"HUM ET SCHWARTZ","cbSiretSiren":"780033551","cbAdresse1":"08 RUE PASTEUR","cbAdresse2":"","cbCp":"57200","cbVille":"SARREGUEMINES","spLibelle1":"","spLibelle2":"","acDateSerment":"","coordinates":[7.1791814,49.1179596]},{"NomBarreau":"SARREGUEMINES","avNom":"SMANIA","avPrenom":"Natacha","cbRaisonSociale":"SMANIA NATACHA","cbSiretSiren":"","cbAdresse1":"32 rue Jean Jacques KIEFFER","cbAdresse2":"","cbCp":"57200","cbVille":"SARREGUEMINES","spLibelle1":"","spLibelle2":"","acDateSerment":"","coordinates":[7.0760295,49.1204249]},{"NomBarreau":"SARREGUEMINES","avNom":"SPRETNJAK","avPrenom":"Danièla","cbRaisonSociale":"SPRETNJAK DANIELA","cbSiretSiren":"808914303","cbAdresse1":"4 rue du Parc","cbAdresse2":"","cbCp":"57200","cbVille":"SARREGUEMINES","spLibelle1":"","spLibelle2":"","acDateSerment":"","coordinates":[7.067805,49.10894]},{"NomBarreau":"SARREGUEMINES","avNom":"TOMASCHEWSKI","avPrenom":"Hervé","cbRaisonSociale":"LEX HOMINIS AVOCATS","cbSiretSiren":"882460942","cbAdresse1":"13 rue des Vosges","cbAdresse2":"","cbCp":"57200","cbVille":"SARREGUEMINES","spLibelle1":"","spLibelle2":"","acDateSerment":"","coordinates":[7.067383,49.108721]},{"NomBarreau":"SARREGUEMINES","avNom":"WEHR","avPrenom":"Julien","cbRaisonSociale":"WEHR JULIEN","cbSiretSiren":"825328453","cbAdresse1":"01 rue de la Montagne","cbAdresse2":"","cbCp":"57200","cbVille":"SARREGUEMINES","spLibelle1":"","spLibelle2":"","acDateSerment":"","coordinates":[7.0655806,49.1102855]}]