[{"NomBarreau":"SAUMUR","avNom":"BABA","avPrenom":"Meriem","cbRaisonSociale":"ABM ","cbSiretSiren":"824852800","cbAdresse1":"2 rue du Puits Tribouillet","cbAdresse2":"","cbCp":"49400","cbVille":"SAUMUR","spLibelle1":"","spLibelle2":"","acDateSerment":"","coordinates":[-0.0772656,47.2589077]},{"NomBarreau":"SAUMUR","avNom":"BARON","avPrenom":"Diane","cbRaisonSociale":"LEXCAP ","cbSiretSiren":"424442333","cbAdresse1":"17 avenue David d'Angers","cbAdresse2":"","cbCp":"49400","cbVille":"SAUMUR","spLibelle1":"","spLibelle2":"","acDateSerment":"","coordinates":[-0.0720716,47.2696538]},{"NomBarreau":"SAUMUR","avNom":"BENOIT","avPrenom":"Marie ","cbRaisonSociale":"BENOIT  MARIE ","cbSiretSiren":"834774747","cbAdresse1":"5 avenue du Docteur Peton","cbAdresse2":"","cbCp":"49400","cbVille":"SAUMUR","spLibelle1":"","spLibelle2":"","acDateSerment":"","coordinates":[-0.0761514,47.2563264]},{"NomBarreau":"SAUMUR","avNom":"BOSSE","avPrenom":"Karine","cbRaisonSociale":"BOSSE KARINE","cbSiretSiren":"492227111","cbAdresse1":"6 Place Maupassant","cbAdresse2":"","cbCp":"49400","cbVille":"SAUMUR","spLibelle1":"","spLibelle2":"","acDateSerment":"","coordinates":[-0.081260040233339,47.2573082]},{"NomBarreau":"SAUMUR","avNom":"CAO","avPrenom":"Paul","cbRaisonSociale":"IN-LEXIS","cbSiretSiren":"509769329","cbAdresse1":"5 Quai Comte Lair","cbAdresse2":"2ème étage - secteur 310","cbCp":"49400","cbVille":"SAUMUR","spLibelle1":"","spLibelle2":"","acDateSerment":"","coordinates":[-0.0726591,47.2658074]},{"NomBarreau":"SAUMUR","avNom":"COUVREUX EGAL","avPrenom":"Christine","cbRaisonSociale":"AVOCATS CONSEILS ASSOCIES BERTON-COUVREUX-EON-GRATON","cbSiretSiren":"394734693","cbAdresse1":"16 avenue David d'ANGERS","cbAdresse2":"BERTON-COUVREUX-EON-GRATON","cbCp":"49400","cbVille":"SAUMUR","spLibelle1":"Droit de la famille, des personnes et de leur patrimoine","spLibelle2":"Droit du dommage corporel","acDateSerment":"","coordinates":[-0.0720716,47.2696538]},{"NomBarreau":"SAUMUR","avNom":"DEVAUD","avPrenom":"Magali","cbRaisonSociale":"CONFLUENCES AVOCATS ","cbSiretSiren":"451896625","cbAdresse1":"5 avenue du Docteur Peton","cbAdresse2":"","cbCp":"49400","cbVille":"SAUMUR","spLibelle1":"","spLibelle2":"","acDateSerment":"","coordinates":[-0.0761514,47.2563264]},{"NomBarreau":"SAUMUR","avNom":"DURANT","avPrenom":"Juliette ","cbRaisonSociale":"DURANT  JULIETTE","cbSiretSiren":"908599616","cbAdresse1":"2 rue du Puits Tribouillet","cbAdresse2":"","cbCp":"49400","cbVille":"SAUMUR","spLibelle1":"","spLibelle2":"","acDateSerment":"","coordinates":[-0.0772656,47.2589077]},{"NomBarreau":"SAUMUR","avNom":"GOHIER","avPrenom":"Elisabeth","cbRaisonSociale":"GOHIER ELISABETH","cbSiretSiren":"400213336","cbAdresse1":"9 Rue Montesquieu","cbAdresse2":"","cbCp":"49400","cbVille":"SAUMUR","spLibelle1":"","spLibelle2":"","acDateSerment":"","coordinates":[-0.0727588,47.2589347]},{"NomBarreau":"SAUMUR","avNom":"HUGOT","avPrenom":"Paul","cbRaisonSociale":"LEXCAP ","cbSiretSiren":"424442333","cbAdresse1":"17 avenue David d'Angers","cbAdresse2":"","cbCp":"49400","cbVille":"SAUMUR","spLibelle1":"","spLibelle2":"","acDateSerment":"","coordinates":[-0.0720716,47.2696538]},{"NomBarreau":"SAUMUR","avNom":"KERRACHI","avPrenom":"Louise","cbRaisonSociale":"KERRACHI LOUISE","cbSiretSiren":"480504000","cbAdresse1":"9 rue Montesquieu","cbAdresse2":"","cbCp":"49400","cbVille":"SAUMUR","spLibelle1":"","spLibelle2":"","acDateSerment":"","coordinates":[-0.0727588,47.2589347]},{"NomBarreau":"SAUMUR","avNom":"MESCHIN","avPrenom":"Jean Philippe","cbRaisonSociale":"CHAINTRIER AVOCATS","cbSiretSiren":"542063664","cbAdresse1":"33 place de la Bilange","cbAdresse2":"","cbCp":"49400","cbVille":"SAUMUR","spLibelle1":"Droit public","spLibelle2":"","acDateSerment":"","coordinates":[-0.0769232,47.2613081]},{"NomBarreau":"SAUMUR","avNom":"SAQUER-DENIAU","avPrenom":"Marilyne","cbRaisonSociale":"LEXCAP ","cbSiretSiren":"424442333","cbAdresse1":"17 avenue David d'Angers","cbAdresse2":"","cbCp":"49400","cbVille":"SAUMUR","spLibelle1":"","spLibelle2":"","acDateSerment":"","coordinates":[-0.0720716,47.2696538]},{"NomBarreau":"SAUMUR","avNom":"TERLAIN","avPrenom":"Nicolas","cbRaisonSociale":"ASTROLABE AVOCATS","cbSiretSiren":"819319773","cbAdresse1":"36 Bis Rue Dacier","cbAdresse2":"","cbCp":"49400","cbVille":"SAUMUR","spLibelle1":"","spLibelle2":"","acDateSerment":"","coordinates":[-0.0785323,47.259465]},{"NomBarreau":"SAUMUR","avNom":"VAILLANT","avPrenom":"Olivier","cbRaisonSociale":"VAILLANT OLIVIER","cbSiretSiren":"434596631","cbAdresse1":"6 place Maupassant","cbAdresse2":"","cbCp":"49400","cbVille":"SAUMUR","spLibelle1":"","spLibelle2":"","acDateSerment":"","coordinates":[-0.081260040233339,47.2573082]}]