[{"NomBarreau":"SENLIS","avNom":"ALHAS","avPrenom":"Dilan","cbRaisonSociale":"ALHAS ","cbSiretSiren":"895179992","cbAdresse1":"17 avenue Foch","cbAdresse2":"","cbCp":"60300","cbVille":"SENLIS","spLibelle1":"","spLibelle2":"","acDateSerment":"","coordinates":[2.590754750263157,49.20875975]},{"NomBarreau":"SENLIS","avNom":"BABILOTTE BASKE","avPrenom":"Alexandre","cbRaisonSociale":"BABILOTTE BASKE","cbSiretSiren":"451583116","cbAdresse1":"39-41 place de la Halle","cbAdresse2":"","cbCp":"60300","cbVille":"SENLIS","spLibelle1":"","spLibelle2":"","acDateSerment":"","coordinates":[2.585853026508579,49.205244]},{"NomBarreau":"SENLIS","avNom":"BARDIOT","avPrenom":"Valérie","cbRaisonSociale":"BARDIOT","cbSiretSiren":"411833825","cbAdresse1":"6-8 rue de Creil","cbAdresse2":"","cbCp":"60300","cbVille":"SENLIS","spLibelle1":"","spLibelle2":"","acDateSerment":"","coordinates":[2.4766579,49.271793]},{"NomBarreau":"SENLIS","avNom":"BLANC-BOILEAU","avPrenom":"Isabelle","cbRaisonSociale":"DEJANS ","cbSiretSiren":"329198493","cbAdresse1":"17 avenue Foch","cbAdresse2":"","cbCp":"60300","cbVille":"SENLIS","spLibelle1":"","spLibelle2":"","acDateSerment":"","coordinates":[2.590754750263157,49.20875975]},{"NomBarreau":"SENLIS","avNom":"BOUGOUFA","avPrenom":"Sabrina","cbRaisonSociale":"BOUGOUFA","cbSiretSiren":"790636690","cbAdresse1":"42 avenue Foch","cbAdresse2":"","cbCp":"60300","cbVille":"SENLIS","spLibelle1":"","spLibelle2":"","acDateSerment":"","coordinates":[2.5920134,49.2092737]},{"NomBarreau":"SENLIS","avNom":"BOUQUET","avPrenom":"Margaux","cbRaisonSociale":"BOUQUET ","cbSiretSiren":"891432742","cbAdresse1":"2 rue Odent","cbAdresse2":"","cbCp":"60300","cbVille":"SENLIS","spLibelle1":"","spLibelle2":"","acDateSerment":"","coordinates":[2.5869636,49.2047152]},{"NomBarreau":"SENLIS","avNom":"CAZELLES","avPrenom":"Cyrielle","cbRaisonSociale":"DEJANS ","cbSiretSiren":"329198493","cbAdresse1":"17 avenue Foch","cbAdresse2":"","cbCp":"60300","cbVille":"SENLIS","spLibelle1":"","spLibelle2":"","acDateSerment":"","coordinates":[2.590754750263157,49.20875975]},{"NomBarreau":"SENLIS","avNom":"DE BAILLIENCOURT","avPrenom":"Christian","cbRaisonSociale":"DRYE DE BAILLIENCOURT ET ASSOCIES","cbSiretSiren":"300691490","cbAdresse1":"29 rue de Villevert","cbAdresse2":"","cbCp":"60300","cbVille":"SENLIS","spLibelle1":"Droit des sociétés","spLibelle2":"","acDateSerment":"","coordinates":[2.5857091,49.2083008]},{"NomBarreau":"SENLIS","avNom":"DEVRED","avPrenom":"Justine","cbRaisonSociale":"SAINT FRAMBOURG AVOCATS","cbSiretSiren":"909071284","cbAdresse1":"2 Rue Odent","cbAdresse2":"","cbCp":"60300","cbVille":"SENLIS","spLibelle1":"","spLibelle2":"","acDateSerment":"","coordinates":[2.5869636,49.2047152]},{"NomBarreau":"SENLIS","avNom":"DRAIN","avPrenom":"Manon","cbRaisonSociale":"DRAIN ","cbSiretSiren":"800826752","cbAdresse1":"29 rue de Villevert","cbAdresse2":"","cbCp":"60300","cbVille":"SENLIS","spLibelle1":"","spLibelle2":"","acDateSerment":"","coordinates":[2.5857091,49.2083008]},{"NomBarreau":"SENLIS","avNom":"DRYE","avPrenom":"Bruno","cbRaisonSociale":"DRYE DE BAILLIENCOURT ET ASSOCIES","cbSiretSiren":"300691490","cbAdresse1":"29 rue de Villevert","cbAdresse2":"","cbCp":"60300","cbVille":"SENLIS","spLibelle1":"Droit commercial, des affaires et de la concurrence","spLibelle2":"Droit du travail","acDateSerment":"","coordinates":[2.5857091,49.2083008]},{"NomBarreau":"SENLIS","avNom":"FONTAINE-TARDU","avPrenom":"Amandine","cbRaisonSociale":"FONTAINE-TARDU","cbSiretSiren":"891891673","cbAdresse1":"19 Rue Bellon","cbAdresse2":"","cbCp":"60300","cbVille":"SENLIS","spLibelle1":"","spLibelle2":"","acDateSerment":"","coordinates":[2.588421176388992,49.2057446]},{"NomBarreau":"SENLIS","avNom":"FOUQUE","avPrenom":"Noémie","cbRaisonSociale":"DEJANS ","cbSiretSiren":"329198493","cbAdresse1":"17 avenue Foch","cbAdresse2":"","cbCp":"60300","cbVille":"SENLIS","spLibelle1":"","spLibelle2":"","acDateSerment":"","coordinates":[2.590754750263157,49.20875975]},{"NomBarreau":"SENLIS","avNom":"GUILLON-DELLIS","avPrenom":"Pascale","cbRaisonSociale":"GUILLON DELLIS","cbSiretSiren":"518465497","cbAdresse1":"4-5 place aux veaux","cbAdresse2":"","cbCp":"60300","cbVille":"SENLIS","spLibelle1":"","spLibelle2":"","acDateSerment":"","coordinates":[2.5825341,49.2047318]},{"NomBarreau":"SENLIS","avNom":"KIEKEN","avPrenom":"Audrey","cbRaisonSociale":"KIEKEN","cbSiretSiren":"480694629","cbAdresse1":"19 Rue Bellon","cbAdresse2":"","cbCp":"60300","cbVille":"SENLIS","spLibelle1":"","spLibelle2":"","acDateSerment":"","coordinates":[2.588421176388992,49.2057446]},{"NomBarreau":"SENLIS","avNom":"LAERMANS","avPrenom":"Peggy","cbRaisonSociale":"LAERMANS","cbSiretSiren":"434982021","cbAdresse1":"4-5 place aux veaux","cbAdresse2":"","cbCp":"60300","cbVille":"SENLIS","spLibelle1":"","spLibelle2":"","acDateSerment":"","coordinates":[2.5825341,49.2047318]},{"NomBarreau":"SENLIS","avNom":"MAIGRET","avPrenom":"Isabelle","cbRaisonSociale":"DRYE DE BAILLIENCOURT ET ASSOCIES","cbSiretSiren":"300691490","cbAdresse1":"29 rue de Villevert","cbAdresse2":"","cbCp":"60300","cbVille":"SENLIS","spLibelle1":"","spLibelle2":"","acDateSerment":"","coordinates":[2.5857091,49.2083008]},{"NomBarreau":"SENLIS","avNom":"PAULET","avPrenom":"Amélie","cbRaisonSociale":"PAULET ","cbSiretSiren":"879341931","cbAdresse1":"29 rue de Villevert","cbAdresse2":"","cbCp":"60300","cbVille":"SENLIS","spLibelle1":"","spLibelle2":"","acDateSerment":"","coordinates":[2.5857091,49.2083008]},{"NomBarreau":"SENLIS","avNom":"REMOISSONNET","avPrenom":"Sandrine","cbRaisonSociale":"REMOISSONNET ","cbSiretSiren":"395003635","cbAdresse1":"5 Place aux Veaux","cbAdresse2":"","cbCp":"60300","cbVille":"SENLIS","spLibelle1":"","spLibelle2":"","acDateSerment":"","coordinates":[2.5825341,49.2047318]},{"NomBarreau":"SENLIS","avNom":"ROIG","avPrenom":"Sabine","cbRaisonSociale":"SAINT FRAMBOURG AVOCATS","cbSiretSiren":"909071284","cbAdresse1":"2 Rue Odent","cbAdresse2":"","cbCp":"60300","cbVille":"SENLIS","spLibelle1":"","spLibelle2":"","acDateSerment":"","coordinates":[2.5869636,49.2047152]},{"NomBarreau":"SENLIS","avNom":"ROQUES","avPrenom":"Thibaut","cbRaisonSociale":"DRYE DE BAILLIENCOURT ET ASSOCIES","cbSiretSiren":"300691490","cbAdresse1":"29 rue de Villevert","cbAdresse2":"","cbCp":"60300","cbVille":"SENLIS","spLibelle1":"","spLibelle2":"","acDateSerment":"","coordinates":[2.5857091,49.2083008]},{"NomBarreau":"SENLIS","avNom":"VANOUTRYVE","avPrenom":"Delphine","cbRaisonSociale":"DRYE DE BAILLIENCOURT ET ASSOCIES","cbSiretSiren":"300691490","cbAdresse1":"29 rue de Villevert","cbAdresse2":"","cbCp":"60300","cbVille":"SENLIS","spLibelle1":"","spLibelle2":"","acDateSerment":"","coordinates":[2.5857091,49.2083008]},{"NomBarreau":"SENLIS","avNom":"VIGNER","avPrenom":"Anne","cbRaisonSociale":"VIGNER","cbSiretSiren":"481454999","cbAdresse1":"4-5 place aux veaux","cbAdresse2":"","cbCp":"60300","cbVille":"SENLIS","spLibelle1":"","spLibelle2":"","acDateSerment":"","coordinates":[2.5825341,49.2047318]}]