[{"NomBarreau":"SAINT-ETIENNE","avNom":"ABADA","avPrenom":"Houda","cbRaisonSociale":"ABADA","cbSiretSiren":"892214487","cbAdresse1":"14 rue Georges Teissier","cbAdresse2":"","cbCp":"42000","cbVille":"ST ETIENNE","spLibelle1":"","spLibelle2":"","acDateSerment":"","coordinates":[4.3856329,45.4373243]},{"NomBarreau":"SAINT-ETIENNE","avNom":"AZOULAY","avPrenom":"Cécile","cbRaisonSociale":"ALTICIAL","cbSiretSiren":"911247526","cbAdresse1":"1 Place Dorian","cbAdresse2":"","cbCp":"42000","cbVille":"ST ETIENNE","spLibelle1":"","spLibelle2":"","acDateSerment":"","coordinates":[4.3885558,45.4385762]},{"NomBarreau":"SAINT-ETIENNE","avNom":"BAHRI","avPrenom":"Ekaterina","cbRaisonSociale":"BAHRI EKATERINA","cbSiretSiren":"821729852","cbAdresse1":"7 Place Jean Moulin","cbAdresse2":"","cbCp":"42000","cbVille":"ST ETIENNE","spLibelle1":"","spLibelle2":"","acDateSerment":"","coordinates":[4.392194776559712,45.4378159]},{"NomBarreau":"SAINT-ETIENNE","avNom":"BALIQUE","avPrenom":"Charlotte","cbRaisonSociale":"BALIQUE CHARLOTTE","cbSiretSiren":"749888277","cbAdresse1":"1 rue Emile Combes","cbAdresse2":"","cbCp":"42000","cbVille":"ST ETIENNE","spLibelle1":"","spLibelle2":"","acDateSerment":"","coordinates":[4.385135,45.4408842]},{"NomBarreau":"SAINT-ETIENNE","avNom":"BAYLE","avPrenom":"Benjamin","cbRaisonSociale":"BAYLE BENJAMIN","cbSiretSiren":"","cbAdresse1":"36 rue de Sully","cbAdresse2":"Villa des Roses","cbCp":"42100","cbVille":"ST ETIENNE","spLibelle1":"","spLibelle2":"","acDateSerment":"","coordinates":[4.4120699,45.4381112]},{"NomBarreau":"SAINT-ETIENNE","avNom":"BERTRAND-HEBRARD","avPrenom":"Corinne","cbRaisonSociale":"BERTRAND-HEBRARD CORINNE","cbSiretSiren":"434878211","cbAdresse1":"10 Place Dorian","cbAdresse2":"","cbCp":"42000","cbVille":"ST ETIENNE","spLibelle1":"","spLibelle2":"","acDateSerment":"","coordinates":[4.3887036,45.4385591]},{"NomBarreau":"SAINT-ETIENNE","avNom":"BLANCHARD","avPrenom":"Hugo","cbRaisonSociale":"BLANCHARD HUGO","cbSiretSiren":"893465096","cbAdresse1":"36 rue de Sully","cbAdresse2":"Villa des Roses","cbCp":"42100","cbVille":"ST ETIENNE","spLibelle1":"","spLibelle2":"","acDateSerment":"","coordinates":[4.4120699,45.4381112]},{"NomBarreau":"SAINT-ETIENNE","avNom":"BOURGALET","avPrenom":"Charlotte","cbRaisonSociale":"BOURGALET CHARLOTTE","cbSiretSiren":"","cbAdresse1":"5 PLACE JEAN JAURES","cbAdresse2":"ALLEE A - 4EME ETAGE","cbCp":"42000","cbVille":"ST ETIENNE","spLibelle1":"","spLibelle2":"","acDateSerment":"","coordinates":[4.385662514846079,45.441299]},{"NomBarreau":"SAINT-ETIENNE","avNom":"BOURGEOIS","avPrenom":"Laurent","cbRaisonSociale":"BOURGEOIS LAURENT","cbSiretSiren":"533749917","cbAdresse1":"17 A Rue de la Presse","cbAdresse2":"","cbCp":"42950","cbVille":"ST ETIENNE","spLibelle1":"","spLibelle2":"","acDateSerment":"","coordinates":[4.3987749,45.4559161]},{"NomBarreau":"SAINT-ETIENNE","avNom":"BOUTEILLE","avPrenom":"Amélie","cbRaisonSociale":"BOUTEILLE AMELIE","cbSiretSiren":"790318794","cbAdresse1":"8 rue Sainte Catherine","cbAdresse2":"","cbCp":"42000","cbVille":"ST ETIENNE","spLibelle1":"","spLibelle2":"","acDateSerment":"","coordinates":[4.3867236,45.4369565]},{"NomBarreau":"SAINT-ETIENNE","avNom":"CHABRIER","avPrenom":"Hélène","cbRaisonSociale":"FOURNAND-CHABRIER","cbSiretSiren":"502198575","cbAdresse1":"10 rue Jacques Desgeorges","cbAdresse2":"","cbCp":"42100","cbVille":"ST ETIENNE","spLibelle1":"","spLibelle2":"","acDateSerment":"","coordinates":[4.3837783,45.4384627]},{"NomBarreau":"SAINT-ETIENNE","avNom":"CHARLET-FOUGEROUSE","avPrenom":"Delphine","cbRaisonSociale":"DELPHINE CHARLET AVOCAT","cbSiretSiren":"894805860","cbAdresse1":"145 rue de la Montat","cbAdresse2":"5 U  7 Allée du Pont de l'Ane","cbCp":"42000","cbVille":"ST ETIENNE","spLibelle1":"","spLibelle2":"","acDateSerment":"","coordinates":[4.413439,45.4432564]},{"NomBarreau":"SAINT-ETIENNE","avNom":"DI BENEDETTO","avPrenom":"Michel","cbRaisonSociale":"AERIS CONSEILS","cbSiretSiren":"888966926","cbAdresse1":"12-14 rue Jean Snella","cbAdresse2":"Espace Juri-Entreprises","cbCp":"42000","cbVille":"ST ETIENNE","spLibelle1":"","spLibelle2":"","acDateSerment":"","coordinates":[4.3878016,45.4555802]},{"NomBarreau":"SAINT-ETIENNE","avNom":"DJABALLAH","avPrenom":"Yanis","cbRaisonSociale":"DJABALLAH YANIS","cbSiretSiren":"848218194","cbAdresse1":"6 Place Jacquard","cbAdresse2":"","cbCp":"42000","cbVille":"ST ETIENNE","spLibelle1":"","spLibelle2":"","acDateSerment":"","coordinates":[4.3826736,45.4417452]},{"NomBarreau":"SAINT-ETIENNE","avNom":"DREVET-RIVAL","avPrenom":"Nathalie","cbRaisonSociale":"DREVET-RIVAL  ROUSSET","cbSiretSiren":"449338706","cbAdresse1":"4 Rue Michelet","cbAdresse2":"","cbCp":"42000","cbVille":"ST ETIENNE","spLibelle1":"","spLibelle2":"","acDateSerment":"","coordinates":[4.3891599,45.4368909]},{"NomBarreau":"SAINT-ETIENNE","avNom":"DUMAS","avPrenom":"Ulric","cbRaisonSociale":"VIA JURIS CORPORATE","cbSiretSiren":"912382447","cbAdresse1":"36 RUE DE SULLY","cbAdresse2":"","cbCp":"42000","cbVille":"ST ETIENNE","spLibelle1":"Droit des sociétés","spLibelle2":"","acDateSerment":"","coordinates":[4.4120699,45.4381112]},{"NomBarreau":"SAINT-ETIENNE","avNom":"ESPESSON","avPrenom":"Gérard","cbRaisonSociale":"VIA JURIS CORPORATE","cbSiretSiren":"912382447","cbAdresse1":"36 RUE DE SULLY","cbAdresse2":"","cbCp":"42000","cbVille":"ST ETIENNE","spLibelle1":"Droit des sociétés","spLibelle2":"","acDateSerment":"","coordinates":[4.4120699,45.4381112]},{"NomBarreau":"SAINT-ETIENNE","avNom":"FARIZON","avPrenom":"Charlotte","cbRaisonSociale":"FARIZON CHARLOTTE","cbSiretSiren":"809542897","cbAdresse1":"25 Cours Victor Hugo","cbAdresse2":"","cbCp":"42000","cbVille":"ST ETIENNE","spLibelle1":"","spLibelle2":"","acDateSerment":"","coordinates":[4.3885229,45.432241]},{"NomBarreau":"SAINT-ETIENNE","avNom":"FAYE","avPrenom":"Clémentine","cbRaisonSociale":"FAYE CLEMENTINE","cbSiretSiren":"844700955","cbAdresse1":"36 rue de Sully","cbAdresse2":"Villa des Roses","cbCp":"42100","cbVille":"ST ETIENNE","spLibelle1":"","spLibelle2":"","acDateSerment":"","coordinates":[4.4120699,45.4381112]},{"NomBarreau":"SAINT-ETIENNE","avNom":"FERRON","avPrenom":"Julie","cbRaisonSociale":"FERRON JULIE","cbSiretSiren":"800001109","cbAdresse1":"10 Place Dorian","cbAdresse2":"","cbCp":"42000","cbVille":"ST ETIENNE","spLibelle1":"","spLibelle2":"","acDateSerment":"","coordinates":[4.3887036,45.4385591]},{"NomBarreau":"SAINT-ETIENNE","avNom":"FOURNAND","avPrenom":"Stéphane","cbRaisonSociale":"FOURNAND-CHABRIER","cbSiretSiren":"502198575","cbAdresse1":"10 rue Jacques Desgeorges","cbAdresse2":"","cbCp":"42100","cbVille":"ST ETIENNE","spLibelle1":"","spLibelle2":"","acDateSerment":"","coordinates":[4.3837783,45.4384627]},{"NomBarreau":"SAINT-ETIENNE","avNom":"FRANQUET","avPrenom":"Natacha","cbRaisonSociale":"FRANQUET NATACHA","cbSiretSiren":"411815798","cbAdresse1":"1 Rue Antoine Roule","cbAdresse2":"","cbCp":"42000","cbVille":"ST ETIENNE","spLibelle1":"","spLibelle2":"","acDateSerment":"","coordinates":[4.3886136,45.4339863]},{"NomBarreau":"SAINT-ETIENNE","avNom":"GATTI","avPrenom":"Marie Charlotte","cbRaisonSociale":"GATTI MARIE CHARLOTTE","cbSiretSiren":"799749585","cbAdresse1":"7 Place Jean Moulin","cbAdresse2":"","cbCp":"42100","cbVille":"ST ETIENNE","spLibelle1":"","spLibelle2":"","acDateSerment":"","coordinates":[4.6811609,45.4178825]},{"NomBarreau":"SAINT-ETIENNE","avNom":"GAUCHER","avPrenom":"Christian","cbRaisonSociale":"GAUCHER CHRISTIAN","cbSiretSiren":"343387304","cbAdresse1":"10 Place Dorian","cbAdresse2":"","cbCp":"42000","cbVille":"ST ETIENNE","spLibelle1":"","spLibelle2":"","acDateSerment":"","coordinates":[4.3887036,45.4385591]},{"NomBarreau":"SAINT-ETIENNE","avNom":"GAVORY","avPrenom":"Chloé","cbRaisonSociale":"GAVORY CHLOE","cbSiretSiren":"834373102","cbAdresse1":"3 PLACE ANATOLE FRANCE","cbAdresse2":"","cbCp":"42000","cbVille":"ST ETIENNE","spLibelle1":"","spLibelle2":"","acDateSerment":"","coordinates":[4.3899714,45.4309783]},{"NomBarreau":"SAINT-ETIENNE","avNom":"GHEURBI","avPrenom":"Sophia","cbRaisonSociale":"GHEURBI SOPHIA","cbSiretSiren":"902117647","cbAdresse1":"89 RUE MARENGO","cbAdresse2":"","cbCp":"42000","cbVille":"ST ETIENNE","spLibelle1":"","spLibelle2":"","acDateSerment":"","coordinates":[4.3833349,45.4481944]},{"NomBarreau":"SAINT-ETIENNE","avNom":"GORGE","avPrenom":"Muriel","cbRaisonSociale":"CABINET D'AVOCATS MURIEL GORGE - VIOLAINE PEYRACHE","cbSiretSiren":"810219147","cbAdresse1":"183 RUE BERGSON","cbAdresse2":"","cbCp":"42000","cbVille":"ST ETIENNE","spLibelle1":"Droit de la sécurité sociale et de la protection sociale","spLibelle2":"Droit du travail","acDateSerment":"","coordinates":[4.3816529,45.4587119]},{"NomBarreau":"SAINT-ETIENNE","avNom":"HISS","avPrenom":"Xavier","cbRaisonSociale":"SVMH CONSEIL","cbSiretSiren":"915284822","cbAdresse1":"3 PLACE ANATOLE FRANCE","cbAdresse2":"","cbCp":"42000","cbVille":"ST ETIENNE","spLibelle1":"","spLibelle2":"","acDateSerment":"","coordinates":[4.3899714,45.4309783]},{"NomBarreau":"SAINT-ETIENNE","avNom":"HUGUET","avPrenom":"Stéphane","cbRaisonSociale":"HUGUET STEPHANE","cbSiretSiren":"893394940","cbAdresse1":"36 rue de Sully","cbAdresse2":"Villa des Roses","cbCp":"42100","cbVille":"ST ETIENNE","spLibelle1":"","spLibelle2":"","acDateSerment":"","coordinates":[4.4120699,45.4381112]},{"NomBarreau":"SAINT-ETIENNE","avNom":"JOSSERAND","avPrenom":"Laurène","cbRaisonSociale":"JOSSERAND LAURENE","cbSiretSiren":"799655626","cbAdresse1":"69 Cours Fauriel","cbAdresse2":"","cbCp":"42000","cbVille":"ST ETIENNE","spLibelle1":"","spLibelle2":"","acDateSerment":"","coordinates":[4.4058378,45.4260404]},{"NomBarreau":"SAINT-ETIENNE","avNom":"JUBAN","avPrenom":"Elodie","cbRaisonSociale":"JUBAN ELODIE","cbSiretSiren":"488276866","cbAdresse1":"7 PLACE JEAN MOULIN","cbAdresse2":"","cbCp":"42000","cbVille":"ST ETIENNE","spLibelle1":"","spLibelle2":"","acDateSerment":"","coordinates":[4.392194776559712,45.4378159]},{"NomBarreau":"SAINT-ETIENNE","avNom":"KIEFFER","avPrenom":"Elodie","cbRaisonSociale":"KIEFFER ELODIE","cbSiretSiren":"825024748","cbAdresse1":"7 rue Michel RONDET","cbAdresse2":"","cbCp":"42000","cbVille":"ST ETIENNE","spLibelle1":"","spLibelle2":"","acDateSerment":"","coordinates":[4.3865499,45.4382169]},{"NomBarreau":"SAINT-ETIENNE","avNom":"KNEUBUHLER","avPrenom":"Ophélie","cbRaisonSociale":"ENVIRONNEMENT DROIT PUBLIC","cbSiretSiren":"442998969","cbAdresse1":"15 rue de la Presse","cbAdresse2":"Batiment First Office","cbCp":"42000","cbVille":"ST ETIENNE","spLibelle1":"","spLibelle2":"","acDateSerment":"","coordinates":[4.3987749,45.4559161]},{"NomBarreau":"SAINT-ETIENNE","avNom":"LACHAUD","avPrenom":"Franck-Olivier","cbRaisonSociale":"FRANCK-OLIVIER LACHAUD","cbSiretSiren":"912382397","cbAdresse1":"1 RUE DE LA PRESSE","cbAdresse2":"LE MILLENIUM","cbCp":"42000","cbVille":"ST ETIENNE","spLibelle1":"","spLibelle2":"","acDateSerment":"","coordinates":[4.396381,45.4586878]},{"NomBarreau":"SAINT-ETIENNE","avNom":"LARABI-HADI","avPrenom":"Fatiha","cbRaisonSociale":"INTUITU AVOCAE","cbSiretSiren":"842441792","cbAdresse1":"10 rue Jacques Desgeorges","cbAdresse2":"","cbCp":"42000","cbVille":"ST ETIENNE","spLibelle1":"","spLibelle2":"","acDateSerment":"","coordinates":[4.3837783,45.4384627]},{"NomBarreau":"SAINT-ETIENNE","avNom":"LARGERON","avPrenom":"Nina","cbRaisonSociale":"LARGERON NINA","cbSiretSiren":"878617596","cbAdresse1":"5 rue Emile Combes","cbAdresse2":"","cbCp":"42000","cbVille":"ST ETIENNE","spLibelle1":"","spLibelle2":"","acDateSerment":"","coordinates":[4.3845261,45.4407997]},{"NomBarreau":"SAINT-ETIENNE","avNom":"LARMANDE","avPrenom":"Anne-Marie","cbRaisonSociale":"LARMANDE ANNE-MARIE","cbSiretSiren":"401875745","cbAdresse1":"183 rue de Bergson","cbAdresse2":"","cbCp":"42000","cbVille":"ST ETIENNE","spLibelle1":"Droit de la sécurité sociale et de la protection sociale","spLibelle2":"Droit du travail","acDateSerment":"","coordinates":[4.3820857,45.4568173]},{"NomBarreau":"SAINT-ETIENNE","avNom":"LOPEZ","avPrenom":"Héloise G.R","cbRaisonSociale":"LOPEZ HELOASE G.R","cbSiretSiren":"499585982","cbAdresse1":"2 rue Pierre Corneille","cbAdresse2":"","cbCp":"42000","cbVille":"ST ETIENNE","spLibelle1":"","spLibelle2":"","acDateSerment":"","coordinates":[4.3863534,45.4479818]},{"NomBarreau":"SAINT-ETIENNE","avNom":"MANEVAL-PASQUET","avPrenom":"Brigitte","cbRaisonSociale":"MANEVAL-PASQUET BRIGITTE","cbSiretSiren":"353152440","cbAdresse1":"89 rue Marengo","cbAdresse2":"","cbCp":"42000","cbVille":"ST ETIENNE","spLibelle1":"","spLibelle2":"","acDateSerment":"","coordinates":[4.3833349,45.4481944]},{"NomBarreau":"SAINT-ETIENNE","avNom":"MARCHAL","avPrenom":"Philippe","cbRaisonSociale":"MARCHAL PHILIPPE","cbSiretSiren":"399636836","cbAdresse1":"12 rue Jean Snella","cbAdresse2":"","cbCp":"42000","cbVille":"ST ETIENNE","spLibelle1":"","spLibelle2":"","acDateSerment":"","coordinates":[4.3878016,45.4555802]},{"NomBarreau":"SAINT-ETIENNE","avNom":"MATHIS","avPrenom":"Ludivine","cbRaisonSociale":"MATHIS LUDIVINE","cbSiretSiren":"833900368","cbAdresse1":"14 rue Georges Teissier","cbAdresse2":"","cbCp":"42000","cbVille":"ST ETIENNE","spLibelle1":"","spLibelle2":"","acDateSerment":"","coordinates":[4.3856329,45.4373243]},{"NomBarreau":"SAINT-ETIENNE","avNom":"MAZOYER","avPrenom":"Vicky","cbRaisonSociale":"MAZOYER VICKY","cbSiretSiren":"825023740","cbAdresse1":"15 rue Georges Teissier","cbAdresse2":"","cbCp":"42000","cbVille":"ST ETIENNE","spLibelle1":"","spLibelle2":"","acDateSerment":"","coordinates":[4.3854762,45.4372131]},{"NomBarreau":"SAINT-ETIENNE","avNom":"MEILLAND-PLANCHE","avPrenom":"Nathalie","cbRaisonSociale":"AERIS CONSEILS","cbSiretSiren":"888966926","cbAdresse1":"12-14 rue Jean Snella","cbAdresse2":"Espace Juri-Entreprises","cbCp":"42000","cbVille":"ST ETIENNE","spLibelle1":"Droit des sociétés","spLibelle2":"","acDateSerment":"","coordinates":[4.3878016,45.4555802]},{"NomBarreau":"SAINT-ETIENNE","avNom":"MERCIER","avPrenom":"Jean-Paul","cbRaisonSociale":"MERCIER JEAN-PAUL","cbSiretSiren":"401020177","cbAdresse1":"36 rue de Sully","cbAdresse2":"","cbCp":"42000","cbVille":"ST ETIENNE","spLibelle1":"Droit des sociétés","spLibelle2":"Droit fiscal et droit douanier","acDateSerment":"","coordinates":[4.4120699,45.4381112]},{"NomBarreau":"SAINT-ETIENNE","avNom":"METENIER-GRAND","avPrenom":"Sophie","cbRaisonSociale":"ENVIRONNEMENT DROIT PUBLIC","cbSiretSiren":"442998969","cbAdresse1":"15 rue de la Presse","cbAdresse2":"Batiment First Office","cbCp":"42000","cbVille":"ST ETIENNE","spLibelle1":"Droit de l'environnement","spLibelle2":"Droit public","acDateSerment":"","coordinates":[4.3987749,45.4559161]},{"NomBarreau":"SAINT-ETIENNE","avNom":"NADIM","avPrenom":"Marwane","cbRaisonSociale":"NADIM MARWANE","cbSiretSiren":"790171110","cbAdresse1":"3 Place du Palais de Justice","cbAdresse2":"","cbCp":"42000","cbVille":"ST ETIENNE","spLibelle1":"","spLibelle2":"","acDateSerment":"","coordinates":[4.3844708,45.4373407]},{"NomBarreau":"SAINT-ETIENNE","avNom":"NIORD","avPrenom":"Sylvain","cbRaisonSociale":"D.F.P & ASSOCIES","cbSiretSiren":"391854387","cbAdresse1":"6 RUE GERENTET","cbAdresse2":"","cbCp":"42000","cbVille":"ST ETIENNE","spLibelle1":"Droit immobilier","spLibelle2":"","acDateSerment":"","coordinates":[4.3876949,45.4402244]},{"NomBarreau":"SAINT-ETIENNE","avNom":"OULLION","avPrenom":"Gérard","cbRaisonSociale":"VIA JURIS","cbSiretSiren":"387797723","cbAdresse1":"36 rue de Sully","cbAdresse2":"Villa des Roses","cbCp":"42100","cbVille":"ST ETIENNE","spLibelle1":"Droit des sociétés","spLibelle2":"","acDateSerment":"","coordinates":[4.4120699,45.4381112]},{"NomBarreau":"SAINT-ETIENNE","avNom":"PARAS","avPrenom":"Jean-Charles","cbRaisonSociale":"PARAS JEAN-CHARLES","cbSiretSiren":"381069962","cbAdresse1":"17 RUE DE LA RESISTANCE","cbAdresse2":"","cbCp":"42000","cbVille":"ST ETIENNE","spLibelle1":"","spLibelle2":"","acDateSerment":"","coordinates":[4.3860421,45.4389081]},{"NomBarreau":"SAINT-ETIENNE","avNom":"PEYRACHE","avPrenom":"Violaine","cbRaisonSociale":"CABINET D'AVOCATS MURIEL GORGE - VIOLAINE PEYRACHE","cbSiretSiren":"810219147","cbAdresse1":"183 RUE BERGSON","cbAdresse2":"","cbCp":"42000","cbVille":"ST ETIENNE","spLibelle1":"","spLibelle2":"","acDateSerment":"","coordinates":[4.3816529,45.4587119]},{"NomBarreau":"SAINT-ETIENNE","avNom":"PEYRARD","avPrenom":"Laetitia","cbRaisonSociale":"PEYRARD LAETITIA","cbSiretSiren":"519030183","cbAdresse1":"89 rue Marengo","cbAdresse2":"","cbCp":"42000","cbVille":"ST ETIENNE","spLibelle1":"","spLibelle2":"","acDateSerment":"","coordinates":[4.3833349,45.4481944]},{"NomBarreau":"SAINT-ETIENNE","avNom":"POITAU","avPrenom":"Marie-Cécile","cbRaisonSociale":"POITAU MARIE-CECILE","cbSiretSiren":"303328199","cbAdresse1":"15 rue Aristide Briand et de la Paix","cbAdresse2":"","cbCp":"42000","cbVille":"ST ETIENNE","spLibelle1":"Droit de la famille, des personnes et de leur patrimoine","spLibelle2":"Droit pénal","acDateSerment":"","coordinates":[4.3841755,45.4390849]},{"NomBarreau":"SAINT-ETIENNE","avNom":"REVEL-PERRONNET","avPrenom":"Lauranne","cbRaisonSociale":"REVEL-PERRONNET LAURANNE","cbSiretSiren":"","cbAdresse1":"183 RUE BERGSON","cbAdresse2":"","cbCp":"42000","cbVille":"ST ETIENNE","spLibelle1":"","spLibelle2":"","acDateSerment":"","coordinates":[4.3816529,45.4587119]},{"NomBarreau":"SAINT-ETIENNE","avNom":"REY","avPrenom":"Julien","cbRaisonSociale":"REY JULIEN","cbSiretSiren":"490166048","cbAdresse1":"7 Place Jean Moulin","cbAdresse2":"","cbCp":"42000","cbVille":"ST ETIENNE","spLibelle1":"","spLibelle2":"","acDateSerment":"","coordinates":[4.392194776559712,45.4378159]},{"NomBarreau":"SAINT-ETIENNE","avNom":"ROBILLARD","avPrenom":"Clément","cbRaisonSociale":"PARALEX","cbSiretSiren":"880449426","cbAdresse1":"17 B rue de la Presse","cbAdresse2":"","cbCp":"42000","cbVille":"ST ETIENNE","spLibelle1":"","spLibelle2":"","acDateSerment":"","coordinates":[4.3987749,45.4559161]},{"NomBarreau":"SAINT-ETIENNE","avNom":"ROBILLARD","avPrenom":"Pierre","cbRaisonSociale":"PARALEX","cbSiretSiren":"880449426","cbAdresse1":"17 B rue de la Presse","cbAdresse2":"","cbCp":"42000","cbVille":"ST ETIENNE","spLibelle1":"Droit de la sécurité sociale et de la protection sociale","spLibelle2":"Droit du travail","acDateSerment":"","coordinates":[4.3987749,45.4559161]},{"NomBarreau":"SAINT-ETIENNE","avNom":"ROCHETIN","avPrenom":"Laurie","cbRaisonSociale":"LR AVOCAT","cbSiretSiren":"843579970","cbAdresse1":"1 Bis Cours Fauriel","cbAdresse2":"","cbCp":"42100","cbVille":"ST ETIENNE","spLibelle1":"","spLibelle2":"","acDateSerment":"","coordinates":[4.4002013,45.4278089]},{"NomBarreau":"SAINT-ETIENNE","avNom":"ROUSSET","avPrenom":"Bernard","cbRaisonSociale":"DREVET-RIVAL  ROUSSET","cbSiretSiren":"449338706","cbAdresse1":"4 Rue Michelet","cbAdresse2":"","cbCp":"42000","cbVille":"ST ETIENNE","spLibelle1":"","spLibelle2":"","acDateSerment":"","coordinates":[4.3891599,45.4368909]},{"NomBarreau":"SAINT-ETIENNE","avNom":"SALEN","avPrenom":"Pierrick","cbRaisonSociale":"SALEN PIERRICK","cbSiretSiren":"799189394","cbAdresse1":"6 Rue Sainte Catherine","cbAdresse2":"","cbCp":"42000","cbVille":"ST ETIENNE","spLibelle1":"","spLibelle2":"","acDateSerment":"","coordinates":[4.3869591,45.4370124]},{"NomBarreau":"SAINT-ETIENNE","avNom":"SAPT","avPrenom":"Amandine","cbRaisonSociale":"SAPT AMANDINE","cbSiretSiren":"828234963","cbAdresse1":"183 RUE BERGSON","cbAdresse2":"","cbCp":"42000","cbVille":"ST ETIENNE","spLibelle1":"","spLibelle2":"","acDateSerment":"","coordinates":[4.3816529,45.4587119]},{"NomBarreau":"SAINT-ETIENNE","avNom":"SCHOLZ","avPrenom":"Mathilde","cbRaisonSociale":"SCHOLZ MATHILDE","cbSiretSiren":"","cbAdresse1":"36 rue de Sully","cbAdresse2":"Villa des Roses","cbCp":"42100","cbVille":"ST ETIENNE","spLibelle1":"","spLibelle2":"","acDateSerment":"","coordinates":[4.4120699,45.4381112]},{"NomBarreau":"SAINT-ETIENNE","avNom":"TAVERNIER","avPrenom":"Morgane","cbRaisonSociale":"TAVERNIER MORGANE","cbSiretSiren":"845033877","cbAdresse1":"183 RUE BERGSON","cbAdresse2":"","cbCp":"42000","cbVille":"ST ETIENNE","spLibelle1":"","spLibelle2":"","acDateSerment":"","coordinates":[4.3816529,45.4587119]},{"NomBarreau":"SAINT-ETIENNE","avNom":"THEILLIERE","avPrenom":"Sarah","cbRaisonSociale":"THEILLIERE SARAH","cbSiretSiren":"922150743","cbAdresse1":"7 Place Jean Moulin","cbAdresse2":"","cbCp":"42100","cbVille":"ST ETIENNE","spLibelle1":"","spLibelle2":"","acDateSerment":"","coordinates":[4.6811609,45.4178825]},{"NomBarreau":"SAINT-ETIENNE","avNom":"TRABELSI","avPrenom":"Zohir","cbRaisonSociale":"TRABELSI ZOHIR","cbSiretSiren":"834388324","cbAdresse1":"14 RUE GEORGES TEISSIER","cbAdresse2":"","cbCp":"42000","cbVille":"ST ETIENNE","spLibelle1":"","spLibelle2":"","acDateSerment":"","coordinates":[4.3856329,45.4373243]},{"NomBarreau":"SAINT-ETIENNE","avNom":"VACHERON","avPrenom":"Céline","cbRaisonSociale":"ALTICIAL","cbSiretSiren":"911247526","cbAdresse1":"1 Place Dorian","cbAdresse2":"","cbCp":"42000","cbVille":"ST ETIENNE","spLibelle1":"","spLibelle2":"","acDateSerment":"","coordinates":[4.3885558,45.4385762]},{"NomBarreau":"SAINT-ETIENNE","avNom":"VIRGA","avPrenom":"Sylvain","cbRaisonSociale":"SVMH CONSEIL","cbSiretSiren":"915284822","cbAdresse1":"3 PLACE ANATOLE FRANCE","cbAdresse2":"","cbCp":"42000","cbVille":"ST ETIENNE","spLibelle1":"","spLibelle2":"","acDateSerment":"","coordinates":[4.3899714,45.4309783]},{"NomBarreau":"SAINT-ETIENNE","avNom":"VOCANSON","avPrenom":"Laetitia","cbRaisonSociale":"VOCANSON LAETITIA","cbSiretSiren":"539267211","cbAdresse1":"89 rue Marengo","cbAdresse2":"","cbCp":"42000","cbVille":"ST ETIENNE","spLibelle1":"","spLibelle2":"","acDateSerment":"","coordinates":[4.3833349,45.4481944]},{"NomBarreau":"SAINT-ETIENNE","avNom":"XICLUNA","avPrenom":"Anne-Sophie","cbRaisonSociale":"XICLUNA ANNE-SOPHIE","cbSiretSiren":"501741003","cbAdresse1":"14 rue Georges Teissier","cbAdresse2":"","cbCp":"42000","cbVille":"ST ETIENNE","spLibelle1":"","spLibelle2":"","acDateSerment":"","coordinates":[4.3856329,45.4373243]}]