[{"NomBarreau":"VERSAILLES","avNom":"CHEVALLIER","avPrenom":"Charlotte","cbRaisonSociale":"CHEVALLIER CHARLOTTE","cbSiretSiren":"809225907","cbAdresse1":"18 Rue du Gast","cbAdresse2":"","cbCp":"78100","cbVille":"ST GERMAIN EN LAYE","spLibelle1":"","spLibelle2":"","acDateSerment":"","coordinates":[2.0911531,48.8956153]},{"NomBarreau":"VERSAILLES","avNom":"CROCQUEVIEILLE","avPrenom":"Mathieu","cbRaisonSociale":"CROCQUEVIEILLE MATHIEU","cbSiretSiren":"899509517","cbAdresse1":"20 rue des Gaudines","cbAdresse2":"","cbCp":"78100","cbVille":"ST GERMAIN EN LAYE","spLibelle1":"","spLibelle2":"","acDateSerment":"","coordinates":[2.073384,48.8924711]},{"NomBarreau":"VERSAILLES","avNom":"DESSAUX-FRULEUX","avPrenom":"Fabienne","cbRaisonSociale":"DESSAUX-FRULEUX FABIENNE","cbSiretSiren":"893799494","cbAdresse1":"18 rue de la Salle","cbAdresse2":"","cbCp":"78100","cbVille":"ST GERMAIN EN LAYE","spLibelle1":"","spLibelle2":"","acDateSerment":"","coordinates":[2.0942259,48.8971794]},{"NomBarreau":"VERSAILLES","avNom":"FREDJ","avPrenom":"Elisa","cbRaisonSociale":"FREDJ ELISA","cbSiretSiren":"791199300","cbAdresse1":"20 ter rue Schnapper","cbAdresse2":"","cbCp":"78100","cbVille":"ST GERMAIN EN LAYE","spLibelle1":"","spLibelle2":"","acDateSerment":"","coordinates":[2.0884103,48.8899727]},{"NomBarreau":"VERSAILLES","avNom":"GRUBER-DREMAUX","avPrenom":"Hélène","cbRaisonSociale":"GRUBER-DREMAUX HELENE","cbSiretSiren":"947502878","cbAdresse1":"7 rue d'Ayen","cbAdresse2":"","cbCp":"78100","cbVille":"ST GERMAIN EN LAYE","spLibelle1":"","spLibelle2":"","acDateSerment":"","coordinates":[2.087888,48.901888]},{"NomBarreau":"VERSAILLES","avNom":"HENRY-LARMOYER","avPrenom":"Colette","cbRaisonSociale":"HENRY-LARMOYER COLETTE","cbSiretSiren":"399210905","cbAdresse1":"18 rue de la Salle","cbAdresse2":"","cbCp":"78100","cbVille":"ST GERMAIN EN LAYE","spLibelle1":"","spLibelle2":"","acDateSerment":"","coordinates":[2.0942259,48.8971794]},{"NomBarreau":"VERSAILLES","avNom":"LACAILLE","avPrenom":"Axelle","cbRaisonSociale":"LACAILLE AXELLE","cbSiretSiren":"909698987","cbAdresse1":"20 rue des Gaudines","cbAdresse2":"","cbCp":"78100","cbVille":"ST GERMAIN EN LAYE","spLibelle1":"","spLibelle2":"","acDateSerment":"","coordinates":[2.073384,48.8924711]},{"NomBarreau":"VERSAILLES","avNom":"LAMADON","avPrenom":"Delphine","cbRaisonSociale":"KARILA DE VAN ET LAMADON","cbSiretSiren":"814518668","cbAdresse1":"20 rue des Gaudines","cbAdresse2":"","cbCp":"78100","cbVille":"ST GERMAIN EN LAYE","spLibelle1":"","spLibelle2":"","acDateSerment":"","coordinates":[2.073384,48.8924711]},{"NomBarreau":"VERSAILLES","avNom":"MALOISEL-MARQUAND","avPrenom":"Brigitte","cbRaisonSociale":"MALOISEL-MARQUAND BRIGITTE","cbSiretSiren":"404393712","cbAdresse1":"16 rue Collignon","cbAdresse2":"","cbCp":"78100","cbVille":"ST GERMAIN EN LAYE","spLibelle1":"","spLibelle2":"","acDateSerment":"","coordinates":[2.0916454,48.8973038]},{"NomBarreau":"VERSAILLES","avNom":"NDAO","avPrenom":"Banna","cbRaisonSociale":"NDAO BANNA","cbSiretSiren":"790221048","cbAdresse1":"20 rue des Gaudines","cbAdresse2":"","cbCp":"78100","cbVille":"ST GERMAIN EN LAYE","spLibelle1":"","spLibelle2":"","acDateSerment":"","coordinates":[2.073384,48.8924711]},{"NomBarreau":"VERSAILLES","avNom":"PLANTIE PIANA","avPrenom":"Marie Laure","cbRaisonSociale":"PLANTIE PIANA MARIE LAURE","cbSiretSiren":"381598184","cbAdresse1":"16 rue Collignon","cbAdresse2":"","cbCp":"78100","cbVille":"ST GERMAIN EN LAYE","spLibelle1":"","spLibelle2":"","acDateSerment":"","coordinates":[2.0916454,48.8973038]},{"NomBarreau":"VERSAILLES","avNom":"RUBIN","avPrenom":"Claire","cbRaisonSociale":"DIEMUNSCH FEYEREISEN RUBIN","cbSiretSiren":"315628982","cbAdresse1":"10 rue de Pologne","cbAdresse2":"","cbCp":"78100","cbVille":"ST GERMAIN EN LAYE","spLibelle1":"","spLibelle2":"","acDateSerment":"","coordinates":[2.0899904,48.8972282]},{"NomBarreau":"VERSAILLES","avNom":"THIBAULT","avPrenom":"Julie","cbRaisonSociale":"THIBAULT JULIE","cbSiretSiren":"788932309","cbAdresse1":"18 Rue du Gast","cbAdresse2":"","cbCp":"78100","cbVille":"ST GERMAIN EN LAYE","spLibelle1":"","spLibelle2":"","acDateSerment":"","coordinates":[2.0911531,48.8956153]},{"NomBarreau":"VERSAILLES","avNom":"VAUCANSON","avPrenom":"Marie-Emily","cbRaisonSociale":"VAUCANSON MARIE-EMILY","cbSiretSiren":"538468299","cbAdresse1":"10 rue Thiers","cbAdresse2":"","cbCp":"78100","cbVille":"ST GERMAIN EN LAYE","spLibelle1":"","spLibelle2":"","acDateSerment":"","coordinates":[2.097732,48.897683]}]