[{"NomBarreau":"SAINT MALO-DINAN","avNom":"BOTELLA","avPrenom":"Juliette","cbRaisonSociale":"BOTELLA JULIETTE","cbSiretSiren":"808733828","cbAdresse1":"16 rue Miriel","cbAdresse2":"","cbCp":"35400","cbVille":"ST MALO","spLibelle1":"","spLibelle2":"","acDateSerment":"","coordinates":[-1.9998518,48.6476457]},{"NomBarreau":"SAINT MALO-DINAN","avNom":"BOURDON","avPrenom":"Marie","cbRaisonSociale":"BOURDON MARIE","cbSiretSiren":"908379993","cbAdresse1":"16 Rue Miriel","cbAdresse2":"","cbCp":"35400","cbVille":"ST MALO","spLibelle1":"","spLibelle2":"","acDateSerment":"","coordinates":[-1.9998518,48.6476457]},{"NomBarreau":"SAINT MALO-DINAN","avNom":"BURNICHON","avPrenom":"Patrick","cbRaisonSociale":"BURNICHON PATRICK","cbSiretSiren":"838558815","cbAdresse1":"10 Avenue Anita Conti","cbAdresse2":"","cbCp":"35400","cbVille":"ST MALO","spLibelle1":"","spLibelle2":"","acDateSerment":"","coordinates":[-2.0048015,48.6473516]},{"NomBarreau":"SAINT MALO-DINAN","avNom":"CHOUAMIER","avPrenom":"Hadrien","cbRaisonSociale":"ME HADRIEN CHOUAMIER","cbSiretSiren":"798452355","cbAdresse1":"24 Avenue de Moka","cbAdresse2":"","cbCp":"35400","cbVille":"ST MALO","spLibelle1":"","spLibelle2":"","acDateSerment":"","coordinates":[-2.0027931,48.6513117]},{"NomBarreau":"SAINT MALO-DINAN","avNom":"GARNIER","avPrenom":"Lauranne","cbRaisonSociale":"SELARL GERARD REHEL - GARNIER","cbSiretSiren":"901293365","cbAdresse1":"16 Rue Miriel","cbAdresse2":"","cbCp":"35400","cbVille":"ST MALO","spLibelle1":"","spLibelle2":"","acDateSerment":"","coordinates":[-1.9998518,48.6476457]},{"NomBarreau":"SAINT MALO-DINAN","avNom":"GERARD","avPrenom":"Isabelle","cbRaisonSociale":"SELARL GERARD REHEL - GARNIER","cbSiretSiren":"901293365","cbAdresse1":"16 Rue Miriel","cbAdresse2":"","cbCp":"35400","cbVille":"ST MALO","spLibelle1":"","spLibelle2":"","acDateSerment":"","coordinates":[-1.9998518,48.6476457]},{"NomBarreau":"SAINT MALO-DINAN","avNom":"GOUYER","avPrenom":"Maxime","cbRaisonSociale":"KERLEZ AVOCATS","cbSiretSiren":"877651463","cbAdresse1":"24 avenue de Moka","cbAdresse2":"Le Concorde","cbCp":"35400","cbVille":"ST MALO","spLibelle1":"","spLibelle2":"","acDateSerment":"","coordinates":[-2.0027931,48.6513117]},{"NomBarreau":"SAINT MALO-DINAN","avNom":"HOMO","avPrenom":"Valérie","cbRaisonSociale":"ME HOMO","cbSiretSiren":"450030721","cbAdresse1":"29 avenue Aristide Briand","cbAdresse2":"","cbCp":"35400","cbVille":"ST MALO","spLibelle1":"","spLibelle2":"","acDateSerment":"","coordinates":[-2.0004533,48.6486948]},{"NomBarreau":"SAINT MALO-DINAN","avNom":"DE LA HAMELINAYE","avPrenom":"Marie","cbRaisonSociale":"DE LA HAMELINAYE MARIE","cbSiretSiren":"898514815","cbAdresse1":"16 rue Miriel","cbAdresse2":"","cbCp":"35400","cbVille":"ST MALO","spLibelle1":"","spLibelle2":"","acDateSerment":"","coordinates":[-1.9998518,48.6476457]},{"NomBarreau":"SAINT MALO-DINAN","avNom":"LE HO","avPrenom":"Stéphanie","cbRaisonSociale":"KERLEZ AVOCATS","cbSiretSiren":"877651463","cbAdresse1":"24 avenue de Moka","cbAdresse2":"Le Concorde","cbCp":"35400","cbVille":"ST MALO","spLibelle1":"","spLibelle2":"","acDateSerment":"","coordinates":[-2.0027931,48.6513117]},{"NomBarreau":"SAINT MALO-DINAN","avNom":"MENARD","avPrenom":"Clara","cbRaisonSociale":"MENARD CLARA","cbSiretSiren":"801326554","cbAdresse1":"24 Avenue de Moka","cbAdresse2":"","cbCp":"35400","cbVille":"ST MALO","spLibelle1":"","spLibelle2":"","acDateSerment":"","coordinates":[-2.0027931,48.6513117]},{"NomBarreau":"SAINT MALO-DINAN","avNom":"POSTOLLEC","avPrenom":"Karine","cbRaisonSociale":"POSTOLLEC KARINE","cbSiretSiren":"798143137","cbAdresse1":"3 rue du Bois Herveau","cbAdresse2":"Immeuble Infinity","cbCp":"35400","cbVille":"ST MALO","spLibelle1":"","spLibelle2":"","acDateSerment":"","coordinates":[-1.9912476,48.6421285]},{"NomBarreau":"SAINT MALO-DINAN","avNom":"RIPOCHE","avPrenom":"Elisabeth","cbRaisonSociale":"RIPOCHE ELISABETH","cbSiretSiren":"404121253","cbAdresse1":"2 rue Jules Saffray","cbAdresse2":"","cbCp":"35400","cbVille":"ST MALO","spLibelle1":"","spLibelle2":"","acDateSerment":"","coordinates":[-2.0064954,48.64903]},{"NomBarreau":"SAINT MALO-DINAN","avNom":"SCAPIN-ALLAG","avPrenom":"Marie-Pierre","cbRaisonSociale":"SCAPIN-ALLAG MARIE PIERRE","cbSiretSiren":"349683581","cbAdresse1":"49 Quai Duguay Trouin","cbAdresse2":"","cbCp":"35400","cbVille":"ST MALO","spLibelle1":"","spLibelle2":"","acDateSerment":"","coordinates":[-2.0120307,48.6522111]},{"NomBarreau":"SAINT MALO-DINAN","avNom":"SIMON","avPrenom":"Christelle","cbRaisonSociale":"ME CHRISTELLE SIMON","cbSiretSiren":"511066128","cbAdresse1":"3 rue du Bois Herveau","cbAdresse2":"","cbCp":"35400","cbVille":"ST MALO","spLibelle1":"","spLibelle2":"","acDateSerment":"","coordinates":[-1.9912476,48.6421285]},{"NomBarreau":"SAINT MALO-DINAN","avNom":"STICHELBAUT","avPrenom":"Pierre","cbRaisonSociale":"STICHELBAUT PIERRE","cbSiretSiren":"414126797","cbAdresse1":"29 Rue Aristide Briand","cbAdresse2":"","cbCp":"35400","cbVille":"ST MALO","spLibelle1":"","spLibelle2":"","acDateSerment":"","coordinates":[-2.1714581,47.3550789]},{"NomBarreau":"SAINT MALO-DINAN","avNom":"VERDIER","avPrenom":"Caroline","cbRaisonSociale":"ME CAROLINE VERDIER","cbSiretSiren":"752262246","cbAdresse1":"29 avenue Aristide Briand","cbAdresse2":"","cbCp":"35400","cbVille":"ST MALO","spLibelle1":"","spLibelle2":"","acDateSerment":"","coordinates":[-2.0004533,48.6486948]}]