[{"NomBarreau":"STRASBOURG","avNom":"AACHOUR","avPrenom":"Mohamed","cbRaisonSociale":"AACHOUR MOHAMED","cbSiretSiren":"802257477","cbAdresse1":"129 rue Boecklin","cbAdresse2":"","cbCp":"67000","cbVille":"STRASBOURG","spLibelle1":"","spLibelle2":"","acDateSerment":"","coordinates":[7.7810725,48.6045045]},{"NomBarreau":"STRASBOURG","avNom":"AGBO-KHAFFANE","avPrenom":"Zahra","cbRaisonSociale":"AGBO-KHAFFANE ZAHRA","cbSiretSiren":"504709163","cbAdresse1":"230 Avenue de Colmar","cbAdresse2":"","cbCp":"67100","cbVille":"STRASBOURG","spLibelle1":"","spLibelle2":"","acDateSerment":"","coordinates":[7.7459578,48.5560454]},{"NomBarreau":"STRASBOURG","avNom":"AIROLDI","avPrenom":"Matthieu","cbRaisonSociale":"RIBETON - AIROLDI - MULLER","cbSiretSiren":"880000641","cbAdresse1":"8 rue de la Fonderie","cbAdresse2":"","cbCp":"67000","cbVille":"STRASBOURG","spLibelle1":"","spLibelle2":"","acDateSerment":"","coordinates":[7.749744,48.5859229]},{"NomBarreau":"STRASBOURG","avNom":"AJILI-JUNG","avPrenom":"Sarah","cbRaisonSociale":"AJILI-JUNG SARAH","cbSiretSiren":"825330707","cbAdresse1":"40 rue de Stosswihr","cbAdresse2":"","cbCp":"67100","cbVille":"STRASBOURG","spLibelle1":"","spLibelle2":"","acDateSerment":"","coordinates":[7.7734026,48.5679039]},{"NomBarreau":"STRASBOURG","avNom":"ALEVROPOULOU","avPrenom":"Christina","cbRaisonSociale":"ALEVROPOULOU CHRISTINA","cbSiretSiren":"799174479","cbAdresse1":"2 rue St Maurice","cbAdresse2":"","cbCp":"67000","cbVille":"STRASBOURG","spLibelle1":"","spLibelle2":"","acDateSerment":"","coordinates":[7.7713216,48.5850819]},{"NomBarreau":"STRASBOURG","avNom":"ALEXANDRE","avPrenom":"Bernard","cbRaisonSociale":"ALEXANDRE-LEVY-KAHN-BRAUN & ASSOCIES","cbSiretSiren":"318517968","cbAdresse1":"12 rue des Pontonniers","cbAdresse2":"","cbCp":"67000","cbVille":"STRASBOURG","spLibelle1":"Droit de la sécurité sociale et de la protection sociale","spLibelle2":"Droit du travail","acDateSerment":"","coordinates":[7.7571204,48.5843159]},{"NomBarreau":"STRASBOURG","avNom":"ALIMI","avPrenom":"Myriam","cbRaisonSociale":"ALIMI MYRIAM","cbSiretSiren":"481411619","cbAdresse1":"31 Boulevard d'Anvers","cbAdresse2":"","cbCp":"67000","cbVille":"STRASBOURG","spLibelle1":"","spLibelle2":"","acDateSerment":"","coordinates":[7.772838,48.5853559]},{"NomBarreau":"STRASBOURG","avNom":"ALIZON","avPrenom":"Mary","cbRaisonSociale":"ALIZON MARY","cbSiretSiren":"444692073","cbAdresse1":"230 Avenue de Colmar","cbAdresse2":"","cbCp":"67100","cbVille":"STRASBOURG","spLibelle1":"","spLibelle2":"","acDateSerment":"","coordinates":[7.7459578,48.5560454]},{"NomBarreau":"STRASBOURG","avNom":"ALLEKI","avPrenom":"Naimi","cbRaisonSociale":"LEONEM","cbSiretSiren":"803061852","cbAdresse1":"7 Rue de Sarrebourg","cbAdresse2":"","cbCp":"67000","cbVille":"STRASBOURG","spLibelle1":"","spLibelle2":"","acDateSerment":"","coordinates":[7.7461654,48.6084675]},{"NomBarreau":"STRASBOURG","avNom":"ALLOUARD","avPrenom":"Gwénaelle","cbRaisonSociale":"ALLOUARD GWENAELLE","cbSiretSiren":"418222741","cbAdresse1":"19 rue des Hallebardes","cbAdresse2":"","cbCp":"67000","cbVille":"STRASBOURG","spLibelle1":"","spLibelle2":"","acDateSerment":"","coordinates":[7.749734,48.5822292]},{"NomBarreau":"STRASBOURG","avNom":"AMIET","avPrenom":"Eric","cbRaisonSociale":"AMIET ERIC","cbSiretSiren":"384312898","cbAdresse1":"54 Avenue des Vosges","cbAdresse2":"","cbCp":"67000","cbVille":"STRASBOURG","spLibelle1":"","spLibelle2":"","acDateSerment":"","coordinates":[7.750045,48.5900973]},{"NomBarreau":"STRASBOURG","avNom":"ANCEL","avPrenom":"Gautier","cbRaisonSociale":"ANCEL GAUTIER","cbSiretSiren":"828880922","cbAdresse1":"10 place du Temple Neuf","cbAdresse2":"","cbCp":"67000","cbVille":"STRASBOURG","spLibelle1":"","spLibelle2":"","acDateSerment":"","coordinates":[7.7477181,48.5829652]},{"NomBarreau":"STRASBOURG","avNom":"ANDRE","avPrenom":"Olivier","cbRaisonSociale":"ANDRE OLIVIER","cbSiretSiren":"","cbAdresse1":"5 Rue Auguste Lamey","cbAdresse2":"","cbCp":"67000","cbVille":"STRASBOURG","spLibelle1":"","spLibelle2":"","acDateSerment":"","coordinates":[7.7560414,48.5887052]},{"NomBarreau":"STRASBOURG","avNom":"ANDREO","avPrenom":"Emmanuel","cbRaisonSociale":"BARTHELEMY AVOCATS","cbSiretSiren":"493390991","cbAdresse1":"20 rue Jules Rathgeber","cbAdresse2":"","cbCp":"67100","cbVille":"STRASBOURG","spLibelle1":"Droit de la sécurité sociale et de la protection sociale","spLibelle2":"Droit du travail","acDateSerment":"","coordinates":[7.7561988,48.5656603]},{"NomBarreau":"STRASBOURG","avNom":"ANSTETT","avPrenom":"Carine","cbRaisonSociale":"MLA CONSEIL ","cbSiretSiren":"480133511","cbAdresse1":"26 Chemin du Doernelbruck","cbAdresse2":"","cbCp":"67000","cbVille":"STRASBOURG","spLibelle1":"","spLibelle2":"","acDateSerment":"","coordinates":[7.7733789,48.604184]},{"NomBarreau":"STRASBOURG","avNom":"ARANGO","avPrenom":"Attilio","cbRaisonSociale":"ARANGO ATTILIO","cbSiretSiren":"825247372","cbAdresse1":"1 rue des Arquebusiers","cbAdresse2":"","cbCp":"67000","cbVille":"STRASBOURG","spLibelle1":"","spLibelle2":"","acDateSerment":"","coordinates":[7.7588631,48.5895572]},{"NomBarreau":"STRASBOURG","avNom":"ARBOIX","avPrenom":"Laurent","cbRaisonSociale":"ARBOIX LAURENT","cbSiretSiren":"393776844","cbAdresse1":"37, Rue St-Urbain","cbAdresse2":"","cbCp":"67100","cbVille":"STRASBOURG","spLibelle1":"","spLibelle2":"","acDateSerment":"","coordinates":[7.7624543,48.5708304]},{"NomBarreau":"STRASBOURG","avNom":"ARNOLD","avPrenom":"Jean-Philippe","cbRaisonSociale":"ARNOLD JEAN-PHILIPPE","cbSiretSiren":"492346192","cbAdresse1":"7 rue Oberlin","cbAdresse2":"","cbCp":"67000","cbVille":"STRASBOURG","spLibelle1":"Droit de la sécurité sociale et de la protection sociale","spLibelle2":"Droit du travail","acDateSerment":"","coordinates":[7.7527383,48.5902768]},{"NomBarreau":"STRASBOURG","avNom":"AZEVEDO","avPrenom":"Paul","cbRaisonSociale":"PRAD AVOCATS","cbSiretSiren":"790396709","cbAdresse1":"5 rue Fischart","cbAdresse2":"","cbCp":"67000","cbVille":"STRASBOURG","spLibelle1":"Droit des sociétés","spLibelle2":"","acDateSerment":"","coordinates":[7.7654897,48.5860939]},{"NomBarreau":"STRASBOURG","avNom":"AZZI","avPrenom":"Jérome","cbRaisonSociale":"AZZI JERU”ME","cbSiretSiren":"508945508","cbAdresse1":"68 Avenue des Vosges","cbAdresse2":"","cbCp":"67000","cbVille":"STRASBOURG","spLibelle1":"","spLibelle2":"","acDateSerment":"","coordinates":[7.748014,48.5906643]},{"NomBarreau":"STRASBOURG","avNom":"BACH","avPrenom":"Valérie","cbRaisonSociale":"WELSCH-KESSLER & ASSOCIES","cbSiretSiren":"441025574","cbAdresse1":"57 rue du Faubourg de Pierre","cbAdresse2":"","cbCp":"67000","cbVille":"STRASBOURG","spLibelle1":"Droit immobilier","spLibelle2":"","acDateSerment":"","coordinates":[7.7450234,48.5895245]},{"NomBarreau":"STRASBOURG","avNom":"BADER","avPrenom":"Rita","cbRaisonSociale":"ALEXANDRE-LEVY-KAHN-BRAUN & ASSOCIES","cbSiretSiren":"318517968","cbAdresse1":"12 rue des Pontonniers","cbAdresse2":"","cbCp":"67000","cbVille":"STRASBOURG","spLibelle1":"","spLibelle2":"","acDateSerment":"","coordinates":[7.7571204,48.5843159]},{"NomBarreau":"STRASBOURG","avNom":"BALAKIROUCHENANE","avPrenom":"Vidya","cbRaisonSociale":"BALAKIROUCHENANE VIDYA","cbSiretSiren":"847785250","cbAdresse1":"17 Rue de Verdun","cbAdresse2":"","cbCp":"67000","cbVille":"STRASBOURG","spLibelle1":"","spLibelle2":"","acDateSerment":"","coordinates":[7.6837787,48.5209346]},{"NomBarreau":"STRASBOURG","avNom":"BALBZIOUI","avPrenom":"Safir","cbRaisonSociale":"BALBZIOUI SAFIR","cbSiretSiren":"818455750","cbAdresse1":"2 Rue des Pontonniers","cbAdresse2":"","cbCp":"67000","cbVille":"STRASBOURG","spLibelle1":"","spLibelle2":"","acDateSerment":"","coordinates":[7.7567197,48.5841206]},{"NomBarreau":"STRASBOURG","avNom":"BALLAND","avPrenom":"Lucien","cbRaisonSociale":"BALLAND LUCIEN","cbSiretSiren":"841708886","cbAdresse1":"5 Rue de Phalsbourg","cbAdresse2":"","cbCp":"67000","cbVille":"STRASBOURG","spLibelle1":"","spLibelle2":"","acDateSerment":"","coordinates":[7.7488747,48.5908791]},{"NomBarreau":"STRASBOURG","avNom":"BALMITGERE","avPrenom":"Eric","cbRaisonSociale":"CABINET JURIDIQUE & FISCAL P. & E. BALMITGERE","cbSiretSiren":"348828971","cbAdresse1":"14 Rue Schweighaeuser","cbAdresse2":"","cbCp":"67000","cbVille":"STRASBOURG","spLibelle1":"Droit des sociétés","spLibelle2":"Droit fiscal et droit douanier","acDateSerment":"","coordinates":[7.7650127,48.586697]},{"NomBarreau":"STRASBOURG","avNom":"BAPST","avPrenom":"Renaud","cbRaisonSociale":"BAPST RENAUD","cbSiretSiren":"824985824","cbAdresse1":"3 rue de Zurich","cbAdresse2":"","cbCp":"67000","cbVille":"STRASBOURG","spLibelle1":"","spLibelle2":"","acDateSerment":"","coordinates":[7.7564566,48.5818069]},{"NomBarreau":"STRASBOURG","avNom":"BARBY","avPrenom":"Charlotte","cbRaisonSociale":"BARBY CHARLOTTE","cbSiretSiren":"539921163","cbAdresse1":"37 rue St-Urbain","cbAdresse2":"","cbCp":"67100","cbVille":"STRASBOURG","spLibelle1":"","spLibelle2":"","acDateSerment":"","coordinates":[7.7624543,48.5708304]},{"NomBarreau":"STRASBOURG","avNom":"BARNY","avPrenom":"Jean","cbRaisonSociale":"BARNY JEAN","cbSiretSiren":"520136573","cbAdresse1":"52 Avenue des Vosges","cbAdresse2":"","cbCp":"67000","cbVille":"STRASBOURG","spLibelle1":"","spLibelle2":"","acDateSerment":"","coordinates":[7.7501979,48.5900549]},{"NomBarreau":"STRASBOURG","avNom":"BARNY","avPrenom":"Luc","cbRaisonSociale":"BARNY LUC","cbSiretSiren":"491955175","cbAdresse1":"52 Avenue des Vosges","cbAdresse2":"","cbCp":"67000","cbVille":"STRASBOURG","spLibelle1":"","spLibelle2":"","acDateSerment":"","coordinates":[7.7501979,48.5900549]},{"NomBarreau":"STRASBOURG","avNom":"BARRAUX","avPrenom":"Coralie","cbRaisonSociale":"BARRAUX CORALIE","cbSiretSiren":"529810640","cbAdresse1":"9-10 Place du Temple Neuf","cbAdresse2":"","cbCp":"67000","cbVille":"STRASBOURG","spLibelle1":"","spLibelle2":"","acDateSerment":"","coordinates":[7.74785949911151,48.5831619]},{"NomBarreau":"STRASBOURG","avNom":"BARRAUX","avPrenom":"Patrick","cbRaisonSociale":"RACINE STRASBOURG CABINET D'AVOCATS","cbSiretSiren":"778861179","cbAdresse1":"9-10 Place du Temple Neuf","cbAdresse2":"","cbCp":"67000","cbVille":"STRASBOURG","spLibelle1":"Droit du travail","spLibelle2":"","acDateSerment":"","coordinates":[7.74785949911151,48.5831619]},{"NomBarreau":"STRASBOURG","avNom":"BARRY","avPrenom":"Mamadou","cbRaisonSociale":"BARRY MAMADOU","cbSiretSiren":"894384759","cbAdresse1":"5 Place du Corbeau","cbAdresse2":"","cbCp":"67000","cbVille":"STRASBOURG","spLibelle1":"","spLibelle2":"","acDateSerment":"","coordinates":[7.7510212,48.579145]},{"NomBarreau":"STRASBOURG","avNom":"BATOT","avPrenom":"Steeve","cbRaisonSociale":"BATOT STEEVE","cbSiretSiren":"789820628","cbAdresse1":"9-10 Place du Temple Neuf","cbAdresse2":"","cbCp":"67000","cbVille":"STRASBOURG","spLibelle1":"","spLibelle2":"","acDateSerment":"","coordinates":[7.74785949911151,48.5831619]},{"NomBarreau":"STRASBOURG","avNom":"BAUER","avPrenom":"Patricia","cbRaisonSociale":"BAUER PATRICIA","cbSiretSiren":"437729080","cbAdresse1":"21 Avenue des Vosges","cbAdresse2":"","cbCp":"67000","cbVille":"STRASBOURG","spLibelle1":"","spLibelle2":"","acDateSerment":"","coordinates":[7.7586134,48.5875484]},{"NomBarreau":"STRASBOURG","avNom":"BAUJOIN","avPrenom":"Florence","cbRaisonSociale":"BAUJOIN FLORENCE","cbSiretSiren":"454063470","cbAdresse1":"16 rue Massenet","cbAdresse2":"","cbCp":"67000","cbVille":"STRASBOURG","spLibelle1":"Droit de la propriété intellectuelle","spLibelle2":"","acDateSerment":"","coordinates":[7.7728211,48.5880074]},{"NomBarreau":"STRASBOURG","avNom":"BAUMEISTER","avPrenom":"Cindy","cbRaisonSociale":"BAUMEISTER CINDY","cbSiretSiren":"843648668","cbAdresse1":"21 rue Louis Apffel","cbAdresse2":"","cbCp":"67000","cbVille":"STRASBOURG","spLibelle1":"","spLibelle2":"","acDateSerment":"","coordinates":[7.7544522,48.5900238]},{"NomBarreau":"STRASBOURG","avNom":"BAUMERT","avPrenom":"Carole","cbRaisonSociale":"ORION AVOCATS & CONSEILS ","cbSiretSiren":"501984298","cbAdresse1":"7 Quai Jacques Sturm","cbAdresse2":"","cbCp":"67000","cbVille":"STRASBOURG","spLibelle1":"","spLibelle2":"","acDateSerment":"","coordinates":[7.7504379,48.5873565]},{"NomBarreau":"STRASBOURG","avNom":"BAUTZ","avPrenom":"Gauthier","cbRaisonSociale":"BOURGUN-BAUTZ ","cbSiretSiren":"829577097","cbAdresse1":"5a Quai Finkmatt","cbAdresse2":"","cbCp":"67000","cbVille":"STRASBOURG","spLibelle1":"","spLibelle2":"","acDateSerment":"","coordinates":[7.7472887,48.5874237]},{"NomBarreau":"STRASBOURG","avNom":"BEAUCHET","avPrenom":"Sophie","cbRaisonSociale":"BEAUCHET SOPHIE","cbSiretSiren":"482912466","cbAdresse1":"18 Rue Auguste Lamey","cbAdresse2":"","cbCp":"67000","cbVille":"STRASBOURG","spLibelle1":"","spLibelle2":"","acDateSerment":"","coordinates":[7.7564324,48.5889898]},{"NomBarreau":"STRASBOURG","avNom":"BEGEOT","avPrenom":"Hervé","cbRaisonSociale":"BEGEOT HERVE","cbSiretSiren":"381255892","cbAdresse1":"7 rue Oberlin","cbAdresse2":"","cbCp":"67000","cbVille":"STRASBOURG","spLibelle1":"","spLibelle2":"","acDateSerment":"","coordinates":[7.7527383,48.5902768]},{"NomBarreau":"STRASBOURG","avNom":"BEN NOURRY","avPrenom":"Emilie","cbRaisonSociale":"BEN NOURRY EMILIE","cbSiretSiren":"814834214","cbAdresse1":"5 Place du Corbeau","cbAdresse2":"","cbCp":"67000","cbVille":"STRASBOURG","spLibelle1":"","spLibelle2":"","acDateSerment":"","coordinates":[7.7510212,48.579145]},{"NomBarreau":"STRASBOURG","avNom":"BENDER","avPrenom":"Sébastien","cbRaisonSociale":"ORION AVOCATS & CONSEILS ","cbSiretSiren":"501984298","cbAdresse1":"7 Quai Jacques Sturm","cbAdresse2":"","cbCp":"67000","cbVille":"STRASBOURG","spLibelle1":"","spLibelle2":"","acDateSerment":"","coordinates":[7.7504379,48.5873565]},{"NomBarreau":"STRASBOURG","avNom":"BEREZA","avPrenom":"Marjorie","cbRaisonSociale":"BEREZA MARJORIE","cbSiretSiren":"445370315","cbAdresse1":"24 Avenue des Vosges","cbAdresse2":"","cbCp":"67000","cbVille":"STRASBOURG","spLibelle1":"","spLibelle2":"","acDateSerment":"","coordinates":[7.7586134,48.5875484]},{"NomBarreau":"STRASBOURG","avNom":"BERGERON","avPrenom":"Gauthier","cbRaisonSociale":"BERGERON GAUTHIER","cbSiretSiren":"892872771","cbAdresse1":"5 A rue Fischart","cbAdresse2":"Batiment B","cbCp":"67000","cbVille":"STRASBOURG","spLibelle1":"","spLibelle2":"","acDateSerment":"","coordinates":[7.7653258,48.5855229]},{"NomBarreau":"STRASBOURG","avNom":"BERNHARD","avPrenom":"Pascal","cbRaisonSociale":"BERNHARD PASCAL","cbSiretSiren":"350922621","cbAdresse1":"16 rue des Halles","cbAdresse2":"","cbCp":"67000","cbVille":"STRASBOURG","spLibelle1":"Droit de la famille, des personnes et de leur patrimoine","spLibelle2":"Droit pénal","acDateSerment":"","coordinates":[7.740289,48.588723]},{"NomBarreau":"STRASBOURG","avNom":"BERTANI","avPrenom":"Frédérique","cbRaisonSociale":"BERTANI AVOCAT & CONSEIL ","cbSiretSiren":"804123172","cbAdresse1":"19 rue des Hallebardes","cbAdresse2":"","cbCp":"67000","cbVille":"STRASBOURG","spLibelle1":"","spLibelle2":"","acDateSerment":"","coordinates":[7.749734,48.5822292]},{"NomBarreau":"STRASBOURG","avNom":"BERTON","avPrenom":"Françoise","cbRaisonSociale":"BERTON ET ASSOCIES","cbSiretSiren":"500893078","cbAdresse1":"2 Place du Conseil des Quinze","cbAdresse2":"","cbCp":"67000","cbVille":"STRASBOURG","spLibelle1":"","spLibelle2":"","acDateSerment":"","coordinates":[7.7822466,48.587063]},{"NomBarreau":"STRASBOURG","avNom":"BERTON","avPrenom":"Guillaume","cbRaisonSociale":"BERTON GUILLAUME","cbSiretSiren":"847625373","cbAdresse1":"7 Quai Jacques Sturm","cbAdresse2":"","cbCp":"67000","cbVille":"STRASBOURG","spLibelle1":"","spLibelle2":"","acDateSerment":"","coordinates":[7.7504379,48.5873565]},{"NomBarreau":"STRASBOURG","avNom":"BESNIER","avPrenom":"Lorédana","cbRaisonSociale":"BESNIER LOREDANA","cbSiretSiren":"881547343","cbAdresse1":"63 Avenue des Vosges","cbAdresse2":"","cbCp":"67000","cbVille":"STRASBOURG","spLibelle1":"","spLibelle2":"","acDateSerment":"","coordinates":[7.7487482,48.5901657]},{"NomBarreau":"STRASBOURG","avNom":"BESSON","avPrenom":"Nicole","cbRaisonSociale":"BESSON NICOLE","cbSiretSiren":"333323962","cbAdresse1":"2 rue d'Upsal","cbAdresse2":"","cbCp":"67000","cbVille":"STRASBOURG","spLibelle1":"","spLibelle2":"","acDateSerment":"","coordinates":[7.7778646,48.5789424]},{"NomBarreau":"STRASBOURG","avNom":"BEZAULT","avPrenom":"Adeline","cbRaisonSociale":"BEZAULT ADELINE","cbSiretSiren":"834789885","cbAdresse1":"7 Quai Jacques Sturm","cbAdresse2":"","cbCp":"67000","cbVille":"STRASBOURG","spLibelle1":"","spLibelle2":"","acDateSerment":"","coordinates":[7.7504379,48.5873565]},{"NomBarreau":"STRASBOURG","avNom":"BIER","avPrenom":"Jonathan","cbRaisonSociale":"BIER JONATHAN","cbSiretSiren":"825219272","cbAdresse1":"21 Rue Louis Apffel","cbAdresse2":"","cbCp":"67000","cbVille":"STRASBOURG","spLibelle1":"","spLibelle2":"","acDateSerment":"","coordinates":[7.7544522,48.5900238]},{"NomBarreau":"STRASBOURG","avNom":"BIGOT","avPrenom":"Fabrice","cbRaisonSociale":"BIGOT FABRICE","cbSiretSiren":"539827014","cbAdresse1":"6 rue Geiler","cbAdresse2":"","cbCp":"67000","cbVille":"STRASBOURG","spLibelle1":"","spLibelle2":"","acDateSerment":"","coordinates":[7.7652367,48.587596]},{"NomBarreau":"STRASBOURG","avNom":"BIGOT-GONCALVES","avPrenom":"Magali","cbRaisonSociale":"BIGOT, GULDENFELS, BIGOT-GONCALVES","cbSiretSiren":"799348636","cbAdresse1":"6 rue Geiler","cbAdresse2":"","cbCp":"67000","cbVille":"STRASBOURG","spLibelle1":"","spLibelle2":"","acDateSerment":"","coordinates":[7.7652367,48.587596]},{"NomBarreau":"STRASBOURG","avNom":"BIHL","avPrenom":"Caroline","cbRaisonSociale":"BIHL CAROLINE","cbSiretSiren":"451561880","cbAdresse1":"73 Avenue des Vosges","cbAdresse2":"","cbCp":"67000","cbVille":"STRASBOURG","spLibelle1":"","spLibelle2":"","acDateSerment":"","coordinates":[7.7473665,48.5905556]},{"NomBarreau":"STRASBOURG","avNom":"BILGER","avPrenom":"Olivier","cbRaisonSociale":"ORION AVOCATS & CONSEILS ","cbSiretSiren":"501984298","cbAdresse1":"7 Quai Jacques Sturm","cbAdresse2":"","cbCp":"67000","cbVille":"STRASBOURG","spLibelle1":"","spLibelle2":"","acDateSerment":"","coordinates":[7.7504379,48.5873565]},{"NomBarreau":"STRASBOURG","avNom":"BLANCHARD","avPrenom":"Camille","cbRaisonSociale":"BLANCHARD CAMILLE","cbSiretSiren":"791019201","cbAdresse1":"1 Place Brant","cbAdresse2":"","cbCp":"67000","cbVille":"STRASBOURG","spLibelle1":"","spLibelle2":"","acDateSerment":"","coordinates":[7.7624587,48.5858616]},{"NomBarreau":"STRASBOURG","avNom":"BLOCH","avPrenom":"Delphine","cbRaisonSociale":"BLOCH DELPHINE","cbSiretSiren":"800277089","cbAdresse1":"20 Avenue de la Marseillaise","cbAdresse2":"","cbCp":"67000","cbVille":"STRASBOURG","spLibelle1":"","spLibelle2":"","acDateSerment":"","coordinates":[7.7566894,48.5849902]},{"NomBarreau":"STRASBOURG","avNom":"BLOCH","avPrenom":"Thomas","cbRaisonSociale":"ALEXANDRE-LEVY-KAHN-BRAUN & ASSOCIES","cbSiretSiren":"318517968","cbAdresse1":"12 rue des Pontonniers","cbAdresse2":"","cbCp":"67000","cbVille":"STRASBOURG","spLibelle1":"","spLibelle2":"","acDateSerment":"","coordinates":[7.7571204,48.5843159]},{"NomBarreau":"STRASBOURG","avNom":"BLOCH-LEVY","avPrenom":"Carine","cbRaisonSociale":"BLOCH-LEVY CARINE","cbSiretSiren":"349695817","cbAdresse1":"20 Avenue de la Marseillaise","cbAdresse2":"","cbCp":"67000","cbVille":"STRASBOURG","spLibelle1":"","spLibelle2":"","acDateSerment":"","coordinates":[7.7566894,48.5849902]},{"NomBarreau":"STRASBOURG","avNom":"BOCHKARYOVA","avPrenom":"Renata","cbRaisonSociale":"BOCHKARYOVA RENATA","cbSiretSiren":"918539685","cbAdresse1":"7 rue de Sarrebourg","cbAdresse2":"","cbCp":"67000","cbVille":"STRASBOURG","spLibelle1":"","spLibelle2":"","acDateSerment":"","coordinates":[7.7461654,48.6084675]},{"NomBarreau":"STRASBOURG","avNom":"BOISRAME","avPrenom":"Laurent","cbRaisonSociale":"BOISRAME LAURENT","cbSiretSiren":"519477848","cbAdresse1":"23 Place des Halles","cbAdresse2":"","cbCp":"67000","cbVille":"STRASBOURG","spLibelle1":"","spLibelle2":"","acDateSerment":"","coordinates":[7.7410052,48.5873494]},{"NomBarreau":"STRASBOURG","avNom":"BOISSERIE","avPrenom":"Nicolas","cbRaisonSociale":"BOISSERIE NICOLAS","cbSiretSiren":"411256639","cbAdresse1":"9 Quai Zorn","cbAdresse2":"","cbCp":"67000","cbVille":"STRASBOURG","spLibelle1":"","spLibelle2":"","acDateSerment":"","coordinates":[7.759591,48.5889209]},{"NomBarreau":"STRASBOURG","avNom":"BOIVINEAU","avPrenom":"Juliette","cbRaisonSociale":"BOIVINEAU JULIETTE","cbSiretSiren":"893129577","cbAdresse1":"2 Place du Conseil des Quinze","cbAdresse2":"","cbCp":"67000","cbVille":"STRASBOURG","spLibelle1":"","spLibelle2":"","acDateSerment":"","coordinates":[7.7822466,48.587063]},{"NomBarreau":"STRASBOURG","avNom":"BOLLA","avPrenom":"Caroline","cbRaisonSociale":"BOLLA CAROLINE","cbSiretSiren":"502144918","cbAdresse1":"5 rue Paul Muller Simonis","cbAdresse2":"","cbCp":"67000","cbVille":"STRASBOURG","spLibelle1":"","spLibelle2":"","acDateSerment":"","coordinates":[7.7492453,48.5896037]},{"NomBarreau":"STRASBOURG","avNom":"BONNAREL","avPrenom":"Aurélien","cbRaisonSociale":"BONNAREL AURELIEN","cbSiretSiren":"881095947","cbAdresse1":"25 Boulevard Wilson","cbAdresse2":"","cbCp":"67000","cbVille":"STRASBOURG","spLibelle1":"","spLibelle2":"","acDateSerment":"","coordinates":[7.7402653,48.5895347]},{"NomBarreau":"STRASBOURG","avNom":"BORDRON","avPrenom":"Maxime","cbRaisonSociale":"BORDRON MAXIME","cbSiretSiren":"809333362","cbAdresse1":"8 rue de la Fonderie","cbAdresse2":"","cbCp":"67000","cbVille":"STRASBOURG","spLibelle1":"","spLibelle2":"","acDateSerment":"","coordinates":[7.749744,48.5859229]},{"NomBarreau":"STRASBOURG","avNom":"BOSSELUT","avPrenom":"Timothée","cbRaisonSociale":"BOSSELUT TIMOTHEE","cbSiretSiren":"847784931","cbAdresse1":"8 Rue de la Fonderie","cbAdresse2":"","cbCp":"67000","cbVille":"STRASBOURG","spLibelle1":"","spLibelle2":"","acDateSerment":"","coordinates":[7.749744,48.5859229]},{"NomBarreau":"STRASBOURG","avNom":"BOUCHAUD","avPrenom":"Marie","cbRaisonSociale":"BOUCHAUD MARIE","cbSiretSiren":"509809596","cbAdresse1":"63 Avenue des Vosges","cbAdresse2":"","cbCp":"67000","cbVille":"STRASBOURG","spLibelle1":"Droit du dommage corporel","spLibelle2":"","acDateSerment":"","coordinates":[7.7487482,48.5901657]},{"NomBarreau":"STRASBOURG","avNom":"BOUCHTI","avPrenom":"Saida","cbRaisonSociale":"BOUCHTI SAADA","cbSiretSiren":"480710490","cbAdresse1":"15, rue Erckmann Chatrian","cbAdresse2":"","cbCp":"67000","cbVille":"STRASBOURG","spLibelle1":"","spLibelle2":"","acDateSerment":"","coordinates":[7.7655822,48.5898024]},{"NomBarreau":"STRASBOURG","avNom":"BOUL","avPrenom":"Anne-Catherine","cbRaisonSociale":"BOUL ANNE-CATHERINE","cbSiretSiren":"529207623","cbAdresse1":"14 Rue des Halles","cbAdresse2":"","cbCp":"67000","cbVille":"STRASBOURG","spLibelle1":"","spLibelle2":"","acDateSerment":"","coordinates":[7.7403045,48.5887013]},{"NomBarreau":"STRASBOURG","avNom":"BOULTIF","avPrenom":"Mohamed Soufian","cbRaisonSociale":"BK2A BOULTIF & KOPP AVOCATS ASSOCIES","cbSiretSiren":"811958586","cbAdresse1":"10 Place du Temple Neuf","cbAdresse2":"","cbCp":"67000","cbVille":"STRASBOURG","spLibelle1":"","spLibelle2":"","acDateSerment":"","coordinates":[7.7477181,48.5829652]},{"NomBarreau":"STRASBOURG","avNom":"BOURGEOIS","avPrenom":"Olivier","cbRaisonSociale":"BOURGEOIS OLIVIER","cbSiretSiren":"843647090","cbAdresse1":"18 Avenue de la Marseillaise","cbAdresse2":"","cbCp":"67000","cbVille":"STRASBOURG","spLibelle1":"","spLibelle2":"","acDateSerment":"","coordinates":[7.7565308,48.5850683]},{"NomBarreau":"STRASBOURG","avNom":"BOURGUIGNON","avPrenom":"Amélie","cbRaisonSociale":"BOURGUIGNON AMELIE","cbSiretSiren":"849832498","cbAdresse1":"7 rue de Sarrebourg","cbAdresse2":"","cbCp":"67000","cbVille":"STRASBOURG","spLibelle1":"","spLibelle2":"","acDateSerment":"","coordinates":[7.7461654,48.6084675]},{"NomBarreau":"STRASBOURG","avNom":"BOURGUN","avPrenom":"Jean-Marie","cbRaisonSociale":"BOURGUN-BAUTZ ","cbSiretSiren":"829577097","cbAdresse1":"5a Quai Finkmatt","cbAdresse2":"","cbCp":"67000","cbVille":"STRASBOURG","spLibelle1":"","spLibelle2":"","acDateSerment":"","coordinates":[7.7472887,48.5874237]},{"NomBarreau":"STRASBOURG","avNom":"BOURGUN","avPrenom":"Raphaelle","cbRaisonSociale":"BOURGUN-BAUTZ ","cbSiretSiren":"829577097","cbAdresse1":"5a Quai Finkmatt","cbAdresse2":"","cbCp":"67000","cbVille":"STRASBOURG","spLibelle1":"","spLibelle2":"","acDateSerment":"","coordinates":[7.7472887,48.5874237]},{"NomBarreau":"STRASBOURG","avNom":"BOURSIER","avPrenom":"Anne-Claire","cbRaisonSociale":"BOURSIER ANNE-CLAIRE","cbSiretSiren":"444947097","cbAdresse1":"38 Avenue des Vosges","cbAdresse2":"","cbCp":"67000","cbVille":"STRASBOURG","spLibelle1":"","spLibelle2":"","acDateSerment":"","coordinates":[7.7586134,48.5875484]},{"NomBarreau":"STRASBOURG","avNom":"BOUTIN","avPrenom":"Céline","cbRaisonSociale":"BOUTIN CELINE","cbSiretSiren":"853353852","cbAdresse1":"63 Avenue des Vosges","cbAdresse2":"","cbCp":"67000","cbVille":"STRASBOURG","spLibelle1":"","spLibelle2":"","acDateSerment":"","coordinates":[7.7487482,48.5901657]},{"NomBarreau":"STRASBOURG","avNom":"BOZZI","avPrenom":"Alexandre","cbRaisonSociale":"LEONEM","cbSiretSiren":"803061852","cbAdresse1":"7 Rue de Sarrebourg","cbAdresse2":"","cbCp":"67000","cbVille":"STRASBOURG","spLibelle1":"","spLibelle2":"","acDateSerment":"","coordinates":[7.7461654,48.6084675]},{"NomBarreau":"STRASBOURG","avNom":"BOZZI","avPrenom":"David","cbRaisonSociale":"LEONEM","cbSiretSiren":"803061852","cbAdresse1":"7 Rue de Sarrebourg","cbAdresse2":"","cbCp":"67000","cbVille":"STRASBOURG","spLibelle1":"","spLibelle2":"","acDateSerment":"","coordinates":[7.7461654,48.6084675]},{"NomBarreau":"STRASBOURG","avNom":"BRAUN","avPrenom":"Eric","cbRaisonSociale":"BRAUN ERIC","cbSiretSiren":"408745172","cbAdresse1":"11 Rue Finkmatt","cbAdresse2":"","cbCp":"67000","cbVille":"STRASBOURG","spLibelle1":"","spLibelle2":"","acDateSerment":"","coordinates":[7.7472236,48.5897145]},{"NomBarreau":"STRASBOURG","avNom":"BRESCH","avPrenom":"Julien","cbRaisonSociale":"AVENUE 52. AVOCATS","cbSiretSiren":"413287129","cbAdresse1":"52 Avenue des Vosges","cbAdresse2":"","cbCp":"67000","cbVille":"STRASBOURG","spLibelle1":"","spLibelle2":"","acDateSerment":"","coordinates":[7.7501979,48.5900549]},{"NomBarreau":"STRASBOURG","avNom":"BRILLAT","avPrenom":"Manuela","cbRaisonSociale":"4T8 ","cbSiretSiren":"834439960","cbAdresse1":"17 rue de Verdun","cbAdresse2":"","cbCp":"67000","cbVille":"STRASBOURG","spLibelle1":"","spLibelle2":"","acDateSerment":"","coordinates":[7.6837787,48.5209346]},{"NomBarreau":"STRASBOURG","avNom":"BRUCKER","avPrenom":"Eric","cbRaisonSociale":"BRUCKER ERIC","cbSiretSiren":"381097229","cbAdresse1":"52 Avenue des Vosges","cbAdresse2":"","cbCp":"67000","cbVille":"STRASBOURG","spLibelle1":"","spLibelle2":"","acDateSerment":"","coordinates":[7.7501979,48.5900549]},{"NomBarreau":"STRASBOURG","avNom":"BURKATZKI","avPrenom":"Simon","cbRaisonSociale":"SELARL BERARD - JEMOLI - SANTELLI - BURKATZKI - BIZZARRI (INTER-BARREAUX)","cbSiretSiren":"479080897","cbAdresse1":"7 rue Oberlin","cbAdresse2":"","cbCp":"67000","cbVille":"STRASBOURG","spLibelle1":"","spLibelle2":"","acDateSerment":"","coordinates":[7.7527383,48.5902768]},{"NomBarreau":"STRASBOURG","avNom":"CAEN","avPrenom":"Jérome","cbRaisonSociale":"RACINE STRASBOURG CABINET D'AVOCATS","cbSiretSiren":"778861179","cbAdresse1":"9-10 Place du Temple Neuf","cbAdresse2":"","cbCp":"67000","cbVille":"STRASBOURG","spLibelle1":"","spLibelle2":"","acDateSerment":"","coordinates":[7.74785949911151,48.5831619]},{"NomBarreau":"STRASBOURG","avNom":"CANET","avPrenom":"Alice","cbRaisonSociale":"CANET ALICE","cbSiretSiren":"818112898","cbAdresse1":"6 Avenue de la Marseillaise","cbAdresse2":"","cbCp":"67000","cbVille":"STRASBOURG","spLibelle1":"","spLibelle2":"","acDateSerment":"","coordinates":[7.7555614,48.5855321]},{"NomBarreau":"STRASBOURG","avNom":"CANIVEZ","avPrenom":"Anthony","cbRaisonSociale":"CANIVEZ ANTHONY","cbSiretSiren":"808371231","cbAdresse1":"5 place du Corbeau","cbAdresse2":"","cbCp":"67000","cbVille":"STRASBOURG","spLibelle1":"","spLibelle2":"","acDateSerment":"","coordinates":[7.7510212,48.579145]},{"NomBarreau":"STRASBOURG","avNom":"CERVANTES","avPrenom":"Christophe","cbRaisonSociale":"CERVANTES CHRISTOPHE","cbSiretSiren":"509411484","cbAdresse1":"15, quai Koch","cbAdresse2":"","cbCp":"67000","cbVille":"STRASBOURG","spLibelle1":"","spLibelle2":"","acDateSerment":"","coordinates":[7.7585393,48.5874153]},{"NomBarreau":"STRASBOURG","avNom":"CEVIZ","avPrenom":"Bahar","cbRaisonSociale":"CABINET CEVIZ - AVOCATS & CONSEILS","cbSiretSiren":"832138184","cbAdresse1":"9 A Rue Neuve","cbAdresse2":"","cbCp":"67200","cbVille":"STRASBOURG","spLibelle1":"","spLibelle2":"","acDateSerment":"","coordinates":[7.7197602,48.5933578]},{"NomBarreau":"STRASBOURG","avNom":"CHAOURAK","avPrenom":"Karima","cbRaisonSociale":"CHAOURAK KARIMA","cbSiretSiren":"440807782","cbAdresse1":"69, Route des Romains","cbAdresse2":"","cbCp":"67200","cbVille":"STRASBOURG","spLibelle1":"","spLibelle2":"","acDateSerment":"","coordinates":[7.7125978,48.5789725]},{"NomBarreau":"STRASBOURG","avNom":"CHAVKHALOV","avPrenom":"Zelimkhan","cbRaisonSociale":"AVOCAT CHAVKHALOV","cbSiretSiren":"915114987","cbAdresse1":"67 Rue Boecklin","cbAdresse2":"","cbCp":"67000","cbVille":"STRASBOURG","spLibelle1":"","spLibelle2":"","acDateSerment":"","coordinates":[7.7803694,48.6004396]},{"NomBarreau":"STRASBOURG","avNom":"CHOUKOUR","avPrenom":"Kaoutare","cbRaisonSociale":"CHOUKOUR KAOUTARE","cbSiretSiren":"538833344","cbAdresse1":"9 Place de Haguenau","cbAdresse2":"","cbCp":"67000","cbVille":"STRASBOURG","spLibelle1":"","spLibelle2":"","acDateSerment":"","coordinates":[7.7434137,48.5910567]},{"NomBarreau":"STRASBOURG","avNom":"CHRISOCHOIDIS","avPrenom":"Sylvie","cbRaisonSociale":"CHRISOCHOIDIS SYLVIE","cbSiretSiren":"384644498","cbAdresse1":"1 rue des Arquebusiers","cbAdresse2":"","cbCp":"67000","cbVille":"STRASBOURG","spLibelle1":"","spLibelle2":"","acDateSerment":"","coordinates":[7.7588631,48.5895572]},{"NomBarreau":"STRASBOURG","avNom":"CINCONZE","avPrenom":"Chloé","cbRaisonSociale":"CINCONZE CHLOE","cbSiretSiren":"847996287","cbAdresse1":"5 Place du Corbeau","cbAdresse2":"","cbCp":"67000","cbVille":"STRASBOURG","spLibelle1":"","spLibelle2":"","acDateSerment":"","coordinates":[7.7510212,48.579145]},{"NomBarreau":"STRASBOURG","avNom":"CLAUDEL","avPrenom":"Albane","cbRaisonSociale":"CLAUDEL ALBANE","cbSiretSiren":"893141929","cbAdresse1":"2 Place du Conseil des Quinze","cbAdresse2":"","cbCp":"67000","cbVille":"STRASBOURG","spLibelle1":"","spLibelle2":"","acDateSerment":"","coordinates":[7.7822466,48.587063]},{"NomBarreau":"STRASBOURG","avNom":"CLEMENT","avPrenom":"Hélène","cbRaisonSociale":"CLEMENT HELENE","cbSiretSiren":"847703451","cbAdresse1":"87 Avenue des Vosges","cbAdresse2":"","cbCp":"67000","cbVille":"STRASBOURG","spLibelle1":"","spLibelle2":"","acDateSerment":"","coordinates":[7.7442899,48.5914188]},{"NomBarreau":"STRASBOURG","avNom":"COHADE","avPrenom":"Caroline","cbRaisonSociale":"MLA CONSEIL ","cbSiretSiren":"480133511","cbAdresse1":"26 Chemin du Doernelbruck","cbAdresse2":"","cbCp":"67000","cbVille":"STRASBOURG","spLibelle1":"","spLibelle2":"","acDateSerment":"","coordinates":[7.7733789,48.604184]},{"NomBarreau":"STRASBOURG","avNom":"COHEN-ELBAZ","avPrenom":"Sophie","cbRaisonSociale":"COHEN-ELBAZ SOPHIE","cbSiretSiren":"415366558","cbAdresse1":"5 A rue Fischart","cbAdresse2":"Batiment B","cbCp":"67000","cbVille":"STRASBOURG","spLibelle1":"","spLibelle2":"","acDateSerment":"","coordinates":[7.7653258,48.5855229]},{"NomBarreau":"STRASBOURG","avNom":"CONEIN","avPrenom":"Tiffany","cbRaisonSociale":"4T8 ","cbSiretSiren":"834439960","cbAdresse1":"17 rue de Verdun","cbAdresse2":"","cbCp":"67000","cbVille":"STRASBOURG","spLibelle1":"","spLibelle2":"","acDateSerment":"","coordinates":[7.6837787,48.5209346]},{"NomBarreau":"STRASBOURG","avNom":"COQ TURAN","avPrenom":"Christine","cbRaisonSociale":"SEJAL ","cbSiretSiren":"668500044","cbAdresse1":"2 rue Henri Bergson","cbAdresse2":"","cbCp":"67200","cbVille":"STRASBOURG","spLibelle1":"","spLibelle2":"","acDateSerment":"","coordinates":[7.7102981,48.5898736]},{"NomBarreau":"STRASBOURG","avNom":"CORREIA","avPrenom":"Marylène","cbRaisonSociale":"CORREIA MARYLENE","cbSiretSiren":"519617617","cbAdresse1":"25 rue Finkmatt","cbAdresse2":"","cbCp":"67000","cbVille":"STRASBOURG","spLibelle1":"","spLibelle2":"","acDateSerment":"","coordinates":[7.7466956,48.5905011]},{"NomBarreau":"STRASBOURG","avNom":"COSENTINO","avPrenom":"Abélia","cbRaisonSociale":"COSENTINO ABELIA","cbSiretSiren":"893328534","cbAdresse1":"87 Avenue des Vosges","cbAdresse2":"","cbCp":"67000","cbVille":"STRASBOURG","spLibelle1":"","spLibelle2":"","acDateSerment":"","coordinates":[7.7442899,48.5914188]},{"NomBarreau":"STRASBOURG","avNom":"COSTES","avPrenom":"Cyril","cbRaisonSociale":"COSTES CYRIL","cbSiretSiren":"438665069","cbAdresse1":"49 rue du Lazaret","cbAdresse2":"","cbCp":"67100","cbVille":"STRASBOURG","spLibelle1":"","spLibelle2":"","acDateSerment":"","coordinates":[7.7559821,48.5638368]},{"NomBarreau":"STRASBOURG","avNom":"COVE","avPrenom":"Angélique","cbRaisonSociale":"SCHRECKENBERG - PARNIERE","cbSiretSiren":"453641318","cbAdresse1":"25 Boulevard Wilson","cbAdresse2":"","cbCp":"67000","cbVille":"STRASBOURG","spLibelle1":"","spLibelle2":"","acDateSerment":"","coordinates":[7.7402653,48.5895347]},{"NomBarreau":"STRASBOURG","avNom":"CREMEL","avPrenom":"Laurent","cbRaisonSociale":"CREMEL LAURENT","cbSiretSiren":"421660614","cbAdresse1":"21 rue des Francs Bourgeois","cbAdresse2":"","cbCp":"67000","cbVille":"STRASBOURG","spLibelle1":"","spLibelle2":"","acDateSerment":"","coordinates":[7.7464488,48.5813194]},{"NomBarreau":"STRASBOURG","avNom":"CROSNIER LECONTE","avPrenom":"Aurélie","cbRaisonSociale":"CROSNIER LECONTE AURELIE","cbSiretSiren":"909268401","cbAdresse1":"2 rue Baldung Grien","cbAdresse2":"","cbCp":"67000","cbVille":"STRASBOURG","spLibelle1":"","spLibelle2":"","acDateSerment":"","coordinates":[7.7527493,48.5899676]},{"NomBarreau":"STRASBOURG","avNom":"DA COSTA-DAUL","avPrenom":"Sylvia","cbRaisonSociale":"DA COSTA-DAUL SYLVIA","cbSiretSiren":"514575190","cbAdresse1":"18 Rue de la Fonderie","cbAdresse2":"","cbCp":"67000","cbVille":"STRASBOURG","spLibelle1":"","spLibelle2":"","acDateSerment":"","coordinates":[7.7500748,48.5855911]},{"NomBarreau":"STRASBOURG","avNom":"DALY","avPrenom":"Amina","cbRaisonSociale":"DALY AMINA","cbSiretSiren":"503103236","cbAdresse1":"2 rue Saint Arbogast","cbAdresse2":"","cbCp":"67000","cbVille":"STRASBOURG","spLibelle1":"","spLibelle2":"","acDateSerment":"","coordinates":[7.7492971,48.588768]},{"NomBarreau":"STRASBOURG","avNom":"DANGEL","avPrenom":"Thiébault","cbRaisonSociale":"ADVEN","cbSiretSiren":"799886320","cbAdresse1":"5 Place du Corbeau","cbAdresse2":"","cbCp":"67000","cbVille":"STRASBOURG","spLibelle1":"","spLibelle2":"","acDateSerment":"","coordinates":[7.7510212,48.579145]},{"NomBarreau":"STRASBOURG","avNom":"DARNAND","avPrenom":"Pauline","cbRaisonSociale":"DARNAND PAULINE","cbSiretSiren":"510142045","cbAdresse1":"230 Avenue de Colmar","cbAdresse2":"","cbCp":"67100","cbVille":"STRASBOURG","spLibelle1":"","spLibelle2":"","acDateSerment":"","coordinates":[7.7459578,48.5560454]},{"NomBarreau":"STRASBOURG","avNom":"DAUMAS","avPrenom":"Mathilde","cbRaisonSociale":"DAUMAS MATHILDE","cbSiretSiren":"893054783","cbAdresse1":"52 Avenue des Vosges","cbAdresse2":"","cbCp":"67000","cbVille":"STRASBOURG","spLibelle1":"","spLibelle2":"","acDateSerment":"","coordinates":[7.7501979,48.5900549]},{"NomBarreau":"STRASBOURG","avNom":"DAVID","avPrenom":"Marlène","cbRaisonSociale":"DAVID MARLENE","cbSiretSiren":"817905920","cbAdresse1":"3 rue des Arquebusiers","cbAdresse2":"Entrée B (Parc des Contades)","cbCp":"67000","cbVille":"STRASBOURG","spLibelle1":"","spLibelle2":"","acDateSerment":"","coordinates":[7.759161,48.5902156]},{"NomBarreau":"STRASBOURG","avNom":"DE GUIO","avPrenom":"Juliette","cbRaisonSociale":"MAGENTA AVOCATS","cbSiretSiren":"908931637","cbAdresse1":"11 Place des Halles","cbAdresse2":"","cbCp":"67000","cbVille":"STRASBOURG","spLibelle1":"","spLibelle2":"","acDateSerment":"","coordinates":[7.7422031,48.5878095]},{"NomBarreau":"STRASBOURG","avNom":"DE MONTLIBERT","avPrenom":"Ariane","cbRaisonSociale":"DE MONTLIBERT ARIANE","cbSiretSiren":"429810146","cbAdresse1":"7 Avenue des Vosges","cbAdresse2":"","cbCp":"67000","cbVille":"STRASBOURG","spLibelle1":"","spLibelle2":"","acDateSerment":"","coordinates":[7.7586134,48.5875484]},{"NomBarreau":"STRASBOURG","avNom":"DE PAEUW","avPrenom":"Hélène","cbRaisonSociale":"DE PAEUW HELENE","cbSiretSiren":"819982216","cbAdresse1":"52 Avenue des Vosges","cbAdresse2":"","cbCp":"67000","cbVille":"STRASBOURG","spLibelle1":"","spLibelle2":"","acDateSerment":"","coordinates":[7.7501979,48.5900549]},{"NomBarreau":"STRASBOURG","avNom":"DE RAVEL D'ESCLAPON","avPrenom":"Marion","cbRaisonSociale":"DE RAVEL D'ESCLAPON MARION","cbSiretSiren":"821281714","cbAdresse1":"7 Quai Jacques Sturm","cbAdresse2":"","cbCp":"67000","cbVille":"STRASBOURG","spLibelle1":"","spLibelle2":"","acDateSerment":"","coordinates":[7.7504379,48.5873565]},{"NomBarreau":"STRASBOURG","avNom":"DE SOUSA","avPrenom":"Sylvie","cbRaisonSociale":"DE SOUSA SYLVIE","cbSiretSiren":"445164312","cbAdresse1":"22 rue Thomann","cbAdresse2":"","cbCp":"67000","cbVille":"STRASBOURG","spLibelle1":"","spLibelle2":"","acDateSerment":"","coordinates":[7.7452952,48.5846999]},{"NomBarreau":"STRASBOURG","avNom":"DEBUS","avPrenom":"Anne-Sophie","cbRaisonSociale":"DEBUS ANNE-SOPHIE","cbSiretSiren":"818107310","cbAdresse1":"3 rue Grandidier","cbAdresse2":"","cbCp":"67000","cbVille":"STRASBOURG","spLibelle1":"","spLibelle2":"","acDateSerment":"","coordinates":[7.7614779,48.5838487]},{"NomBarreau":"STRASBOURG","avNom":"DECKER","avPrenom":"Patricia","cbRaisonSociale":"DECKER PATRICIA","cbSiretSiren":"331226860","cbAdresse1":"5 rue Finkmatt","cbAdresse2":"","cbCp":"67000","cbVille":"STRASBOURG","spLibelle1":"","spLibelle2":"","acDateSerment":"","coordinates":[7.7476315,48.5891039]},{"NomBarreau":"STRASBOURG","avNom":"DELAHAIE-ROTH","avPrenom":"Sophie","cbRaisonSociale":"DELAHAIE-ROTH SOPHIE","cbSiretSiren":"424480069","cbAdresse1":"25 Boulevard de l'Orangerie","cbAdresse2":"","cbCp":"67000","cbVille":"STRASBOURG","spLibelle1":"Droit commercial, des affaires et de la concurrence","spLibelle2":"","acDateSerment":"","coordinates":[7.77468,48.5895935]},{"NomBarreau":"STRASBOURG","avNom":"DELANCHY","avPrenom":"Laurence","cbRaisonSociale":"DELANCHY PLANCON AVOCATS","cbSiretSiren":"881715452","cbAdresse1":"1 rue Auguste Lamey","cbAdresse2":"","cbCp":"67000","cbVille":"STRASBOURG","spLibelle1":"","spLibelle2":"","acDateSerment":"","coordinates":[7.7559556,48.5885746]},{"NomBarreau":"STRASBOURG","avNom":"DELATTRE","avPrenom":"Vincent","cbRaisonSociale":"DELATTRE ","cbSiretSiren":"453839524","cbAdresse1":"1 Boulevard Ohmacht","cbAdresse2":"","cbCp":"67000","cbVille":"STRASBOURG","spLibelle1":"","spLibelle2":"","acDateSerment":"","coordinates":[7.7593367,48.5931721]},{"NomBarreau":"STRASBOURG","avNom":"DELILE","avPrenom":"Monica-Elena","cbRaisonSociale":"DELILE MONICA-ELENA","cbSiretSiren":"834732802","cbAdresse1":"18 Avenue de la Marseillaise","cbAdresse2":"","cbCp":"67000","cbVille":"STRASBOURG","spLibelle1":"","spLibelle2":"","acDateSerment":"","coordinates":[7.7565308,48.5850683]},{"NomBarreau":"STRASBOURG","avNom":"DELORD","avPrenom":"Guillaume","cbRaisonSociale":"DELORD GUILLAUME","cbSiretSiren":"791369382","cbAdresse1":"77 Avenue des Vosges","cbAdresse2":"","cbCp":"67000","cbVille":"STRASBOURG","spLibelle1":"","spLibelle2":"","acDateSerment":"","coordinates":[7.7464245,48.5908187]},{"NomBarreau":"STRASBOURG","avNom":"DEMANGEON","avPrenom":"Emilie","cbRaisonSociale":"SEJAL ","cbSiretSiren":"668500044","cbAdresse1":"2 rue Henri Bergson","cbAdresse2":"","cbCp":"67200","cbVille":"STRASBOURG","spLibelle1":"","spLibelle2":"","acDateSerment":"","coordinates":[7.7102981,48.5898736]},{"NomBarreau":"STRASBOURG","avNom":"DEMARETZ","avPrenom":"Agathe","cbRaisonSociale":"DEMARETZ AGATHE","cbSiretSiren":"881095970","cbAdresse1":"5 rue de Phalsbourg","cbAdresse2":"","cbCp":"67000","cbVille":"STRASBOURG","spLibelle1":"","spLibelle2":"","acDateSerment":"","coordinates":[7.7488747,48.5908791]},{"NomBarreau":"STRASBOURG","avNom":"DENU","avPrenom":"Cécile","cbRaisonSociale":"DENU CECILE","cbSiretSiren":"823143656","cbAdresse1":"1 Rue du Travail","cbAdresse2":"","cbCp":"67000","cbVille":"STRASBOURG","spLibelle1":"","spLibelle2":"","acDateSerment":"","coordinates":[7.7418369,48.588408]},{"NomBarreau":"STRASBOURG","avNom":"DERRENDINGER","avPrenom":"Claire","cbRaisonSociale":"ADVEN","cbSiretSiren":"799886320","cbAdresse1":"5 Place du Corbeau","cbAdresse2":"","cbCp":"67000","cbVille":"STRASBOURG","spLibelle1":"Droit du travail","spLibelle2":"","acDateSerment":"","coordinates":[7.7510212,48.579145]},{"NomBarreau":"STRASBOURG","avNom":"DEVOUCOUX","avPrenom":"Caroline","cbRaisonSociale":"MAZARS SOCIETE D'AVOCATS","cbSiretSiren":"497765768","cbAdresse1":"1 rue des Arquebusiers","cbAdresse2":"","cbCp":"67000","cbVille":"STRASBOURG","spLibelle1":"","spLibelle2":"","acDateSerment":"","coordinates":[7.7588631,48.5895572]},{"NomBarreau":"STRASBOURG","avNom":"DIABY","avPrenom":"Gary","cbRaisonSociale":"TALARIS AVOCATS","cbSiretSiren":"834029936","cbAdresse1":"63 Avenue des Vosges","cbAdresse2":"","cbCp":"67000","cbVille":"STRASBOURG","spLibelle1":"","spLibelle2":"","acDateSerment":"","coordinates":[7.7487482,48.5901657]},{"NomBarreau":"STRASBOURG","avNom":"DIALLO","avPrenom":"Déborah","cbRaisonSociale":"DIALLO DEBORAH","cbSiretSiren":"828492496","cbAdresse1":"12 Avenue de la Marseillaise","cbAdresse2":"","cbCp":"67000","cbVille":"STRASBOURG","spLibelle1":"","spLibelle2":"","acDateSerment":"","coordinates":[7.755976,48.5853403]},{"NomBarreau":"STRASBOURG","avNom":"DICTUS","avPrenom":"Charlotte","cbRaisonSociale":"DICTUS CHARLOTTE","cbSiretSiren":"894725761","cbAdresse1":"20 Place des Halles","cbAdresse2":"Tour Europe - BP 80004","cbCp":"67000","cbVille":"STRASBOURG","spLibelle1":"","spLibelle2":"","acDateSerment":"","coordinates":[7.7413659,48.586862]},{"NomBarreau":"STRASBOURG","avNom":"DIDOU","avPrenom":"Hicham","cbRaisonSociale":"DIDOU HICHAM","cbSiretSiren":"824835581","cbAdresse1":"12 rue des Pontonniers","cbAdresse2":"","cbCp":"67000","cbVille":"STRASBOURG","spLibelle1":"","spLibelle2":"","acDateSerment":"","coordinates":[7.7571204,48.5843159]},{"NomBarreau":"STRASBOURG","avNom":"DIEBOLD-STROHL","avPrenom":"Fabienne","cbRaisonSociale":"DIEBOLD-STROHL FABIENNE","cbSiretSiren":"331559583","cbAdresse1":"3 rue Lothaire","cbAdresse2":"","cbCp":"67200","cbVille":"STRASBOURG","spLibelle1":"","spLibelle2":"","acDateSerment":"","coordinates":[7.7126463,48.5794036]},{"NomBarreau":"STRASBOURG","avNom":"DIESTCHY","avPrenom":"Juliette","cbRaisonSociale":"DIESTCHY JULIETTE","cbSiretSiren":"834852493","cbAdresse1":"154 Avenue du Rhin","cbAdresse2":"","cbCp":"67100","cbVille":"STRASBOURG","spLibelle1":"","spLibelle2":"","acDateSerment":"","coordinates":[7.7803104,48.5692877]},{"NomBarreau":"STRASBOURG","avNom":"DIEUDONNE","avPrenom":"Florence","cbRaisonSociale":"SELARL DIEUDONNE GANGLOFF","cbSiretSiren":"881029730","cbAdresse1":"68 Avenue des Vosges","cbAdresse2":"","cbCp":"67000","cbVille":"STRASBOURG","spLibelle1":"","spLibelle2":"","acDateSerment":"","coordinates":[7.748014,48.5906643]},{"NomBarreau":"STRASBOURG","avNom":"DILLENSCHNEIDER","avPrenom":"Pierre-Yves","cbRaisonSociale":"DILLENSCHNEIDER PIERRE-YVES","cbSiretSiren":"893739979","cbAdresse1":"7 Quai Jacques Sturm","cbAdresse2":"","cbCp":"67000","cbVille":"STRASBOURG","spLibelle1":"","spLibelle2":"","acDateSerment":"","coordinates":[7.7504379,48.5873565]},{"NomBarreau":"STRASBOURG","avNom":"DISS","avPrenom":"Jérémie","cbRaisonSociale":"DISS JEREMIE","cbSiretSiren":"843807033","cbAdresse1":"5 Place du Corbeau","cbAdresse2":"","cbCp":"67000","cbVille":"STRASBOURG","spLibelle1":"","spLibelle2":"","acDateSerment":"","coordinates":[7.7510212,48.579145]},{"NomBarreau":"STRASBOURG","avNom":"DJOTANG-NGNIA","avPrenom":"Reine Myreille","cbRaisonSociale":"DJOTANG-NGNIA REINE MYREILLE","cbSiretSiren":"511189672","cbAdresse1":"6 Avenue des Vosges","cbAdresse2":"","cbCp":"67000","cbVille":"STRASBOURG","spLibelle1":"","spLibelle2":"","acDateSerment":"","coordinates":[7.7586134,48.5875484]},{"NomBarreau":"STRASBOURG","avNom":"DOLE","avPrenom":"Florence","cbRaisonSociale":"DOLE FLORENCE","cbSiretSiren":"529712457","cbAdresse1":"15 rue Erckmann Chatrian","cbAdresse2":"","cbCp":"67000","cbVille":"STRASBOURG","spLibelle1":"","spLibelle2":"","acDateSerment":"","coordinates":[7.7655822,48.5898024]},{"NomBarreau":"STRASBOURG","avNom":"DOMANSKI","avPrenom":"Anna","cbRaisonSociale":"DOMANSKI ANNA","cbSiretSiren":"517924171","cbAdresse1":"63 Avenue des Vosges","cbAdresse2":"","cbCp":"67000","cbVille":"STRASBOURG","spLibelle1":"","spLibelle2":"","acDateSerment":"","coordinates":[7.7487482,48.5901657]},{"NomBarreau":"STRASBOURG","avNom":"DOPPLER","avPrenom":"Gaelle","cbRaisonSociale":"AVENUE 52. AVOCATS","cbSiretSiren":"413287129","cbAdresse1":"52 Avenue des Vosges","cbAdresse2":"","cbCp":"67000","cbVille":"STRASBOURG","spLibelle1":"","spLibelle2":"","acDateSerment":"","coordinates":[7.7501979,48.5900549]},{"NomBarreau":"STRASBOURG","avNom":"DORNIC","avPrenom":"Caroline","cbRaisonSociale":"DORNIC CAROLINE","cbSiretSiren":"539923045","cbAdresse1":"5 A rue Fischart","cbAdresse2":"Batiment B","cbCp":"67000","cbVille":"STRASBOURG","spLibelle1":"","spLibelle2":"","acDateSerment":"","coordinates":[7.7653258,48.5855229]},{"NomBarreau":"STRASBOURG","avNom":"DORR","avPrenom":"Luc","cbRaisonSociale":"DULMET - DORR","cbSiretSiren":"","cbAdresse1":"63 Avenue des Vosges","cbAdresse2":"","cbCp":"67000","cbVille":"STRASBOURG","spLibelle1":"Droit de la famille, des personnes et de leur patrimoine","spLibelle2":"Droit du travail","acDateSerment":"","coordinates":[7.7487482,48.5901657]},{"NomBarreau":"STRASBOURG","avNom":"DOTT","avPrenom":"Hélène","cbRaisonSociale":"YES !","cbSiretSiren":"909688194","cbAdresse1":"65 Avenue des Vosges","cbAdresse2":"","cbCp":"67000","cbVille":"STRASBOURG","spLibelle1":"","spLibelle2":"","acDateSerment":"","coordinates":[7.7483591,48.5902785]},{"NomBarreau":"STRASBOURG","avNom":"DRILLON","avPrenom":"Sébastien","cbRaisonSociale":"DRILLON SEBASTIEN","cbSiretSiren":"815260997","cbAdresse1":"15 Quai Koch","cbAdresse2":"","cbCp":"67000","cbVille":"STRASBOURG","spLibelle1":"","spLibelle2":"","acDateSerment":"","coordinates":[7.7585393,48.5874153]},{"NomBarreau":"STRASBOURG","avNom":"DUBAND","avPrenom":"Julie","cbRaisonSociale":"WELSCH-KESSLER & ASSOCIES","cbSiretSiren":"441025574","cbAdresse1":"57 rue du Faubourg de Pierre","cbAdresse2":"","cbCp":"67000","cbVille":"STRASBOURG","spLibelle1":"","spLibelle2":"","acDateSerment":"","coordinates":[7.7450234,48.5895245]},{"NomBarreau":"STRASBOURG","avNom":"DUCOURTIOUX","avPrenom":"Dominique","cbRaisonSociale":"DUCOURTIOUX DOMINIQUE","cbSiretSiren":"381396332","cbAdresse1":"81 Avenue des Vosges","cbAdresse2":"","cbCp":"67000","cbVille":"STRASBOURG","spLibelle1":"","spLibelle2":"","acDateSerment":"","coordinates":[7.744844,48.5912625]},{"NomBarreau":"STRASBOURG","avNom":"DUDKIEWICZ-BALMELLE","avPrenom":"Noémie","cbRaisonSociale":"DUDKIEWICZ-BALMELLE NOEMIE","cbSiretSiren":"800594558","cbAdresse1":"9-10 Place du Temple Neuf","cbAdresse2":"","cbCp":"67000","cbVille":"STRASBOURG","spLibelle1":"","spLibelle2":"","acDateSerment":"","coordinates":[7.74785949911151,48.5831619]},{"NomBarreau":"STRASBOURG","avNom":"DULMET","avPrenom":"Pierre","cbRaisonSociale":"DULMET - DORR","cbSiretSiren":"","cbAdresse1":"63 Avenue des Vosges","cbAdresse2":"","cbCp":"67000","cbVille":"STRASBOURG","spLibelle1":"","spLibelle2":"","acDateSerment":"","coordinates":[7.7487482,48.5901657]},{"NomBarreau":"STRASBOURG","avNom":"DUPONT","avPrenom":"Julien","cbRaisonSociale":"DUPONT JULIEN","cbSiretSiren":"502355662","cbAdresse1":"16 rue de Reims","cbAdresse2":"","cbCp":"67000","cbVille":"STRASBOURG","spLibelle1":"","spLibelle2":"","acDateSerment":"","coordinates":[7.7694275,48.5860799]},{"NomBarreau":"STRASBOURG","avNom":"DUPUIS","avPrenom":"Clément","cbRaisonSociale":"MAGENTA AVOCATS","cbSiretSiren":"908931637","cbAdresse1":"11 Place des Halles","cbAdresse2":"","cbCp":"67000","cbVille":"STRASBOURG","spLibelle1":"","spLibelle2":"","acDateSerment":"","coordinates":[7.7422031,48.5878095]},{"NomBarreau":"STRASBOURG","avNom":"EDER","avPrenom":"Thierry","cbRaisonSociale":"EDER THIERRY","cbSiretSiren":"350922894","cbAdresse1":"18 rue Lamey","cbAdresse2":"","cbCp":"67000","cbVille":"STRASBOURG","spLibelle1":"","spLibelle2":"","acDateSerment":"","coordinates":[7.7564324,48.5889898]},{"NomBarreau":"STRASBOURG","avNom":"EDMOND","avPrenom":"Thierry","cbRaisonSociale":"EDMOND THIERRY","cbSiretSiren":"522564608","cbAdresse1":"60 Avenue des Vosges","cbAdresse2":"1er étage","cbCp":"67000","cbVille":"STRASBOURG","spLibelle1":"","spLibelle2":"","acDateSerment":"","coordinates":[7.7495082,48.5902472]},{"NomBarreau":"STRASBOURG","avNom":"EHRMANN","avPrenom":"André","cbRaisonSociale":"PRAD AVOCATS","cbSiretSiren":"790396709","cbAdresse1":"5 rue Fischart","cbAdresse2":"","cbCp":"67000","cbVille":"STRASBOURG","spLibelle1":"","spLibelle2":"","acDateSerment":"","coordinates":[7.7654897,48.5860939]},{"NomBarreau":"STRASBOURG","avNom":"EL FAGROUCHI","avPrenom":"Oualid","cbRaisonSociale":"EL FAGROUCHI OUALID","cbSiretSiren":"909287336","cbAdresse1":"20 Place des Halles","cbAdresse2":"Tour Europe - BP 80004","cbCp":"67081","cbVille":"STRASBOURG","spLibelle1":"","spLibelle2":"","acDateSerment":"","coordinates":[7.7413659,48.586862]},{"NomBarreau":"STRASBOURG","avNom":"ELKAIM-BANNER","avPrenom":"Jennifer","cbRaisonSociale":"ELKAIM-BANNER JENNIFER","cbSiretSiren":"808768998","cbAdresse1":"5 A rue Fischart","cbAdresse2":"Batiment B","cbCp":"67000","cbVille":"STRASBOURG","spLibelle1":"","spLibelle2":"","acDateSerment":"","coordinates":[7.7653258,48.5855229]},{"NomBarreau":"STRASBOURG","avNom":"ELSAESSER","avPrenom":"Typhaine","cbRaisonSociale":"ELSAESSER TYPHAINE","cbSiretSiren":"834668691","cbAdresse1":"24 Avenue des Vosges","cbAdresse2":"","cbCp":"67000","cbVille":"STRASBOURG","spLibelle1":"","spLibelle2":"","acDateSerment":"","coordinates":[7.7586134,48.5875484]},{"NomBarreau":"STRASBOURG","avNom":"ENDT","avPrenom":"Erine","cbRaisonSociale":"ENDT ERINE","cbSiretSiren":"909331324","cbAdresse1":"2 rue des Pontonniers","cbAdresse2":"","cbCp":"67000","cbVille":"STRASBOURG","spLibelle1":"","spLibelle2":"","acDateSerment":"","coordinates":[7.7567197,48.5841206]},{"NomBarreau":"STRASBOURG","avNom":"ENGEL","avPrenom":"Grégory","cbRaisonSociale":"ENGEL GREGORY","cbSiretSiren":"451673925","cbAdresse1":"27 rue Boecklin","cbAdresse2":"","cbCp":"67000","cbVille":"STRASBOURG","spLibelle1":"","spLibelle2":"","acDateSerment":"","coordinates":[7.7779001,48.5988276]},{"NomBarreau":"STRASBOURG","avNom":"ENGEL","avPrenom":"Sophie","cbRaisonSociale":"ENGEL SOPHIE","cbSiretSiren":"509833208","cbAdresse1":"23 Place des Halles","cbAdresse2":"","cbCp":"67000","cbVille":"STRASBOURG","spLibelle1":"","spLibelle2":"","acDateSerment":"","coordinates":[7.7410052,48.5873494]},{"NomBarreau":"STRASBOURG","avNom":"ETIENNEY","avPrenom":"Fabienne","cbRaisonSociale":"ETIENNEY FABIENNE","cbSiretSiren":"402746267","cbAdresse1":"52 Avenue des Vosges","cbAdresse2":"","cbCp":"67000","cbVille":"STRASBOURG","spLibelle1":"Droit des sociétés","spLibelle2":"Droit fiscal et droit douanier","acDateSerment":"","coordinates":[7.7501979,48.5900549]},{"NomBarreau":"STRASBOURG","avNom":"ETTEDGUI ABOAB","avPrenom":"Avi","cbRaisonSociale":"ETTEDGUI ABOAB AVI","cbSiretSiren":"449178482","cbAdresse1":"2 rue St Arbogast","cbAdresse2":"","cbCp":"67000","cbVille":"STRASBOURG","spLibelle1":"","spLibelle2":"","acDateSerment":"","coordinates":[7.7492971,48.588768]},{"NomBarreau":"STRASBOURG","avNom":"ETTEDGUI ABOAB","avPrenom":"Benjamin","cbRaisonSociale":"ETTEDGUI ABOAB BENJAMIN","cbSiretSiren":"909879694","cbAdresse1":"6 Quai Kleber","cbAdresse2":"","cbCp":"67000","cbVille":"STRASBOURG","spLibelle1":"","spLibelle2":"","acDateSerment":"","coordinates":[7.7436715,48.585933]},{"NomBarreau":"STRASBOURG","avNom":"FADY","avPrenom":"Nicolas","cbRaisonSociale":"FADY NICOLAS","cbSiretSiren":"405221797","cbAdresse1":"5 Rue de Phalsbourg","cbAdresse2":"","cbCp":"67000","cbVille":"STRASBOURG","spLibelle1":"","spLibelle2":"","acDateSerment":"","coordinates":[7.7488747,48.5908791]},{"NomBarreau":"STRASBOURG","avNom":"FAUVET","avPrenom":"Claire","cbRaisonSociale":"FAUVET CLAIRE","cbSiretSiren":"893054965","cbAdresse1":"12 rue des Pontonniers","cbAdresse2":"","cbCp":"67000","cbVille":"STRASBOURG","spLibelle1":"","spLibelle2":"","acDateSerment":"","coordinates":[7.7571204,48.5843159]},{"NomBarreau":"STRASBOURG","avNom":"FERRETTI","avPrenom":"Ambroise","cbRaisonSociale":"ADVEN","cbSiretSiren":"799886320","cbAdresse1":"5 Place du Corbeau","cbAdresse2":"","cbCp":"67000","cbVille":"STRASBOURG","spLibelle1":"","spLibelle2":"","acDateSerment":"","coordinates":[7.7510212,48.579145]},{"NomBarreau":"STRASBOURG","avNom":"FERTE","avPrenom":"Manon","cbRaisonSociale":"FERTE MANON","cbSiretSiren":"802411520","cbAdresse1":"9 A Rue Neuve","cbAdresse2":"","cbCp":"67200","cbVille":"STRASBOURG","spLibelle1":"","spLibelle2":"","acDateSerment":"","coordinates":[7.7197602,48.5933578]},{"NomBarreau":"STRASBOURG","avNom":"FEUERBACH","avPrenom":"Jean-Louis","cbRaisonSociale":"FEUERBACH JEAN-LOUIS","cbSiretSiren":"328892872","cbAdresse1":"27 rue du Faubourg de Saverne","cbAdresse2":"","cbCp":"67000","cbVille":"STRASBOURG","spLibelle1":"","spLibelle2":"","acDateSerment":"","coordinates":[7.7397258,48.5858775]},{"NomBarreau":"STRASBOURG","avNom":"FEUERBACH","avPrenom":"Michel","cbRaisonSociale":"FEUERBACH MICHEL","cbSiretSiren":"350270153","cbAdresse1":"27 rue du Faubourg de Saverne","cbAdresse2":"","cbCp":"67000","cbVille":"STRASBOURG","spLibelle1":"","spLibelle2":"","acDateSerment":"","coordinates":[7.7397258,48.5858775]},{"NomBarreau":"STRASBOURG","avNom":"FIROBIND","avPrenom":"Annick","cbRaisonSociale":"GOUAZE & FIROBIND ","cbSiretSiren":"512080599","cbAdresse1":"65 Route des Romains","cbAdresse2":"","cbCp":"67200","cbVille":"STRASBOURG","spLibelle1":"","spLibelle2":"","acDateSerment":"","coordinates":[7.714503,48.5792921]},{"NomBarreau":"STRASBOURG","avNom":"FITOUSSI","avPrenom":"Laure","cbRaisonSociale":"FITOUSSI LAURE","cbSiretSiren":"845255728","cbAdresse1":"17, rue de Verdun","cbAdresse2":"","cbCp":"67000","cbVille":"STRASBOURG","spLibelle1":"","spLibelle2":"","acDateSerment":"","coordinates":[7.6837787,48.5209346]},{"NomBarreau":"STRASBOURG","avNom":"FLEURY-REBERT","avPrenom":"Elisabeth","cbRaisonSociale":"FLEURY-REBERT ELISABETH","cbSiretSiren":"353046147","cbAdresse1":"2 rue d'Ingwiller","cbAdresse2":"","cbCp":"67000","cbVille":"STRASBOURG","spLibelle1":"","spLibelle2":"","acDateSerment":"","coordinates":[7.7423203,48.588232]},{"NomBarreau":"STRASBOURG","avNom":"FLUCK","avPrenom":"Valérie","cbRaisonSociale":"FLUCK VALERIE","cbSiretSiren":"402078240","cbAdresse1":"230 Avenue de Colmar","cbAdresse2":"","cbCp":"67100","cbVille":"STRASBOURG","spLibelle1":"","spLibelle2":"","acDateSerment":"","coordinates":[7.7459578,48.5560454]},{"NomBarreau":"STRASBOURG","avNom":"FOLMER","avPrenom":"Annick","cbRaisonSociale":"FOLMER ANNICK","cbSiretSiren":"394449458","cbAdresse1":"54 Avenue des Vosges","cbAdresse2":"","cbCp":"67000","cbVille":"STRASBOURG","spLibelle1":"","spLibelle2":"","acDateSerment":"","coordinates":[7.750045,48.5900973]},{"NomBarreau":"STRASBOURG","avNom":"FOLZER","avPrenom":"Geneviève","cbRaisonSociale":"ADVEN","cbSiretSiren":"799886320","cbAdresse1":"5 Place du Corbeau","cbAdresse2":"","cbCp":"67000","cbVille":"STRASBOURG","spLibelle1":"","spLibelle2":"","acDateSerment":"","coordinates":[7.7510212,48.579145]},{"NomBarreau":"STRASBOURG","avNom":"FONT","avPrenom":"Lauralee","cbRaisonSociale":"FONT LAURALEE","cbSiretSiren":"909812554","cbAdresse1":"1 rue des Arquebusiers","cbAdresse2":"","cbCp":"67000","cbVille":"STRASBOURG","spLibelle1":"","spLibelle2":"","acDateSerment":"","coordinates":[7.7588631,48.5895572]},{"NomBarreau":"STRASBOURG","avNom":"FORRER","avPrenom":"Jean-Jacques","cbRaisonSociale":"FORRER JEAN-JACQUES","cbSiretSiren":"303385454","cbAdresse1":"7 Quai Jacques Sturm","cbAdresse2":"","cbCp":"67000","cbVille":"STRASBOURG","spLibelle1":"","spLibelle2":"","acDateSerment":"","coordinates":[7.7504379,48.5873565]},{"NomBarreau":"STRASBOURG","avNom":"FORTHOFFER","avPrenom":"Clara","cbRaisonSociale":"FORTHOFFER CLARA","cbSiretSiren":"902673243","cbAdresse1":"9 Rue du Bain Finkwiller","cbAdresse2":"","cbCp":"67000","cbVille":"STRASBOURG","spLibelle1":"","spLibelle2":"","acDateSerment":"","coordinates":[7.7432913,48.5791381]},{"NomBarreau":"STRASBOURG","avNom":"FRAMERY","avPrenom":"Nicolas","cbRaisonSociale":"GARRIDO-REPPER & FRAMERY ","cbSiretSiren":"502065881","cbAdresse1":"126 Route du Polygone","cbAdresse2":"","cbCp":"67000","cbVille":"STRASBOURG","spLibelle1":"","spLibelle2":"","acDateSerment":"","coordinates":[7.7610606,48.5637992]},{"NomBarreau":"STRASBOURG","avNom":"FRANCOIS","avPrenom":"Sandrine","cbRaisonSociale":"FRANCOIS SANDRINE","cbSiretSiren":"480703446","cbAdresse1":"17d, Rue de Molsheim","cbAdresse2":"","cbCp":"67000","cbVille":"STRASBOURG","spLibelle1":"","spLibelle2":"","acDateSerment":"","coordinates":[7.7326758,48.5767904]},{"NomBarreau":"STRASBOURG","avNom":"FREEMAN-HECKER","avPrenom":"Emmanuelle","cbRaisonSociale":"AMADEUS AVOCATS","cbSiretSiren":"800284895","cbAdresse1":"38 Avenue des Vosges","cbAdresse2":"","cbCp":"67000","cbVille":"STRASBOURG","spLibelle1":"Droit immobilier","spLibelle2":"","acDateSerment":"","coordinates":[7.7586134,48.5875484]},{"NomBarreau":"STRASBOURG","avNom":"FRIEDERICH","avPrenom":"Arnaud","cbRaisonSociale":"ALEXANDRE-LEVY-KAHN-BRAUN & ASSOCIES","cbSiretSiren":"318517968","cbAdresse1":"12 rue des Pontonniers","cbAdresse2":"","cbCp":"67000","cbVille":"STRASBOURG","spLibelle1":"","spLibelle2":"","acDateSerment":"","coordinates":[7.7571204,48.5843159]},{"NomBarreau":"STRASBOURG","avNom":"FRINGAND","avPrenom":"Michèle","cbRaisonSociale":"FRINGAND MICHELE","cbSiretSiren":"407548114","cbAdresse1":"7 rue Charles Bergmann","cbAdresse2":"","cbCp":"67000","cbVille":"STRASBOURG","spLibelle1":"","spLibelle2":"","acDateSerment":"","coordinates":[7.7684412,48.5929677]},{"NomBarreau":"STRASBOURG","avNom":"FRITSCH","avPrenom":"Vincent","cbRaisonSociale":"FRITSCH VINCENT","cbSiretSiren":"441025889","cbAdresse1":"16 Avenue de la Marseillaise","cbAdresse2":"","cbCp":"67000","cbVille":"STRASBOURG","spLibelle1":"","spLibelle2":"","acDateSerment":"","coordinates":[7.7563802,48.5851423]},{"NomBarreau":"STRASBOURG","avNom":"FRUNZA-NICOLESCU","avPrenom":"Oana","cbRaisonSociale":"FRUNZA-NICOLESCU OANA","cbSiretSiren":"818019903","cbAdresse1":"6 Avenue de la Marseillaise","cbAdresse2":"","cbCp":"67000","cbVille":"STRASBOURG","spLibelle1":"","spLibelle2":"","acDateSerment":"","coordinates":[7.7555614,48.5855321]},{"NomBarreau":"STRASBOURG","avNom":"FUCHS","avPrenom":"Anais","cbRaisonSociale":"FUCHS ANAAS","cbSiretSiren":"790911150","cbAdresse1":"2 rue Baldung Grien","cbAdresse2":"","cbCp":"67000","cbVille":"STRASBOURG","spLibelle1":"","spLibelle2":"","acDateSerment":"","coordinates":[7.7527493,48.5899676]},{"NomBarreau":"STRASBOURG","avNom":"FUCHS","avPrenom":"Céline","cbRaisonSociale":"FUCHS CELINE","cbSiretSiren":"520278169","cbAdresse1":"13 Avenue de la Paix - Simone VEIL","cbAdresse2":"","cbCp":"67000","cbVille":"STRASBOURG","spLibelle1":"","spLibelle2":"","acDateSerment":"","coordinates":[7.7552197,48.5894993]},{"NomBarreau":"STRASBOURG","avNom":"GAG","avPrenom":"Arnaud","cbRaisonSociale":"S.E.G.I.F. - D'ASTORG, FROVO ET ASSOCIES","cbSiretSiren":"305219545","cbAdresse1":"15 rue Thomann","cbAdresse2":"","cbCp":"67000","cbVille":"STRASBOURG","spLibelle1":"","spLibelle2":"","acDateSerment":"","coordinates":[7.744887,48.5847694]},{"NomBarreau":"STRASBOURG","avNom":"GAL","avPrenom":"Olivier","cbRaisonSociale":"SCHRECKENBERG - PARNIERE","cbSiretSiren":"453641318","cbAdresse1":"25 Boulevard Wilson","cbAdresse2":"","cbCp":"67000","cbVille":"STRASBOURG","spLibelle1":"","spLibelle2":"","acDateSerment":"","coordinates":[7.7402653,48.5895347]},{"NomBarreau":"STRASBOURG","avNom":"GALLON","avPrenom":"Marina","cbRaisonSociale":"GALLON MARINA","cbSiretSiren":"908947237","cbAdresse1":"11 Rue FInkmatt","cbAdresse2":"","cbCp":"67000","cbVille":"STRASBOURG","spLibelle1":"","spLibelle2":"","acDateSerment":"","coordinates":[7.7472236,48.5897145]},{"NomBarreau":"STRASBOURG","avNom":"GANGLOFF","avPrenom":"Anne","cbRaisonSociale":"SELARL DIEUDONNE GANGLOFF","cbSiretSiren":"881029730","cbAdresse1":"68 Avenue des Vosges","cbAdresse2":"","cbCp":"67000","cbVille":"STRASBOURG","spLibelle1":"","spLibelle2":"","acDateSerment":"","coordinates":[7.748014,48.5906643]},{"NomBarreau":"STRASBOURG","avNom":"GARRALON-CHOSSIERE","avPrenom":"Michèle","cbRaisonSociale":"GARRALON-CHOSSIERE MICHELE","cbSiretSiren":"353852718","cbAdresse1":"2 rue Baldung Grien","cbAdresse2":"","cbCp":"67000","cbVille":"STRASBOURG","spLibelle1":"","spLibelle2":"","acDateSerment":"","coordinates":[7.7527493,48.5899676]},{"NomBarreau":"STRASBOURG","avNom":"GARRIDO-REPPER","avPrenom":"Rebecca","cbRaisonSociale":"GARRIDO-REPPER & FRAMERY ","cbSiretSiren":"502065881","cbAdresse1":"126 Route du Polygone","cbAdresse2":"","cbCp":"67000","cbVille":"STRASBOURG","spLibelle1":"","spLibelle2":"","acDateSerment":"","coordinates":[7.7610606,48.5637992]},{"NomBarreau":"STRASBOURG","avNom":"GASIMOV","avPrenom":"Dilbadi","cbRaisonSociale":"GASIMOV DILBADI","cbSiretSiren":"751773623","cbAdresse1":"67 Rue Boecklin","cbAdresse2":"","cbCp":"67000","cbVille":"STRASBOURG","spLibelle1":"","spLibelle2":"","acDateSerment":"","coordinates":[7.7803694,48.6004396]},{"NomBarreau":"STRASBOURG","avNom":"GENERET","avPrenom":"Elise","cbRaisonSociale":"GENERET ELISE","cbSiretSiren":"881096150","cbAdresse1":"12 rue des Pontonniers","cbAdresse2":"","cbCp":"67000","cbVille":"STRASBOURG","spLibelle1":"","spLibelle2":"","acDateSerment":"","coordinates":[7.7571204,48.5843159]},{"NomBarreau":"STRASBOURG","avNom":"GHERBI","avPrenom":"Akhila","cbRaisonSociale":"GHERBI AKHILA","cbSiretSiren":"830505970","cbAdresse1":"9 A Rue Neuve","cbAdresse2":"","cbCp":"67200","cbVille":"STRASBOURG","spLibelle1":"","spLibelle2":"","acDateSerment":"","coordinates":[7.7197602,48.5933578]},{"NomBarreau":"STRASBOURG","avNom":"GHERBI","avPrenom":"Nordine","cbRaisonSociale":"SAGA SOCIETE D'AVOCAT GHERBI ","cbSiretSiren":"501985295","cbAdresse1":"19 rue Jacobi Netter","cbAdresse2":"Parc des Forges","cbCp":"67200","cbVille":"STRASBOURG","spLibelle1":"","spLibelle2":"","acDateSerment":"","coordinates":[7.7055337,48.58706]},{"NomBarreau":"STRASBOURG","avNom":"GIUNTINI","avPrenom":"Sandrine","cbRaisonSociale":"GIUNTINI SANDRINE","cbSiretSiren":"403704232","cbAdresse1":"25 Boulevard Wilson","cbAdresse2":"","cbCp":"67000","cbVille":"STRASBOURG","spLibelle1":"","spLibelle2":"","acDateSerment":"","coordinates":[7.7402653,48.5895347]},{"NomBarreau":"STRASBOURG","avNom":"GLETTY","avPrenom":"Valérie","cbRaisonSociale":"GLETTY VALERIE","cbSiretSiren":"411461411","cbAdresse1":"7 rue Oberlin","cbAdresse2":"","cbCp":"67000","cbVille":"STRASBOURG","spLibelle1":"","spLibelle2":"","acDateSerment":"","coordinates":[7.7527383,48.5902768]},{"NomBarreau":"STRASBOURG","avNom":"GLUNTZ","avPrenom":"Nina","cbRaisonSociale":"GLUNTZ NINA","cbSiretSiren":"892996935","cbAdresse1":"25 Boulevard Wilson","cbAdresse2":"","cbCp":"67000","cbVille":"STRASBOURG","spLibelle1":"","spLibelle2":"","acDateSerment":"","coordinates":[7.7402653,48.5895347]},{"NomBarreau":"STRASBOURG","avNom":"GOMEZ SANZ","avPrenom":"Sergio","cbRaisonSociale":"PMGS AVOCATS","cbSiretSiren":"819526773","cbAdresse1":"18 Rue Kuhn","cbAdresse2":"","cbCp":"67000","cbVille":"STRASBOURG","spLibelle1":"","spLibelle2":"","acDateSerment":"","coordinates":[7.7385108,48.5850194]},{"NomBarreau":"STRASBOURG","avNom":"GORET","avPrenom":"Hélène","cbRaisonSociale":"GORET HELENE","cbSiretSiren":"893144626","cbAdresse1":"1 rue de l'Outre","cbAdresse2":"","cbCp":"67000","cbVille":"STRASBOURG","spLibelle1":"","spLibelle2":"","acDateSerment":"","coordinates":[7.7470832,48.5836355]},{"NomBarreau":"STRASBOURG","avNom":"GOSSMANN","avPrenom":"Sophie","cbRaisonSociale":"GOSSMANN SOPHIE","cbSiretSiren":"400166054","cbAdresse1":"16 rue de Reims","cbAdresse2":"","cbCp":"67000","cbVille":"STRASBOURG","spLibelle1":"","spLibelle2":"","acDateSerment":"","coordinates":[7.7694275,48.5860799]},{"NomBarreau":"STRASBOURG","avNom":"GOUAZE","avPrenom":"Jean-Marc","cbRaisonSociale":"GOUAZE & FIROBIND ","cbSiretSiren":"512080599","cbAdresse1":"65 Route des Romains","cbAdresse2":"","cbCp":"67200","cbVille":"STRASBOURG","spLibelle1":"","spLibelle2":"","acDateSerment":"","coordinates":[7.714503,48.5792921]},{"NomBarreau":"STRASBOURG","avNom":"GRAFF","avPrenom":"Sylvain","cbRaisonSociale":"GRAFF SYLVAIN","cbSiretSiren":"384310785","cbAdresse1":"54 Avenue des Vosges","cbAdresse2":"","cbCp":"67000","cbVille":"STRASBOURG","spLibelle1":"","spLibelle2":"","acDateSerment":"","coordinates":[7.750045,48.5900973]},{"NomBarreau":"STRASBOURG","avNom":"GRANGIER","avPrenom":"Chloé","cbRaisonSociale":"GRANGIER CHLOE","cbSiretSiren":"519830822","cbAdresse1":"5 rue Paul Muller Simonis","cbAdresse2":"","cbCp":"67000","cbVille":"STRASBOURG","spLibelle1":"","spLibelle2":"","acDateSerment":"","coordinates":[7.7492453,48.5896037]},{"NomBarreau":"STRASBOURG","avNom":"GRASSO","avPrenom":"Florian","cbRaisonSociale":"GRASSO FLORIAN","cbSiretSiren":"799478227","cbAdresse1":"5 rue Fischart","cbAdresse2":"","cbCp":"67000","cbVille":"STRASBOURG","spLibelle1":"","spLibelle2":"","acDateSerment":"","coordinates":[7.7654897,48.5860939]},{"NomBarreau":"STRASBOURG","avNom":"GRISEY","avPrenom":"Léa","cbRaisonSociale":"GRISEY LEA","cbSiretSiren":"847530904","cbAdresse1":"7 rue de Sarrebourg","cbAdresse2":"","cbCp":"67000","cbVille":"STRASBOURG","spLibelle1":"","spLibelle2":"","acDateSerment":"","coordinates":[7.7461654,48.6084675]},{"NomBarreau":"STRASBOURG","avNom":"GRIT","avPrenom":"Laurence","cbRaisonSociale":"GRIT LAURENCE","cbSiretSiren":"410884746","cbAdresse1":"12 rue des Bonnes Gens","cbAdresse2":"","cbCp":"67000","cbVille":"STRASBOURG","spLibelle1":"","spLibelle2":"","acDateSerment":"","coordinates":[7.7439902,48.5890248]},{"NomBarreau":"STRASBOURG","avNom":"GRIVAUD","avPrenom":"Catherine","cbRaisonSociale":"JURIPERFORMANCE","cbSiretSiren":"510646755","cbAdresse1":"9 rue du Bain Finkwiller","cbAdresse2":"","cbCp":"67000","cbVille":"STRASBOURG","spLibelle1":"","spLibelle2":"","acDateSerment":"","coordinates":[7.7432913,48.5791381]},{"NomBarreau":"STRASBOURG","avNom":"GRODWOHL","avPrenom":"Frédéric","cbRaisonSociale":"GRODWOHL FREDERIC","cbSiretSiren":"801508805","cbAdresse1":"3 rue Grandidier","cbAdresse2":"","cbCp":"67000","cbVille":"STRASBOURG","spLibelle1":"","spLibelle2":"","acDateSerment":"","coordinates":[7.7614779,48.5838487]},{"NomBarreau":"STRASBOURG","avNom":"GRUNEBAUM","avPrenom":"Anaelle","cbRaisonSociale":"GRUNEBAUM ANAELLE","cbSiretSiren":"791537251","cbAdresse1":"14 Place des Halles","cbAdresse2":"","cbCp":"67000","cbVille":"STRASBOURG","spLibelle1":"","spLibelle2":"","acDateSerment":"","coordinates":[7.7424979,48.58739]},{"NomBarreau":"STRASBOURG","avNom":"GSELL","avPrenom":"Jean-Jacques","cbRaisonSociale":"GSELL JEAN-JACQUES","cbSiretSiren":"306164377","cbAdresse1":"22 rue Thomann","cbAdresse2":"","cbCp":"67000","cbVille":"STRASBOURG","spLibelle1":"","spLibelle2":"","acDateSerment":"","coordinates":[7.7452952,48.5846999]},{"NomBarreau":"STRASBOURG","avNom":"GUESNEROT","avPrenom":"Eléonore","cbRaisonSociale":"GUESNEROT ELEONORE","cbSiretSiren":"488826454","cbAdresse1":"230 Avenue de Colmar","cbAdresse2":"","cbCp":"67100","cbVille":"STRASBOURG","spLibelle1":"","spLibelle2":"","acDateSerment":"","coordinates":[7.7459578,48.5560454]},{"NomBarreau":"STRASBOURG","avNom":"GUICHARD","avPrenom":"Jean-Pierre","cbRaisonSociale":"G & S LEGAL","cbSiretSiren":"819532516","cbAdresse1":"12 rue des Orphelins","cbAdresse2":"","cbCp":"67000","cbVille":"STRASBOURG","spLibelle1":"","spLibelle2":"","acDateSerment":"","coordinates":[7.7551347,48.5786924]},{"NomBarreau":"STRASBOURG","avNom":"GUIRA","avPrenom":"Naima","cbRaisonSociale":"GUIRA NAAMA","cbSiretSiren":"490380482","cbAdresse1":"12 rue des Pontonniers","cbAdresse2":"","cbCp":"67000","cbVille":"STRASBOURG","spLibelle1":"","spLibelle2":"","acDateSerment":"","coordinates":[7.7571204,48.5843159]},{"NomBarreau":"STRASBOURG","avNom":"GULDENFELS","avPrenom":"Sandra","cbRaisonSociale":"BIGOT, GULDENFELS, BIGOT-GONCALVES","cbSiretSiren":"799348636","cbAdresse1":"6 rue Geiler","cbAdresse2":"","cbCp":"67000","cbVille":"STRASBOURG","spLibelle1":"Droit du dommage corporel","spLibelle2":"","acDateSerment":"","coordinates":[7.7652367,48.587596]},{"NomBarreau":"STRASBOURG","avNom":"GUœZEL","avPrenom":"Gizem","cbRaisonSociale":"BARTHELEMY AVOCATS","cbSiretSiren":"493390991","cbAdresse1":"20 rue Jules Rathgeber","cbAdresse2":"","cbCp":"67100","cbVille":"STRASBOURG","spLibelle1":"","spLibelle2":"","acDateSerment":"","coordinates":[7.7561988,48.5656603]},{"NomBarreau":"STRASBOURG","avNom":"HABERBUSCH","avPrenom":"Clément","cbRaisonSociale":"ADVEN","cbSiretSiren":"799886320","cbAdresse1":"5 Place du Corbeau","cbAdresse2":"","cbCp":"67000","cbVille":"STRASBOURG","spLibelle1":"","spLibelle2":"","acDateSerment":"","coordinates":[7.7510212,48.579145]},{"NomBarreau":"STRASBOURG","avNom":"HADDAD","avPrenom":"Jean-Yves","cbRaisonSociale":"HADDAD JEAN-YVES","cbSiretSiren":"492563002","cbAdresse1":"75 Avenue des Vosges","cbAdresse2":"","cbCp":"67000","cbVille":"STRASBOURG","spLibelle1":"","spLibelle2":"","acDateSerment":"","coordinates":[7.7471339,48.5906208]},{"NomBarreau":"STRASBOURG","avNom":"HALTER","avPrenom":"Jennifer","cbRaisonSociale":"HALTER JENNIFER","cbSiretSiren":"539760413","cbAdresse1":"6 Avenue de la Marseillaise","cbAdresse2":"","cbCp":"67000","cbVille":"STRASBOURG","spLibelle1":"","spLibelle2":"","acDateSerment":"","coordinates":[7.7555614,48.5855321]},{"NomBarreau":"STRASBOURG","avNom":"HAMM","avPrenom":"Célia","cbRaisonSociale":"TALARIS AVOCATS","cbSiretSiren":"834029936","cbAdresse1":"63 Avenue des Vosges","cbAdresse2":"","cbCp":"67000","cbVille":"STRASBOURG","spLibelle1":"","spLibelle2":"","acDateSerment":"","coordinates":[7.7487482,48.5901657]},{"NomBarreau":"STRASBOURG","avNom":"HANSER","avPrenom":"Matthieu","cbRaisonSociale":"ADVEN","cbSiretSiren":"799886320","cbAdresse1":"5 Place du Corbeau","cbAdresse2":"","cbCp":"67000","cbVille":"STRASBOURG","spLibelle1":"","spLibelle2":"","acDateSerment":"","coordinates":[7.7510212,48.579145]},{"NomBarreau":"STRASBOURG","avNom":"HASSAN","avPrenom":"Alexandre","cbRaisonSociale":"HASSAN ALEXANDRE","cbSiretSiren":"909812414","cbAdresse1":"29 Avenue des Vosges","cbAdresse2":"","cbCp":"67000","cbVille":"STRASBOURG","spLibelle1":"","spLibelle2":"","acDateSerment":"","coordinates":[7.7531557,48.5889127]},{"NomBarreau":"STRASBOURG","avNom":"HAUPTMANN-NICKLIS","avPrenom":"Katrin","cbRaisonSociale":"HAUPTMANN-NICKLIS KATRIN","cbSiretSiren":"502539471","cbAdresse1":"63 Avenue des Vosges","cbAdresse2":"","cbCp":"67000","cbVille":"STRASBOURG","spLibelle1":"","spLibelle2":"","acDateSerment":"","coordinates":[7.7487482,48.5901657]},{"NomBarreau":"STRASBOURG","avNom":"HECKER","avPrenom":"Jean-Louis","cbRaisonSociale":"HECKER JEAN-LOUIS","cbSiretSiren":"307181644","cbAdresse1":"9-10 Place du Temple Neuf","cbAdresse2":"","cbCp":"67000","cbVille":"STRASBOURG","spLibelle1":"","spLibelle2":"","acDateSerment":"","coordinates":[7.74785949911151,48.5831619]},{"NomBarreau":"STRASBOURG","avNom":"HECTOR","avPrenom":"Thomas","cbRaisonSociale":"HECTOR THOMAS","cbSiretSiren":"493891162","cbAdresse1":"63 Avenue des Vosges","cbAdresse2":"BP. 40395","cbCp":"67010","cbVille":"STRASBOURG","spLibelle1":"","spLibelle2":"","acDateSerment":"","coordinates":[7.7487482,48.5901657]},{"NomBarreau":"STRASBOURG","avNom":"HEIM","avPrenom":"Aurelia","cbRaisonSociale":"EMIL EPP RECHTSANWALT GESELLSCHAFT GMBH","cbSiretSiren":"","cbAdresse1":"16 rue de Reims","cbAdresse2":"","cbCp":"67000","cbVille":"STRASBOURG","spLibelle1":"","spLibelle2":"","acDateSerment":"","coordinates":[7.7694275,48.5860799]},{"NomBarreau":"STRASBOURG","avNom":"HEINRICH","avPrenom":"Laurent","cbRaisonSociale":"HEINRICH LAURENT","cbSiretSiren":"535379291","cbAdresse1":"5 Place du Corbeau","cbAdresse2":"","cbCp":"67000","cbVille":"STRASBOURG","spLibelle1":"","spLibelle2":"","acDateSerment":"","coordinates":[7.7510212,48.579145]},{"NomBarreau":"STRASBOURG","avNom":"HENCHES","avPrenom":"Céline","cbRaisonSociale":"HENCHES CELINE","cbSiretSiren":"802977223","cbAdresse1":"230 Avenue de Colmar","cbAdresse2":"","cbCp":"67100","cbVille":"STRASBOURG","spLibelle1":"","spLibelle2":"","acDateSerment":"","coordinates":[7.7459578,48.5560454]},{"NomBarreau":"STRASBOURG","avNom":"HENTE","avPrenom":"Volkhard","cbRaisonSociale":"HENTE VOLKHARD","cbSiretSiren":"435402672","cbAdresse1":"75 Avenue des Vosges","cbAdresse2":"","cbCp":"67000","cbVille":"STRASBOURG","spLibelle1":"Droit international et de l'Union européenne","spLibelle2":"","acDateSerment":"","coordinates":[7.7471339,48.5906208]},{"NomBarreau":"STRASBOURG","avNom":"HENTZ","avPrenom":"Myriam","cbRaisonSociale":"L'ILL LEGAL","cbSiretSiren":"904573375","cbAdresse1":"2-4 Petite Rue de l'Eglise","cbAdresse2":"","cbCp":"67000","cbVille":"STRASBOURG","spLibelle1":"","spLibelle2":"","acDateSerment":"","coordinates":[7.7074212,48.6414607]},{"NomBarreau":"STRASBOURG","avNom":"HESS-SULTAN","avPrenom":"Jessica","cbRaisonSociale":"PRAD AVOCATS","cbSiretSiren":"790396709","cbAdresse1":"5 rue Fischart","cbAdresse2":"","cbCp":"67000","cbVille":"STRASBOURG","spLibelle1":"","spLibelle2":"","acDateSerment":"","coordinates":[7.7654897,48.5860939]},{"NomBarreau":"STRASBOURG","avNom":"HEZZAM","avPrenom":"Salima","cbRaisonSociale":"HEZZAM SALIMA","cbSiretSiren":"479500381","cbAdresse1":"68 Avenue des Vosges","cbAdresse2":"","cbCp":"67000","cbVille":"STRASBOURG","spLibelle1":"","spLibelle2":"","acDateSerment":"","coordinates":[7.748014,48.5906643]},{"NomBarreau":"STRASBOURG","avNom":"HIGY","avPrenom":"Catherine","cbRaisonSociale":"JURIS DIALOG ","cbSiretSiren":"320166093","cbAdresse1":"1 rue de l'Outre","cbAdresse2":"","cbCp":"67000","cbVille":"STRASBOURG","spLibelle1":"Droit de la famille, des personnes et de leur patrimoine","spLibelle2":"","acDateSerment":"","coordinates":[7.7470832,48.5836355]},{"NomBarreau":"STRASBOURG","avNom":"HILDENBRANDT","avPrenom":"Anne-France","cbRaisonSociale":"HILDENBRANDT ANNE-FRANCE","cbSiretSiren":"344354808","cbAdresse1":"21 Avenue des Vosges","cbAdresse2":"","cbCp":"67000","cbVille":"STRASBOURG","spLibelle1":"","spLibelle2":"","acDateSerment":"","coordinates":[7.7586134,48.5875484]},{"NomBarreau":"STRASBOURG","avNom":"HOFFMANN","avPrenom":"Mike","cbRaisonSociale":"MAZARS SOCIETE D'AVOCATS","cbSiretSiren":"497765768","cbAdresse1":"1 rue des Arquebusiers","cbAdresse2":"","cbCp":"67000","cbVille":"STRASBOURG","spLibelle1":"","spLibelle2":"","acDateSerment":"","coordinates":[7.7588631,48.5895572]},{"NomBarreau":"STRASBOURG","avNom":"HOLL","avPrenom":"Barbara","cbRaisonSociale":"HOLL BARBARA","cbSiretSiren":"825169022","cbAdresse1":"154 Avenue du Rhin","cbAdresse2":"","cbCp":"67100","cbVille":"STRASBOURG","spLibelle1":"","spLibelle2":"","acDateSerment":"","coordinates":[7.7803104,48.5692877]},{"NomBarreau":"STRASBOURG","avNom":"HOONAKKER","avPrenom":"Philippe","cbRaisonSociale":"RACINE STRASBOURG CABINET D'AVOCATS","cbSiretSiren":"778861179","cbAdresse1":"9-10 Place du Temple Neuf","cbAdresse2":"","cbCp":"67000","cbVille":"STRASBOURG","spLibelle1":"","spLibelle2":"","acDateSerment":"","coordinates":[7.74785949911151,48.5831619]},{"NomBarreau":"STRASBOURG","avNom":"HOSSEINI","avPrenom":"Charles-Antoine","cbRaisonSociale":"HOSSEINI CHARLES-ANTOINE","cbSiretSiren":"808766851","cbAdresse1":"68 Avenue des Vosges","cbAdresse2":"","cbCp":"67000","cbVille":"STRASBOURG","spLibelle1":"","spLibelle2":"","acDateSerment":"","coordinates":[7.748014,48.5906643]},{"NomBarreau":"STRASBOURG","avNom":"HOUSSAIN","avPrenom":"Arnaud","cbRaisonSociale":"RACINE STRASBOURG CABINET D'AVOCATS","cbSiretSiren":"778861179","cbAdresse1":"9-10 Place du Temple Neuf","cbAdresse2":"","cbCp":"67000","cbVille":"STRASBOURG","spLibelle1":"","spLibelle2":"","acDateSerment":"","coordinates":[7.74785949911151,48.5831619]},{"NomBarreau":"STRASBOURG","avNom":"HUBER","avPrenom":"Tanja","cbRaisonSociale":"DELTALIS AVOCATS ","cbSiretSiren":"825120165","cbAdresse1":"39 rue Oberlin","cbAdresse2":"","cbCp":"67000","cbVille":"STRASBOURG","spLibelle1":"","spLibelle2":"","acDateSerment":"","coordinates":[7.7572054,48.5928681]},{"NomBarreau":"STRASBOURG","avNom":"HUBLER","avPrenom":"Daniele","cbRaisonSociale":"HUBLER AVOCATS ","cbSiretSiren":"750568172","cbAdresse1":"5 rue Fischart","cbAdresse2":"","cbCp":"67000","cbVille":"STRASBOURG","spLibelle1":"","spLibelle2":"","acDateSerment":"","coordinates":[7.7654897,48.5860939]},{"NomBarreau":"STRASBOURG","avNom":"HUET","avPrenom":"Manuella","cbRaisonSociale":"HUET MANUELLA","cbSiretSiren":"399969757","cbAdresse1":"12 rue des Pontonniers","cbAdresse2":"","cbCp":"67000","cbVille":"STRASBOURG","spLibelle1":"","spLibelle2":"","acDateSerment":"","coordinates":[7.7571204,48.5843159]},{"NomBarreau":"STRASBOURG","avNom":"HUET-DURANTON","avPrenom":"Isabelle","cbRaisonSociale":"HUET-DURANTON ISABELLE","cbSiretSiren":"390163277","cbAdresse1":"65 Avenue des Vosges","cbAdresse2":"","cbCp":"67000","cbVille":"STRASBOURG","spLibelle1":"","spLibelle2":"","acDateSerment":"","coordinates":[7.7483591,48.5902785]},{"NomBarreau":"STRASBOURG","avNom":"HUIN","avPrenom":"Amélie","cbRaisonSociale":"HUIN AMELIE","cbSiretSiren":"817987613","cbAdresse1":"5 rue Paul Muller Simonis","cbAdresse2":"","cbCp":"67000","cbVille":"STRASBOURG","spLibelle1":"","spLibelle2":"","acDateSerment":"","coordinates":[7.7492453,48.5896037]},{"NomBarreau":"STRASBOURG","avNom":"HUNAULT","avPrenom":"Xavier","cbRaisonSociale":"HUNAULT XAVIER","cbSiretSiren":"388347759","cbAdresse1":"5 A rue Fischart","cbAdresse2":"Batiment B","cbCp":"67000","cbVille":"STRASBOURG","spLibelle1":"","spLibelle2":"","acDateSerment":"","coordinates":[7.7653258,48.5855229]},{"NomBarreau":"STRASBOURG","avNom":"HUSS-CLARAC","avPrenom":"Juliette","cbRaisonSociale":"HUSS-CLARAC JULIETTE","cbSiretSiren":"791647001","cbAdresse1":"73 Avenue des Vosges","cbAdresse2":"","cbCp":"67000","cbVille":"STRASBOURG","spLibelle1":"","spLibelle2":"","acDateSerment":"","coordinates":[7.7473665,48.5905556]},{"NomBarreau":"STRASBOURG","avNom":"HUTIN","avPrenom":"Mélanie","cbRaisonSociale":"HUTIN MELANIE","cbSiretSiren":"893130443","cbAdresse1":"7 rue Oberlin","cbAdresse2":"","cbCp":"67000","cbVille":"STRASBOURG","spLibelle1":"","spLibelle2":"","acDateSerment":"","coordinates":[7.7527383,48.5902768]},{"NomBarreau":"STRASBOURG","avNom":"IANNAZZONE ZINDEL","avPrenom":"Luana","cbRaisonSociale":"IANNAZZONE ZINDEL LUANA","cbSiretSiren":"813119922","cbAdresse1":"5 rue Paul Muller Simonis","cbAdresse2":"","cbCp":"67000","cbVille":"STRASBOURG","spLibelle1":"","spLibelle2":"","acDateSerment":"","coordinates":[7.7492453,48.5896037]},{"NomBarreau":"STRASBOURG","avNom":"IKHLEF","avPrenom":"Samy","cbRaisonSociale":"IKHLEF SAMY","cbSiretSiren":"825359615","cbAdresse1":"1 Rue du Travail","cbAdresse2":"","cbCp":"67000","cbVille":"STRASBOURG","spLibelle1":"","spLibelle2":"","acDateSerment":"","coordinates":[7.7418369,48.588408]},{"NomBarreau":"STRASBOURG","avNom":"INFANTES","avPrenom":"Audrey","cbRaisonSociale":"INFANTES & BUFFLER AVOCATS ASSOCIES","cbSiretSiren":"500963442","cbAdresse1":"23-25 rue Finkmatt","cbAdresse2":"","cbCp":"67000","cbVille":"STRASBOURG","spLibelle1":"","spLibelle2":"","acDateSerment":"","coordinates":[7.7481187,48.5885419]},{"NomBarreau":"STRASBOURG","avNom":"ISAAC","avPrenom":"Juliette","cbRaisonSociale":"ISAAC JULIETTE","cbSiretSiren":"909268104","cbAdresse1":"3 rue des arquebusiers","cbAdresse2":"Entrée B (Parc des Contades)","cbCp":"67000","cbVille":"STRASBOURG","spLibelle1":"","spLibelle2":"","acDateSerment":"","coordinates":[7.759161,48.5902156]},{"NomBarreau":"STRASBOURG","avNom":"ISLY","avPrenom":"Sandra","cbRaisonSociale":"ISLY SANDRA","cbSiretSiren":"400805990","cbAdresse1":"18 rue Ehrmann","cbAdresse2":"1er étage","cbCp":"67000","cbVille":"STRASBOURG","spLibelle1":"","spLibelle2":"","acDateSerment":"","coordinates":[7.7550815,48.5923194]},{"NomBarreau":"STRASBOURG","avNom":"JACOB","avPrenom":"Alexa","cbRaisonSociale":"JACOB - SALHI","cbSiretSiren":"511947103","cbAdresse1":"54 Avenue des Vosges","cbAdresse2":"","cbCp":"67000","cbVille":"STRASBOURG","spLibelle1":"","spLibelle2":"","acDateSerment":"","coordinates":[7.750045,48.5900973]},{"NomBarreau":"STRASBOURG","avNom":"JAEGER","avPrenom":"Muriel","cbRaisonSociale":"JAEGER MURIEL","cbSiretSiren":"417676947","cbAdresse1":"7 rue Staedel","cbAdresse2":"","cbCp":"67100","cbVille":"STRASBOURG","spLibelle1":"","spLibelle2":"","acDateSerment":"","coordinates":[7.7576985,48.554907]},{"NomBarreau":"STRASBOURG","avNom":"JANTKOWIAK","avPrenom":"Marc","cbRaisonSociale":"WIESEL & JANTKOWIAK","cbSiretSiren":"522556885","cbAdresse1":"7 rue Oberlin","cbAdresse2":"","cbCp":"67000","cbVille":"STRASBOURG","spLibelle1":"","spLibelle2":"","acDateSerment":"","coordinates":[7.7527383,48.5902768]},{"NomBarreau":"STRASBOURG","avNom":"JEANJEAN","avPrenom":"Mélanie","cbRaisonSociale":"JEANJEAN MELANIE","cbSiretSiren":"909812422","cbAdresse1":"1 rue des Arquebusiers","cbAdresse2":"","cbCp":"67000","cbVille":"STRASBOURG","spLibelle1":"","spLibelle2":"","acDateSerment":"","coordinates":[7.7588631,48.5895572]},{"NomBarreau":"STRASBOURG","avNom":"JEHL","avPrenom":"Estelle","cbRaisonSociale":"SCHRECKENBERG - PARNIERE","cbSiretSiren":"453641318","cbAdresse1":"25 Boulevard Wilson","cbAdresse2":"","cbCp":"67000","cbVille":"STRASBOURG","spLibelle1":"","spLibelle2":"","acDateSerment":"","coordinates":[7.7402653,48.5895347]},{"NomBarreau":"STRASBOURG","avNom":"JEROME-MARTIN","avPrenom":"Ariane","cbRaisonSociale":"JEROME-MARTIN ARIANE","cbSiretSiren":"411371438","cbAdresse1":"4 rue Charles de Foucauld","cbAdresse2":"","cbCp":"67000","cbVille":"STRASBOURG","spLibelle1":"Droit de la famille, des personnes et de leur patrimoine","spLibelle2":"","acDateSerment":"","coordinates":[7.7809097,48.6007473]},{"NomBarreau":"STRASBOURG","avNom":"JOLY","avPrenom":"Anita","cbRaisonSociale":"CDA JOLY OSTER ","cbSiretSiren":"493689459","cbAdresse1":"4 rue Sainte Odile","cbAdresse2":"","cbCp":"67000","cbVille":"STRASBOURG","spLibelle1":"","spLibelle2":"","acDateSerment":"","coordinates":[7.7498108,48.5880885]},{"NomBarreau":"STRASBOURG","avNom":"JULIAC-DEGRELLE","avPrenom":"Lisa","cbRaisonSociale":"JULIAC-DEGRELLE LISA","cbSiretSiren":"847531001","cbAdresse1":"7 rue de Sarrebourg","cbAdresse2":"","cbCp":"67000","cbVille":"STRASBOURG","spLibelle1":"","spLibelle2":"","acDateSerment":"","coordinates":[7.7461654,48.6084675]},{"NomBarreau":"STRASBOURG","avNom":"JUNDT-WURTZ","avPrenom":"Amandine","cbRaisonSociale":"JUNDT-WURTZ AMANDINE","cbSiretSiren":"909547705","cbAdresse1":"1 rue des Arquebusiers","cbAdresse2":"","cbCp":"67000","cbVille":"STRASBOURG","spLibelle1":"","spLibelle2":"","acDateSerment":"","coordinates":[7.7588631,48.5895572]},{"NomBarreau":"STRASBOURG","avNom":"JUNG","avPrenom":"Aurélie","cbRaisonSociale":"JUNG AURELIE","cbSiretSiren":"529665507","cbAdresse1":"230 Avenue de Colmar","cbAdresse2":"","cbCp":"67100","cbVille":"STRASBOURG","spLibelle1":"","spLibelle2":"","acDateSerment":"","coordinates":[7.7459578,48.5560454]},{"NomBarreau":"STRASBOURG","avNom":"JURAS","avPrenom":"Marie","cbRaisonSociale":"JURAS MARIE","cbSiretSiren":"515311140","cbAdresse1":"39 Avenue des Vosges","cbAdresse2":"","cbCp":"67000","cbVille":"STRASBOURG","spLibelle1":"","spLibelle2":"","acDateSerment":"","coordinates":[7.7511318,48.5895013]},{"NomBarreau":"STRASBOURG","avNom":"JUSKOWIAK","avPrenom":"Eric","cbRaisonSociale":"JUSKOWIAK ERIC","cbSiretSiren":"838033983","cbAdresse1":"19 rue des Hallebardes","cbAdresse2":"","cbCp":"67000","cbVille":"STRASBOURG","spLibelle1":"","spLibelle2":"","acDateSerment":"","coordinates":[7.749734,48.5822292]},{"NomBarreau":"STRASBOURG","avNom":"KAMDEM","avPrenom":"Elsa","cbRaisonSociale":"KAMDEM ELSA","cbSiretSiren":"908760911","cbAdresse1":"18 rue Schwendi","cbAdresse2":"","cbCp":"67000","cbVille":"STRASBOURG","spLibelle1":"","spLibelle2":"","acDateSerment":"","coordinates":[7.752261,48.5903949]},{"NomBarreau":"STRASBOURG","avNom":"KAPPLER","avPrenom":"Sophie","cbRaisonSociale":"SCHRECKENBERG - PARNIERE","cbSiretSiren":"453641318","cbAdresse1":"25 Boulevard Wilson","cbAdresse2":"","cbCp":"67000","cbVille":"STRASBOURG","spLibelle1":"","spLibelle2":"","acDateSerment":"","coordinates":[7.7402653,48.5895347]},{"NomBarreau":"STRASBOURG","avNom":"KARAKACAK","avPrenom":"Cemali","cbRaisonSociale":"KARAKACAK CEMALI","cbSiretSiren":"847833381","cbAdresse1":"7 Quai Jacques Sturm","cbAdresse2":"","cbCp":"67000","cbVille":"STRASBOURG","spLibelle1":"","spLibelle2":"","acDateSerment":"","coordinates":[7.7504379,48.5873565]},{"NomBarreau":"STRASBOURG","avNom":"KATZ-MARCUS","avPrenom":"Sylvie","cbRaisonSociale":"KATZ AVOCATS","cbSiretSiren":"891506214","cbAdresse1":"2 rue des Pontonniers","cbAdresse2":"","cbCp":"67000","cbVille":"STRASBOURG","spLibelle1":"","spLibelle2":"","acDateSerment":"","coordinates":[7.7567197,48.5841206]},{"NomBarreau":"STRASBOURG","avNom":"KAYSER","avPrenom":"Delphine","cbRaisonSociale":"DELTALIS AVOCATS ","cbSiretSiren":"825120165","cbAdresse1":"39 rue Oberlin","cbAdresse2":"","cbCp":"67000","cbVille":"STRASBOURG","spLibelle1":"","spLibelle2":"","acDateSerment":"","coordinates":[7.7572054,48.5928681]},{"NomBarreau":"STRASBOURG","avNom":"KBAYAA","avPrenom":"Alain Iyad","cbRaisonSociale":"KBAYAA ALAIN IYAD","cbSiretSiren":"848730859","cbAdresse1":"1 rue des Arquebusiers","cbAdresse2":"","cbCp":"67000","cbVille":"STRASBOURG","spLibelle1":"","spLibelle2":"","acDateSerment":"","coordinates":[7.7588631,48.5895572]},{"NomBarreau":"STRASBOURG","avNom":"KERN","avPrenom":"Benoit","cbRaisonSociale":"KERN BENOUŽT","cbSiretSiren":"324161405","cbAdresse1":"4 rue Ste-Odile","cbAdresse2":"","cbCp":"67000","cbVille":"STRASBOURG","spLibelle1":"","spLibelle2":"","acDateSerment":"","coordinates":[7.7498108,48.5880885]},{"NomBarreau":"STRASBOURG","avNom":"KESSLER","avPrenom":"Flora","cbRaisonSociale":"WELSCH-KESSLER & ASSOCIES","cbSiretSiren":"441025574","cbAdresse1":"57 rue du Faubourg de Pierre","cbAdresse2":"","cbCp":"67000","cbVille":"STRASBOURG","spLibelle1":"","spLibelle2":"","acDateSerment":"","coordinates":[7.7450234,48.5895245]},{"NomBarreau":"STRASBOURG","avNom":"KESSLER","avPrenom":"Jean-Pierre","cbRaisonSociale":"WELSCH-KESSLER & ASSOCIES","cbSiretSiren":"441025574","cbAdresse1":"57 rue du Faubourg de Pierre","cbAdresse2":"","cbCp":"67000","cbVille":"STRASBOURG","spLibelle1":"Droit immobilier","spLibelle2":"","acDateSerment":"","coordinates":[7.7450234,48.5895245]},{"NomBarreau":"STRASBOURG","avNom":"KILINC","avPrenom":"Uœmit","cbRaisonSociale":"KILINC UœMIT","cbSiretSiren":"797924289","cbAdresse1":"5 rue Auguste Lamey","cbAdresse2":"","cbCp":"67000","cbVille":"STRASBOURG","spLibelle1":"","spLibelle2":"","acDateSerment":"","coordinates":[7.7560414,48.5887052]},{"NomBarreau":"STRASBOURG","avNom":"KISTNER-WANG","avPrenom":"Alice","cbRaisonSociale":"KISTNER-WANG ALICE","cbSiretSiren":"827918350","cbAdresse1":"18 Rue Kuhn","cbAdresse2":"","cbCp":"67000","cbVille":"STRASBOURG","spLibelle1":"","spLibelle2":"","acDateSerment":"","coordinates":[7.7385108,48.5850194]},{"NomBarreau":"STRASBOURG","avNom":"KLENSCHI","avPrenom":"Anne-Laure","cbRaisonSociale":"KLENSCHI ANNE-LAURE","cbSiretSiren":"519377931","cbAdresse1":"12 Avenue de la Marseillaise","cbAdresse2":"","cbCp":"67000","cbVille":"STRASBOURG","spLibelle1":"","spLibelle2":"","acDateSerment":"","coordinates":[7.755976,48.5853403]},{"NomBarreau":"STRASBOURG","avNom":"KLIEBER","avPrenom":"Aurélie","cbRaisonSociale":"KLIEBER AURELIE","cbSiretSiren":"899253850","cbAdresse1":"154 Avenue du Rhin","cbAdresse2":"","cbCp":"67100","cbVille":"STRASBOURG","spLibelle1":"","spLibelle2":"","acDateSerment":"","coordinates":[7.7803104,48.5692877]},{"NomBarreau":"STRASBOURG","avNom":"KLING","avPrenom":"Sophie","cbRaisonSociale":"KLING SOPHIE","cbSiretSiren":"429215726","cbAdresse1":"28 rue Oberlin","cbAdresse2":"","cbCp":"67000","cbVille":"STRASBOURG","spLibelle1":"","spLibelle2":"","acDateSerment":"","coordinates":[7.7545049,48.5910857]},{"NomBarreau":"STRASBOURG","avNom":"KOERING","avPrenom":"Camille","cbRaisonSociale":"KOERING CAMILLE","cbSiretSiren":"451424691","cbAdresse1":"26 Chemin du Doernelbruck","cbAdresse2":"","cbCp":"67000","cbVille":"STRASBOURG","spLibelle1":"","spLibelle2":"","acDateSerment":"","coordinates":[7.7733789,48.604184]},{"NomBarreau":"STRASBOURG","avNom":"KRETZ","avPrenom":"Michel","cbRaisonSociale":"KRETZ MICHEL","cbSiretSiren":"394073969","cbAdresse1":"16 rue Massenet","cbAdresse2":"","cbCp":"67000","cbVille":"STRASBOURG","spLibelle1":"Droit fiscal et droit douanier","spLibelle2":"","acDateSerment":"","coordinates":[7.7728211,48.5880074]},{"NomBarreau":"STRASBOURG","avNom":"KRUGER","avPrenom":"Christina","cbRaisonSociale":"KRUGER CHRISTINA","cbSiretSiren":"439778366","cbAdresse1":"1 rue des Arquebusiers","cbAdresse2":"","cbCp":"67000","cbVille":"STRASBOURG","spLibelle1":"","spLibelle2":"","acDateSerment":"","coordinates":[7.7588631,48.5895572]},{"NomBarreau":"STRASBOURG","avNom":"KUHN","avPrenom":"Jessica","cbRaisonSociale":"KUHN JESSICA","cbSiretSiren":"539247668","cbAdresse1":"18 rue Auguste Lamey","cbAdresse2":"","cbCp":"67000","cbVille":"STRASBOURG","spLibelle1":"","spLibelle2":"","acDateSerment":"","coordinates":[7.7564324,48.5889898]},{"NomBarreau":"STRASBOURG","avNom":"KWIATKOWSKI","avPrenom":"Véronique","cbRaisonSociale":"KWIATKOWSKI VERONIQUE","cbSiretSiren":"893233452","cbAdresse1":"9-10 Place du Temple Neuf","cbAdresse2":"","cbCp":"67000","cbVille":"STRASBOURG","spLibelle1":"","spLibelle2":"","acDateSerment":"","coordinates":[7.74785949911151,48.5831619]},{"NomBarreau":"STRASBOURG","avNom":"LACHAUX","avPrenom":"Marion","cbRaisonSociale":"SEJAL ","cbSiretSiren":"668500044","cbAdresse1":"2 rue Henri Bergson","cbAdresse2":"","cbCp":"67200","cbVille":"STRASBOURG","spLibelle1":"","spLibelle2":"","acDateSerment":"","coordinates":[7.7102981,48.5898736]},{"NomBarreau":"STRASBOURG","avNom":"LAMY","avPrenom":"Anne-Lise","cbRaisonSociale":"LAMY ANNE-LISE","cbSiretSiren":"525364386","cbAdresse1":"16 rue de Reims","cbAdresse2":"","cbCp":"67000","cbVille":"STRASBOURG","spLibelle1":"","spLibelle2":"","acDateSerment":"","coordinates":[7.7694275,48.5860799]},{"NomBarreau":"STRASBOURG","avNom":"LANG","avPrenom":"Marie-Laurence","cbRaisonSociale":"RACINE STRASBOURG CABINET D'AVOCATS","cbSiretSiren":"778861179","cbAdresse1":"9-10 Place du Temple Neuf","cbAdresse2":"","cbCp":"67000","cbVille":"STRASBOURG","spLibelle1":"","spLibelle2":"","acDateSerment":"","coordinates":[7.74785949911151,48.5831619]},{"NomBarreau":"STRASBOURG","avNom":"LANZ","avPrenom":"Rachel","cbRaisonSociale":"LANZ RACHEL","cbSiretSiren":"440802312","cbAdresse1":"68 Avenue des Vosges","cbAdresse2":"","cbCp":"67000","cbVille":"STRASBOURG","spLibelle1":"","spLibelle2":"","acDateSerment":"","coordinates":[7.748014,48.5906643]},{"NomBarreau":"STRASBOURG","avNom":"LATRACE","avPrenom":"Mathilde","cbRaisonSociale":"BARTHELEMY AVOCATS","cbSiretSiren":"493390991","cbAdresse1":"20 rue Jules Rathgeber","cbAdresse2":"","cbCp":"67100","cbVille":"STRASBOURG","spLibelle1":"","spLibelle2":"","acDateSerment":"","coordinates":[7.7561988,48.5656603]},{"NomBarreau":"STRASBOURG","avNom":"LAUMIN","avPrenom":"Vincent","cbRaisonSociale":"LAUMIN VINCENT","cbSiretSiren":"893055905","cbAdresse1":"12 rue des Pontonniers","cbAdresse2":"","cbCp":"67000","cbVille":"STRASBOURG","spLibelle1":"","spLibelle2":"","acDateSerment":"","coordinates":[7.7571204,48.5843159]},{"NomBarreau":"STRASBOURG","avNom":"LAURENT","avPrenom":"Julien","cbRaisonSociale":"LAURENT JULIEN","cbSiretSiren":"418500864","cbAdresse1":"7 Avenue des Vosges","cbAdresse2":"","cbCp":"67000","cbVille":"STRASBOURG","spLibelle1":"Droit immobilier","spLibelle2":"","acDateSerment":"","coordinates":[7.7586134,48.5875484]},{"NomBarreau":"STRASBOURG","avNom":"LE GUENNEC - SCHMITT","avPrenom":"Elise","cbRaisonSociale":"LE GUENNEC - SCHMITT ELISE","cbSiretSiren":"823357447","cbAdresse1":"1 Rue du Travail","cbAdresse2":"","cbCp":"67000","cbVille":"STRASBOURG","spLibelle1":"","spLibelle2":"","acDateSerment":"","coordinates":[7.7418369,48.588408]},{"NomBarreau":"STRASBOURG","avNom":"LEBROU","avPrenom":"Baptiste","cbRaisonSociale":"LEBROU BAPTISTE","cbSiretSiren":"540064946","cbAdresse1":"39 Avenue des Vosges","cbAdresse2":"","cbCp":"67000","cbVille":"STRASBOURG","spLibelle1":"","spLibelle2":"","acDateSerment":"","coordinates":[7.7511318,48.5895013]},{"NomBarreau":"STRASBOURG","avNom":"LECHEVALLIER","avPrenom":"Véronique","cbRaisonSociale":"LECHEVALLIER VERONIQUE","cbSiretSiren":"480562032","cbAdresse1":"7 rue Oberlin","cbAdresse2":"","cbCp":"67000","cbVille":"STRASBOURG","spLibelle1":"","spLibelle2":"","acDateSerment":"","coordinates":[7.7527383,48.5902768]},{"NomBarreau":"STRASBOURG","avNom":"LECOANET","avPrenom":"Priscille","cbRaisonSociale":"LECOANET PRISCILLE","cbSiretSiren":"488054933","cbAdresse1":"16 rue de Reims","cbAdresse2":"","cbCp":"67000","cbVille":"STRASBOURG","spLibelle1":"","spLibelle2":"","acDateSerment":"","coordinates":[7.7694275,48.5860799]},{"NomBarreau":"STRASBOURG","avNom":"LEFEBVRE","avPrenom":"Christophe","cbRaisonSociale":"LEFEBVRE CHRISTOPHE","cbSiretSiren":"513461285","cbAdresse1":"29 Avenue des Vosges","cbAdresse2":"","cbCp":"67000","cbVille":"STRASBOURG","spLibelle1":"","spLibelle2":"","acDateSerment":"","coordinates":[7.7531557,48.5889127]},{"NomBarreau":"STRASBOURG","avNom":"LEFEBVRE","avPrenom":"Eric","cbRaisonSociale":"LEFEBVRE ERIC","cbSiretSiren":"429703960","cbAdresse1":"14 Rue des Halles","cbAdresse2":"","cbCp":"67000","cbVille":"STRASBOURG","spLibelle1":"","spLibelle2":"","acDateSerment":"","coordinates":[7.7403045,48.5887013]},{"NomBarreau":"STRASBOURG","avNom":"LEIBEL-PERROIS","avPrenom":"Lucie","cbRaisonSociale":"LEIBEL-PERROIS LUCIE","cbSiretSiren":"818359804","cbAdresse1":"12 rue des Pontonniers","cbAdresse2":"","cbCp":"67000","cbVille":"STRASBOURG","spLibelle1":"","spLibelle2":"","acDateSerment":"","coordinates":[7.7571204,48.5843159]},{"NomBarreau":"STRASBOURG","avNom":"LEKIEFFRE","avPrenom":"Perrine","cbRaisonSociale":"LEKIEFFRE PERRINE","cbSiretSiren":"529885980","cbAdresse1":"63 Avenue des Vosges","cbAdresse2":"","cbCp":"67000","cbVille":"STRASBOURG","spLibelle1":"","spLibelle2":"","acDateSerment":"","coordinates":[7.7487482,48.5901657]},{"NomBarreau":"STRASBOURG","avNom":"LELARGE","avPrenom":"Eric","cbRaisonSociale":"LELARGE / ARENDT ","cbSiretSiren":"539001263","cbAdresse1":"5 rue Paul Muller-Simonis","cbAdresse2":"","cbCp":"67000","cbVille":"STRASBOURG","spLibelle1":"","spLibelle2":"","acDateSerment":"","coordinates":[7.7492453,48.5896037]},{"NomBarreau":"STRASBOURG","avNom":"LEMEE","avPrenom":"Aude","cbRaisonSociale":"SCHRECKENBERG - PARNIERE","cbSiretSiren":"453641318","cbAdresse1":"25 Boulevard Wilson","cbAdresse2":"","cbCp":"67000","cbVille":"STRASBOURG","spLibelle1":"","spLibelle2":"","acDateSerment":"","coordinates":[7.7402653,48.5895347]},{"NomBarreau":"STRASBOURG","avNom":"LENAERTS","avPrenom":"Géraldine","cbRaisonSociale":"LENAERTS GERALDINE","cbSiretSiren":"802277137","cbAdresse1":"18 Rue Kuhn","cbAdresse2":"","cbCp":"67000","cbVille":"STRASBOURG","spLibelle1":"","spLibelle2":"","acDateSerment":"","coordinates":[7.7385108,48.5850194]},{"NomBarreau":"STRASBOURG","avNom":"LEPAROUX - OUTTERS","avPrenom":"Marie","cbRaisonSociale":"ROTH-PIGNON,LEPAROUX & ASSOCIES","cbSiretSiren":"519182083","cbAdresse1":"5 rue de Phalsbourg","cbAdresse2":"","cbCp":"67000","cbVille":"STRASBOURG","spLibelle1":"","spLibelle2":"","acDateSerment":"","coordinates":[7.7488747,48.5908791]},{"NomBarreau":"STRASBOURG","avNom":"LERVAL","avPrenom":"Audrey","cbRaisonSociale":"LERVAL AUDREY","cbSiretSiren":"825121635","cbAdresse1":"1 Rue du Travail","cbAdresse2":"","cbCp":"67000","cbVille":"STRASBOURG","spLibelle1":"","spLibelle2":"","acDateSerment":"","coordinates":[7.7418369,48.588408]},{"NomBarreau":"STRASBOURG","avNom":"LEVY","avPrenom":"Benjamin","cbRaisonSociale":"LEVY BENJAMIN","cbSiretSiren":"818743981","cbAdresse1":"1 rue des Arquebusiers","cbAdresse2":"","cbCp":"67000","cbVille":"STRASBOURG","spLibelle1":"","spLibelle2":"","acDateSerment":"","coordinates":[7.7588631,48.5895572]},{"NomBarreau":"STRASBOURG","avNom":"LEVY","avPrenom":"Bernard","cbRaisonSociale":"ALEXANDRE-LEVY-KAHN-BRAUN & ASSOCIES","cbSiretSiren":"318517968","cbAdresse1":"12 rue des Pontonniers","cbAdresse2":"","cbCp":"67000","cbVille":"STRASBOURG","spLibelle1":"Droit commercial, des affaires et de la concurrence","spLibelle2":"Droit du crédit et de la consommation","acDateSerment":"","coordinates":[7.7571204,48.5843159]},{"NomBarreau":"STRASBOURG","avNom":"LEVY","avPrenom":"Liat","cbRaisonSociale":"LEVY LIAT","cbSiretSiren":"811501329","cbAdresse1":"9 Place de Haguenau","cbAdresse2":"","cbCp":"67000","cbVille":"STRASBOURG","spLibelle1":"","spLibelle2":"","acDateSerment":"","coordinates":[7.7434137,48.5910567]},{"NomBarreau":"STRASBOURG","avNom":"LIENHARD","avPrenom":"Claude","cbRaisonSociale":"LIENHARD & PETITOT","cbSiretSiren":"329287338","cbAdresse1":"21 rue des Francs Bourgeois","cbAdresse2":"","cbCp":"67000","cbVille":"STRASBOURG","spLibelle1":"Droit de la famille, des personnes et de leur patrimoine","spLibelle2":"Droit du dommage corporel","acDateSerment":"","coordinates":[7.7464488,48.5813194]},{"NomBarreau":"STRASBOURG","avNom":"LIESS-NUSSBAUMER","avPrenom":"Emmanuelle","cbRaisonSociale":"RACINE STRASBOURG CABINET D'AVOCATS","cbSiretSiren":"778861179","cbAdresse1":"9-10 Place du Temple Neuf","cbAdresse2":"","cbCp":"67000","cbVille":"STRASBOURG","spLibelle1":"","spLibelle2":"","acDateSerment":"","coordinates":[7.74785949911151,48.5831619]},{"NomBarreau":"STRASBOURG","avNom":"LINDEMANN","avPrenom":"Adeline","cbRaisonSociale":"LINDEMANN ADELINE","cbSiretSiren":"893329557","cbAdresse1":"87 Avenue des Vosges","cbAdresse2":"","cbCp":"67000","cbVille":"STRASBOURG","spLibelle1":"","spLibelle2":"","acDateSerment":"","coordinates":[7.7442899,48.5914188]},{"NomBarreau":"STRASBOURG","avNom":"LIONS","avPrenom":"Charlotte","cbRaisonSociale":"BARTHELEMY AVOCATS","cbSiretSiren":"493390991","cbAdresse1":"20 rue Jules Rathgeber","cbAdresse2":"","cbCp":"67100","cbVille":"STRASBOURG","spLibelle1":"","spLibelle2":"","acDateSerment":"","coordinates":[7.7561988,48.5656603]},{"NomBarreau":"STRASBOURG","avNom":"LISSONNET","avPrenom":"Mathilde","cbRaisonSociale":"LISSONNET MATHILDE","cbSiretSiren":"817838113","cbAdresse1":"5 rue Fischart","cbAdresse2":"","cbCp":"67000","cbVille":"STRASBOURG","spLibelle1":"","spLibelle2":"","acDateSerment":"","coordinates":[7.7654897,48.5860939]},{"NomBarreau":"STRASBOURG","avNom":"LITAS","avPrenom":"Aurore","cbRaisonSociale":"LITAS AURORE","cbSiretSiren":"520364142","cbAdresse1":"5 A rue Fischart","cbAdresse2":"Batiment B","cbCp":"67000","cbVille":"STRASBOURG","spLibelle1":"","spLibelle2":"","acDateSerment":"","coordinates":[7.7653258,48.5855229]},{"NomBarreau":"STRASBOURG","avNom":"LLORENS","avPrenom":"Guillaume","cbRaisonSociale":"LEONEM","cbSiretSiren":"803061852","cbAdresse1":"7 Rue de Sarrebourg","cbAdresse2":"","cbCp":"67000","cbVille":"STRASBOURG","spLibelle1":"","spLibelle2":"","acDateSerment":"","coordinates":[7.7461654,48.6084675]},