[{"NomBarreau":"VALENCIENNES","avNom":"AUDEGOND","avPrenom":"Armand","cbRaisonSociale":"AUDEGOND","cbSiretSiren":"390671519","cbAdresse1":"99 rue du Quesnoy","cbAdresse2":"","cbCp":"59300","cbVille":"VALENCIENNES","spLibelle1":"","spLibelle2":"","acDateSerment":"","coordinates":[3.5273545,50.3559381]},{"NomBarreau":"VALENCIENNES","avNom":"AUDENARD","avPrenom":"Delphine","cbRaisonSociale":"AUDENARD","cbSiretSiren":"488226838","cbAdresse1":"29 Rue Delsaux","cbAdresse2":"","cbCp":"59300","cbVille":"VALENCIENNES","spLibelle1":"","spLibelle2":"","acDateSerment":"","coordinates":[3.5257384,50.3567802]},{"NomBarreau":"VALENCIENNES","avNom":"BABOURI","avPrenom":"Abdelcrim","cbRaisonSociale":"BABOURI","cbSiretSiren":"402682686","cbAdresse1":"9 Place d'Armes","cbAdresse2":"","cbCp":"59300","cbVille":"VALENCIENNES","spLibelle1":"","spLibelle2":"","acDateSerment":"","coordinates":[3.5239751,50.3585538]},{"NomBarreau":"VALENCIENNES","avNom":"BAJARD","avPrenom":"Geoffrey","cbRaisonSociale":"BAJARD GEOFFREY","cbSiretSiren":"823816210","cbAdresse1":"29 rue Delsaux","cbAdresse2":"","cbCp":"59300","cbVille":"VALENCIENNES","spLibelle1":"","spLibelle2":"","acDateSerment":"","coordinates":[3.5257384,50.3567802]},{"NomBarreau":"VALENCIENNES","avNom":"BELKEBIR","avPrenom":"Farid","cbRaisonSociale":"BELKEBIR","cbSiretSiren":"524284304","cbAdresse1":"159 rue du Quesnoy","cbAdresse2":"","cbCp":"59300","cbVille":"VALENCIENNES","spLibelle1":"","spLibelle2":"","acDateSerment":"","coordinates":[3.529328288972701,50.3544925]},{"NomBarreau":"VALENCIENNES","avNom":"BIGHINATTI","avPrenom":"Antoine","cbRaisonSociale":"SCP D'AVOCATS ACTION CONSEILS","cbSiretSiren":"334381589","cbAdresse1":"18 Boulevard Watteau","cbAdresse2":"","cbCp":"59300","cbVille":"VALENCIENNES","spLibelle1":"Droit du travail","spLibelle2":"","acDateSerment":"","coordinates":[3.5313932,50.3566063]},{"NomBarreau":"VALENCIENNES","avNom":"BLIN","avPrenom":"Cedric","cbRaisonSociale":"BLIN ","cbSiretSiren":"520984105","cbAdresse1":"15 Place du Neuf bourg","cbAdresse2":"","cbCp":"59300","cbVille":"VALENCIENNES","spLibelle1":"","spLibelle2":"","acDateSerment":"","coordinates":[3.5184373,50.3576141]},{"NomBarreau":"VALENCIENNES","avNom":"BREMBOR","avPrenom":"Aude","cbRaisonSociale":"BREMBOR AUDE","cbSiretSiren":"817922925","cbAdresse1":"53 Boulevard Watteau","cbAdresse2":"","cbCp":"59300","cbVille":"VALENCIENNES","spLibelle1":"","spLibelle2":"","acDateSerment":"","coordinates":[3.5313932,50.3566063]},{"NomBarreau":"VALENCIENNES","avNom":"BROYART","avPrenom":"Jean Philippe","cbRaisonSociale":"PETRE-RENAUD RICHE BROYART-GALLUET","cbSiretSiren":"488519547","cbAdresse1":"63 Boulevard Saly","cbAdresse2":"","cbCp":"59300","cbVille":"VALENCIENNES","spLibelle1":"","spLibelle2":"","acDateSerment":"","coordinates":[3.5187174,50.3544633]},{"NomBarreau":"VALENCIENNES","avNom":"BUGUET","avPrenom":"Guillaume","cbRaisonSociale":" AVODROIT","cbSiretSiren":"839380219","cbAdresse1":"17 Avenue d'Amsterdam","cbAdresse2":"3ème étage","cbCp":"59300","cbVille":"VALENCIENNES","spLibelle1":"","spLibelle2":"","acDateSerment":"","coordinates":[3.5264764,50.3583654]},{"NomBarreau":"VALENCIENNES","avNom":"CAMBIER","avPrenom":"Julie","cbRaisonSociale":"LEMAIRE - MORAS & ASSOCIES","cbSiretSiren":"437506645","cbAdresse1":"28 Place du Neuf Bourg","cbAdresse2":"","cbCp":"59300","cbVille":"VALENCIENNES","spLibelle1":"","spLibelle2":"","acDateSerment":"","coordinates":[3.5181299,50.3576611]},{"NomBarreau":"VALENCIENNES","avNom":"COQUELET","avPrenom":"Pierre-Jean","cbRaisonSociale":"COQUELET","cbSiretSiren":"349580464","cbAdresse1":"25 Avenue Carnot","cbAdresse2":"","cbCp":"59300","cbVille":"VALENCIENNES","spLibelle1":"","spLibelle2":"","acDateSerment":"","coordinates":[3.53044357030303,50.3524885]},{"NomBarreau":"VALENCIENNES","avNom":"CORMAN","avPrenom":"Isabelle","cbRaisonSociale":"CORMAN","cbSiretSiren":"451332183","cbAdresse1":"9 Place d'Armes","cbAdresse2":"","cbCp":"59300","cbVille":"VALENCIENNES","spLibelle1":"","spLibelle2":"","acDateSerment":"","coordinates":[3.5239751,50.3585538]},{"NomBarreau":"VALENCIENNES","avNom":"COVIN","avPrenom":"Frédéric","cbRaisonSociale":"DEBACKER & ASSOCIES","cbSiretSiren":"342802337","cbAdresse1":"25 Rue Capron","cbAdresse2":"","cbCp":"59300","cbVille":"VALENCIENNES","spLibelle1":"","spLibelle2":"","acDateSerment":"","coordinates":[3.5198214,50.357362]},{"NomBarreau":"VALENCIENNES","avNom":"CRASNAULT","avPrenom":"Thibaut","cbRaisonSociale":"DEBACKER & ASSOCIES","cbSiretSiren":"342802337","cbAdresse1":"25 Rue Capron","cbAdresse2":"","cbCp":"59300","cbVille":"VALENCIENNES","spLibelle1":"","spLibelle2":"","acDateSerment":"","coordinates":[3.5198214,50.357362]},{"NomBarreau":"VALENCIENNES","avNom":"CYNKIEWICZ","avPrenom":"Tiffany","cbRaisonSociale":"CYNKIEWICZ TIFFANY","cbSiretSiren":"","cbAdresse1":"18 Boulevard Watteau","cbAdresse2":"","cbCp":"59300","cbVille":"VALENCIENNES","spLibelle1":"","spLibelle2":"","acDateSerment":"","coordinates":[3.5313932,50.3566063]},{"NomBarreau":"VALENCIENNES","avNom":"DE ABREU","avPrenom":"Manuel","cbRaisonSociale":"DE ABREU - GUILLEMINOT- PHILIPPE","cbSiretSiren":"824847503","cbAdresse1":"29 Rue Delsaux","cbAdresse2":"","cbCp":"59300","cbVille":"VALENCIENNES","spLibelle1":"","spLibelle2":"","acDateSerment":"","coordinates":[3.5257384,50.3567802]},{"NomBarreau":"VALENCIENNES","avNom":"DEJARDIN","avPrenom":"Denis","cbRaisonSociale":" AVODROIT","cbSiretSiren":"839380219","cbAdresse1":"17 Avenue d'Amsterdam","cbAdresse2":"3ème étage","cbCp":"59300","cbVille":"VALENCIENNES","spLibelle1":"","spLibelle2":"","acDateSerment":"","coordinates":[3.5264764,50.3583654]},{"NomBarreau":"VALENCIENNES","avNom":"DELAUZUN","avPrenom":"Julien","cbRaisonSociale":"DELAUZUN","cbSiretSiren":"480511815","cbAdresse1":"5 RUE MAURICE BAUCHOND","cbAdresse2":"","cbCp":"59300","cbVille":"VALENCIENNES","spLibelle1":"","spLibelle2":"","acDateSerment":"","coordinates":[3.5179051,50.3576179]},{"NomBarreau":"VALENCIENNES","avNom":"DELPLANQUE","avPrenom":"Hervé","cbRaisonSociale":"DELPLANQUE","cbSiretSiren":"415100965","cbAdresse1":"119 RUE DE PARIS","cbAdresse2":"","cbCp":"59300","cbVille":"VALENCIENNES","spLibelle1":"","spLibelle2":"","acDateSerment":"","coordinates":[3.5189297,50.357402]},{"NomBarreau":"VALENCIENNES","avNom":"DELPORTE","avPrenom":"Lucie","cbRaisonSociale":"DELPORTE LUCIE","cbSiretSiren":"844063750","cbAdresse1":"7 Rue du Saint Cordon","cbAdresse2":"","cbCp":"59300","cbVille":"VALENCIENNES","spLibelle1":"","spLibelle2":"","acDateSerment":"","coordinates":[3.526323929878049,50.3562835]},{"NomBarreau":"VALENCIENNES","avNom":"DOMINGUEZ","avPrenom":"Stephane","cbRaisonSociale":"TRUSSANT-DOMINGUEZ","cbSiretSiren":"488433103","cbAdresse1":"10 Chemin du Noir Mouton","cbAdresse2":"2ème Etage Porte A","cbCp":"59300","cbVille":"VALENCIENNES","spLibelle1":"","spLibelle2":"","acDateSerment":"","coordinates":[3.5204194,50.3684933]},{"NomBarreau":"VALENCIENNES","avNom":"DUEZ","avPrenom":"Mélanie","cbRaisonSociale":"DUEZ MELANIE","cbSiretSiren":"879505428","cbAdresse1":"17 rue Capron","cbAdresse2":"","cbCp":"59300","cbVille":"VALENCIENNES","spLibelle1":"","spLibelle2":"","acDateSerment":"","coordinates":[3.5201951,50.3571557]},{"NomBarreau":"VALENCIENNES","avNom":"DUSART HAVET","avPrenom":"Vincent","cbRaisonSociale":"SCP SPEDER DUSART FIEVET","cbSiretSiren":"808523062","cbAdresse1":"9 rue Hon Hon","cbAdresse2":"","cbCp":"59300","cbVille":"VALENCIENNES","spLibelle1":"","spLibelle2":"","acDateSerment":"","coordinates":[3.5224197,50.3624211]},{"NomBarreau":"VALENCIENNES","avNom":"FENOGLI","avPrenom":"Isabelle","cbRaisonSociale":"FENOGLI","cbSiretSiren":"489333518","cbAdresse1":"17 Avenue d'Amsterdam","cbAdresse2":"","cbCp":"59300","cbVille":"VALENCIENNES","spLibelle1":"","spLibelle2":"","acDateSerment":"","coordinates":[3.5264764,50.3583654]},{"NomBarreau":"VALENCIENNES","avNom":"FIEVET","avPrenom":"Dorothee","cbRaisonSociale":"SCP SPEDER DUSART FIEVET","cbSiretSiren":"808523062","cbAdresse1":"9 rue Hon Hon","cbAdresse2":"","cbCp":"59300","cbVille":"VALENCIENNES","spLibelle1":"","spLibelle2":"","acDateSerment":"","coordinates":[3.5224197,50.3624211]},{"NomBarreau":"VALENCIENNES","avNom":"FONTAINE","avPrenom":"Kathleen","cbRaisonSociale":"FONTAINE KATHLEEN","cbSiretSiren":"834694366","cbAdresse1":"24 et 26 rue Capron","cbAdresse2":"","cbCp":"59300","cbVille":"VALENCIENNES","spLibelle1":"","spLibelle2":"","acDateSerment":"","coordinates":[3.5198232,50.3574177]},{"NomBarreau":"VALENCIENNES","avNom":"FREGER","avPrenom":"Laurie","cbRaisonSociale":"SCP D'AVOCATS ACTION CONSEILS","cbSiretSiren":"334381589","cbAdresse1":"18 Boulevard Watteau","cbAdresse2":"","cbCp":"59300","cbVille":"VALENCIENNES","spLibelle1":"","spLibelle2":"","acDateSerment":"","coordinates":[3.5313932,50.3566063]},{"NomBarreau":"VALENCIENNES","avNom":"GALLUET","avPrenom":"Hélène","cbRaisonSociale":"PETRE-RENAUD RICHE BROYART-GALLUET","cbSiretSiren":"488519547","cbAdresse1":"63 Boulevard Saly","cbAdresse2":"","cbCp":"59300","cbVille":"VALENCIENNES","spLibelle1":"","spLibelle2":"","acDateSerment":"","coordinates":[3.5187174,50.3544633]},{"NomBarreau":"VALENCIENNES","avNom":"GLAPIAK","avPrenom":"Sarah","cbRaisonSociale":"GLAPIAK","cbSiretSiren":"537504813","cbAdresse1":"3 Rue Notre Dame","cbAdresse2":"appt. 4","cbCp":"59300","cbVille":"VALENCIENNES","spLibelle1":"","spLibelle2":"","acDateSerment":"","coordinates":[3.5190827,50.3563274]},{"NomBarreau":"VALENCIENNES","avNom":"GOMIS","avPrenom":"Dominique","cbRaisonSociale":"GOMIS DOMINIQUE","cbSiretSiren":"834254286","cbAdresse1":"29 rue Capron","cbAdresse2":"","cbCp":"59300","cbVille":"VALENCIENNES","spLibelle1":"","spLibelle2":"","acDateSerment":"","coordinates":[3.519391792387923,50.357387]},{"NomBarreau":"VALENCIENNES","avNom":"GRAVE","avPrenom":"Elise","cbRaisonSociale":"GRAVE","cbSiretSiren":"534596309","cbAdresse1":"63 Boulevard Saly","cbAdresse2":"","cbCp":"59300","cbVille":"VALENCIENNES","spLibelle1":"","spLibelle2":"","acDateSerment":"","coordinates":[3.5187174,50.3544633]},{"NomBarreau":"VALENCIENNES","avNom":"GUILLEMINOT","avPrenom":"Jérome","cbRaisonSociale":"DE ABREU - GUILLEMINOT- PHILIPPE","cbSiretSiren":"824847503","cbAdresse1":"29 Rue Delsaux","cbAdresse2":"","cbCp":"59300","cbVille":"VALENCIENNES","spLibelle1":"","spLibelle2":"","acDateSerment":"","coordinates":[3.5257384,50.3567802]},{"NomBarreau":"VALENCIENNES","avNom":"HOFFMANN","avPrenom":"Christel","cbRaisonSociale":"HOFFMANN","cbSiretSiren":"410892822","cbAdresse1":"12 Boulevard Watteau","cbAdresse2":"","cbCp":"59300","cbVille":"VALENCIENNES","spLibelle1":"","spLibelle2":"","acDateSerment":"","coordinates":[3.5313932,50.3566063]},{"NomBarreau":"VALENCIENNES","avNom":"HOLLENSETT","avPrenom":"Pascal","cbRaisonSociale":"HOLLENSETT","cbSiretSiren":"390047140","cbAdresse1":"63 Boulevard Saly","cbAdresse2":"","cbCp":"59300","cbVille":"VALENCIENNES","spLibelle1":"","spLibelle2":"","acDateSerment":"","coordinates":[3.5187174,50.3544633]},{"NomBarreau":"VALENCIENNES","avNom":"HUGUES-VANDERSCHUREN","avPrenom":"Sarah","cbRaisonSociale":"HUGUES-VANDERSCHUREN SARAH","cbSiretSiren":"814781746","cbAdresse1":"2 RUE SIMON LEBOUCQ","cbAdresse2":"","cbCp":"59300","cbVille":"VALENCIENNES","spLibelle1":"","spLibelle2":"","acDateSerment":"","coordinates":[3.5186195,50.3554479]},{"NomBarreau":"VALENCIENNES","avNom":"JACQUELIN","avPrenom":"Florence","cbRaisonSociale":"JACQUELIN","cbSiretSiren":"393799424","cbAdresse1":"2 Rue Simon Leboucq","cbAdresse2":"Résidence Saly","cbCp":"59300","cbVille":"VALENCIENNES","spLibelle1":"","spLibelle2":"","acDateSerment":"","coordinates":[3.5186195,50.3554479]},{"NomBarreau":"VALENCIENNES","avNom":"KERIFA","avPrenom":"Camir","cbRaisonSociale":"KERIFA CAMIR","cbSiretSiren":"808081871","cbAdresse1":"88 rue de Famars","cbAdresse2":"","cbCp":"59300","cbVille":"VALENCIENNES","spLibelle1":"","spLibelle2":"","acDateSerment":"","coordinates":[3.5229472,50.352492]},{"NomBarreau":"VALENCIENNES","avNom":"KRONBY HALHOULI","avPrenom":"Soraya","cbRaisonSociale":"KRONBY HALHOULI SORAYA","cbSiretSiren":"351138045","cbAdresse1":"7 RUE DE LA POSTE","cbAdresse2":"","cbCp":"59300","cbVille":"VALENCIENNES","spLibelle1":"","spLibelle2":"","acDateSerment":"","coordinates":[3.5236354,50.3595895]},{"NomBarreau":"VALENCIENNES","avNom":"LE BOT","avPrenom":"Caroline","cbRaisonSociale":"LE BOT CAROLINE","cbSiretSiren":"808569016","cbAdresse1":"14 Place du Commerce","cbAdresse2":"","cbCp":"59300","cbVille":"VALENCIENNES","spLibelle1":"","spLibelle2":"","acDateSerment":"","coordinates":[3.5218949,50.3572402]},{"NomBarreau":"VALENCIENNES","avNom":"LEFEBVRE","avPrenom":"Amandine","cbRaisonSociale":"LEFEBVRE AMANDINE","cbSiretSiren":"800258956","cbAdresse1":"3 RUE DES SAYNEURS","cbAdresse2":"","cbCp":"59300","cbVille":"VALENCIENNES","spLibelle1":"","spLibelle2":"","acDateSerment":"","coordinates":[3.520208,50.3580326]},{"NomBarreau":"VALENCIENNES","avNom":"LEJEUNE","avPrenom":"Marilyn","cbRaisonSociale":"LEJEUNE","cbSiretSiren":"438596629","cbAdresse1":"28 Place d'Armes","cbAdresse2":"","cbCp":"59300","cbVille":"VALENCIENNES","spLibelle1":"","spLibelle2":"","acDateSerment":"","coordinates":[3.5239751,50.3585538]},{"NomBarreau":"VALENCIENNES","avNom":"LEJUSTE","avPrenom":"Tamara","cbRaisonSociale":"LEJUSTE TAMARA","cbSiretSiren":"845279934","cbAdresse1":"17 Avenue de Saint Amand","cbAdresse2":"","cbCp":"59300","cbVille":"VALENCIENNES","spLibelle1":"","spLibelle2":"","acDateSerment":"","coordinates":[3.5145065,50.3656181]},{"NomBarreau":"VALENCIENNES","avNom":"LEMOINE","avPrenom":"Margaux","cbRaisonSociale":"LEMOINE","cbSiretSiren":"522851252","cbAdresse1":"48 Rue de Famars","cbAdresse2":"","cbCp":"59300","cbVille":"VALENCIENNES","spLibelle1":"","spLibelle2":"","acDateSerment":"","coordinates":[3.5229472,50.352492]},{"NomBarreau":"VALENCIENNES","avNom":"LENGLIN","avPrenom":"Astrid","cbRaisonSociale":"LENGLIN ASTRID","cbSiretSiren":"823936166","cbAdresse1":"9 Rue Hon Hon","cbAdresse2":"","cbCp":"59300","cbVille":"VALENCIENNES","spLibelle1":"","spLibelle2":"","acDateSerment":"","coordinates":[3.5224197,50.3624211]},{"NomBarreau":"VALENCIENNES","avNom":"LEVEL","avPrenom":"Céline","cbRaisonSociale":"LEVEL CELINE","cbSiretSiren":"444959621","cbAdresse1":"5 rue de la Viewarde","cbAdresse2":"","cbCp":"59300","cbVille":"VALENCIENNES","spLibelle1":"","spLibelle2":"","acDateSerment":"","coordinates":[3.5270968,50.3579013]},{"NomBarreau":"VALENCIENNES","avNom":"MACCHIA","avPrenom":"Anne","cbRaisonSociale":"MACCHIA","cbSiretSiren":"799308986","cbAdresse1":"113 Rue de Paris","cbAdresse2":"","cbCp":"59300","cbVille":"VALENCIENNES","spLibelle1":"","spLibelle2":"","acDateSerment":"","coordinates":[3.5191148,50.3578339]},{"NomBarreau":"VALENCIENNES","avNom":"MAILLARD","avPrenom":"Pauline","cbRaisonSociale":"MAILLARD PAULINE","cbSiretSiren":"844775007","cbAdresse1":"9 rue Hon Hon","cbAdresse2":"","cbCp":"59300","cbVille":"VALENCIENNES","spLibelle1":"","spLibelle2":"","acDateSerment":"","coordinates":[3.5224197,50.3624211]},{"NomBarreau":"VALENCIENNES","avNom":"MATHIEU","avPrenom":"Christelle","cbRaisonSociale":"MINET-MATHIEU","cbSiretSiren":"453016800","cbAdresse1":"31 Rue Capron","cbAdresse2":"","cbCp":"59300","cbVille":"VALENCIENNES","spLibelle1":"","spLibelle2":"","acDateSerment":"","coordinates":[3.5193421,50.3576161]},{"NomBarreau":"VALENCIENNES","avNom":"MATTON","avPrenom":"Eric","cbRaisonSociale":"MATTON","cbSiretSiren":"528002322","cbAdresse1":"24 et 26 Rue Capron","cbAdresse2":"","cbCp":"59300","cbVille":"VALENCIENNES","spLibelle1":"","spLibelle2":"","acDateSerment":"","coordinates":[3.5198232,50.3574177]},{"NomBarreau":"VALENCIENNES","avNom":"MENU","avPrenom":"Fabienne","cbRaisonSociale":"SCP D'AVOCATS ACTION CONSEILS","cbSiretSiren":"334381589","cbAdresse1":"18 Boulevard Watteau","cbAdresse2":"","cbCp":"59300","cbVille":"VALENCIENNES","spLibelle1":"","spLibelle2":"","acDateSerment":"","coordinates":[3.5313932,50.3566063]},{"NomBarreau":"VALENCIENNES","avNom":"MICHAUX","avPrenom":"Mélanie","cbRaisonSociale":"MICHAUX MELANIE","cbSiretSiren":"817832272","cbAdresse1":"29 rue","cbAdresse2":"Delsaux","cbCp":"59300","cbVille":"VALENCIENNES","spLibelle1":"","spLibelle2":"","acDateSerment":"","coordinates":[3.528205,50.359644]},{"NomBarreau":"VALENCIENNES","avNom":"MORAS","avPrenom":"Hervé","cbRaisonSociale":"LEMAIRE - MORAS & ASSOCIES","cbSiretSiren":"437506645","cbAdresse1":"28 Place du Neuf Bourg","cbAdresse2":"","cbCp":"59300","cbVille":"VALENCIENNES","spLibelle1":"","spLibelle2":"","acDateSerment":"","coordinates":[3.5181299,50.3576611]},{"NomBarreau":"VALENCIENNES","avNom":"PANAMARENKA","avPrenom":"Herman","cbRaisonSociale":"PANAMARENKA HERMAN","cbSiretSiren":"","cbAdresse1":"25 Rue Capron","cbAdresse2":"","cbCp":"59300","cbVille":"VALENCIENNES","spLibelle1":"","spLibelle2":"","acDateSerment":"","coordinates":[3.5198214,50.357362]},{"NomBarreau":"VALENCIENNES","avNom":"PHILIPPE","avPrenom":"Corinne","cbRaisonSociale":"DE ABREU - GUILLEMINOT- PHILIPPE","cbSiretSiren":"824847503","cbAdresse1":"29 Rue Delsaux","cbAdresse2":"","cbCp":"59300","cbVille":"VALENCIENNES","spLibelle1":"","spLibelle2":"","acDateSerment":"","coordinates":[3.5257384,50.3567802]},{"NomBarreau":"VALENCIENNES","avNom":"PIETRZAK","avPrenom":"Bruno","cbRaisonSociale":"PIETRZAK","cbSiretSiren":"341180867","cbAdresse1":"48 rue de Famars","cbAdresse2":"","cbCp":"59300","cbVille":"VALENCIENNES","spLibelle1":"","spLibelle2":"","acDateSerment":"","coordinates":[3.5229472,50.352492]},{"NomBarreau":"VALENCIENNES","avNom":"RENOULT MARECAUX","avPrenom":"Christel","cbRaisonSociale":"RENOULT","cbSiretSiren":"398773507","cbAdresse1":"5 Rue Maurice Bauchond","cbAdresse2":"Résidence Lamy","cbCp":"59300","cbVille":"VALENCIENNES","spLibelle1":"","spLibelle2":"","acDateSerment":"","coordinates":[3.5179051,50.3576179]},{"NomBarreau":"VALENCIENNES","avNom":"ROSSI","avPrenom":"Marine","cbRaisonSociale":"ROSSI MARINE","cbSiretSiren":"844401950","cbAdresse1":"18 Boulevard Watteau","cbAdresse2":"","cbCp":"59300","cbVille":"VALENCIENNES","spLibelle1":"","spLibelle2":"","acDateSerment":"","coordinates":[3.5313932,50.3566063]},{"NomBarreau":"VALENCIENNES","avNom":"RUOL","avPrenom":"Loic","cbRaisonSociale":"SCP COURTIN & RUOL","cbSiretSiren":"422097022","cbAdresse1":"53 bd watteau","cbAdresse2":"","cbCp":"59300","cbVille":"VALENCIENNES","spLibelle1":"","spLibelle2":"","acDateSerment":"","coordinates":[3.5313932,50.3566063]},{"NomBarreau":"VALENCIENNES","avNom":"RYGIELSKI","avPrenom":"Betty","cbRaisonSociale":"RYGIELSKI","cbSiretSiren":"440501419","cbAdresse1":"3 rue des Sayneurs","cbAdresse2":"","cbCp":"59300","cbVille":"VALENCIENNES","spLibelle1":"","spLibelle2":"","acDateSerment":"","coordinates":[3.520208,50.3580326]},{"NomBarreau":"VALENCIENNES","avNom":"SPEDER","avPrenom":"Vincent","cbRaisonSociale":"SCP SPEDER DUSART FIEVET","cbSiretSiren":"808523062","cbAdresse1":"9 rue Hon Hon","cbAdresse2":"","cbCp":"59300","cbVille":"VALENCIENNES","spLibelle1":"","spLibelle2":"","acDateSerment":"","coordinates":[3.5224197,50.3624211]},{"NomBarreau":"VALENCIENNES","avNom":"THEVENOT","avPrenom":"Jean","cbRaisonSociale":"LEFEBVRE & THEVENOT","cbSiretSiren":"410754618","cbAdresse1":"17 Avenue d'Amsterdam","cbAdresse2":"","cbCp":"59300","cbVille":"VALENCIENNES","spLibelle1":"","spLibelle2":"","acDateSerment":"","coordinates":[3.5264764,50.3583654]},{"NomBarreau":"VALENCIENNES","avNom":"TIABOU TIOMELA","avPrenom":"Godelive","cbRaisonSociale":"TIABOU TIOMELA GODELIVE","cbSiretSiren":"834253718","cbAdresse1":"29 Rue Capron","cbAdresse2":"","cbCp":"59300","cbVille":"VALENCIENNES","spLibelle1":"","spLibelle2":"","acDateSerment":"","coordinates":[3.519391792387923,50.357387]},{"NomBarreau":"VALENCIENNES","avNom":"TIRY-PERREAU","avPrenom":"Christine","cbRaisonSociale":"TIRY PERREAU","cbSiretSiren":"889924874","cbAdresse1":"17 Avenue d'Amsterdam","cbAdresse2":"","cbCp":"59300","cbVille":"VALENCIENNES","spLibelle1":"","spLibelle2":"","acDateSerment":"","coordinates":[3.5264764,50.3583654]},{"NomBarreau":"VALENCIENNES","avNom":"VALLEZ","avPrenom":"Julie","cbRaisonSociale":"LEMAIRE - MORAS & ASSOCIES","cbSiretSiren":"437506645","cbAdresse1":"28 Place du Neuf Bourg","cbAdresse2":"","cbCp":"59300","cbVille":"VALENCIENNES","spLibelle1":"","spLibelle2":"","acDateSerment":"","coordinates":[3.5181299,50.3576611]},{"NomBarreau":"VALENCIENNES","avNom":"VILETTE","avPrenom":"Maryse","cbRaisonSociale":"VILETTE","cbSiretSiren":"384459871","cbAdresse1":"66 avenue Vauban","cbAdresse2":"","cbCp":"59300","cbVille":"VALENCIENNES","spLibelle1":"","spLibelle2":"","acDateSerment":"","coordinates":[3.509675793478256,50.363018]},{"NomBarreau":"VALENCIENNES","avNom":"WALLYN PRUVOST","avPrenom":"Lucie","cbRaisonSociale":"WALLYN PRUVOST LUCIE","cbSiretSiren":"904251980","cbAdresse1":"29 Rue Delsaux","cbAdresse2":"","cbCp":"59300","cbVille":"VALENCIENNES","spLibelle1":"","spLibelle2":"","acDateSerment":"","coordinates":[3.5257384,50.3567802]}]