[{"NomBarreau":"MEUSE","avNom":"BIENFAIT","avPrenom":"Olivier","cbRaisonSociale":"BIENFAIT OLIVIER","cbSiretSiren":"331534487","cbAdresse1":"34 rue d'Anthouard","cbAdresse2":"","cbCp":"55100","cbVille":"VERDUN","spLibelle1":"","spLibelle2":"","acDateSerment":"","coordinates":[5.3857784,49.1577877]},{"NomBarreau":"MEUSE","avNom":"CRETON","avPrenom":"Béatrice","cbRaisonSociale":"CRETON BEATRICE","cbSiretSiren":"340534502","cbAdresse1":"63 rue de RU¼","cbAdresse2":"","cbCp":"55100","cbVille":"VERDUN","spLibelle1":"","spLibelle2":"","acDateSerment":"","coordinates":[-1.1539126,44.5386265]},{"NomBarreau":"MEUSE","avNom":"DUBAUX","avPrenom":"Nadège","cbRaisonSociale":"DUBAUX NADEGE","cbSiretSiren":"508969292","cbAdresse1":"31 rue des tanneries","cbAdresse2":"","cbCp":"55100","cbVille":"VERDUN","spLibelle1":"","spLibelle2":"","acDateSerment":"","coordinates":[5.3881754,49.1591047]},{"NomBarreau":"MEUSE","avNom":"HAGNIER","avPrenom":"Fabrice","cbRaisonSociale":"HAGNIER FABRICE","cbSiretSiren":"438766594","cbAdresse1":"14 place chevert","cbAdresse2":"","cbCp":"55100","cbVille":"VERDUN","spLibelle1":"","spLibelle2":"","acDateSerment":"","coordinates":[5.3863223,49.1595215]},{"NomBarreau":"MEUSE","avNom":"HECHINGER","avPrenom":"Christophe","cbRaisonSociale":"HECHINGER CHRISTOPHE","cbSiretSiren":"341025203","cbAdresse1":"3 rue Louis Maury","cbAdresse2":"","cbCp":"55100","cbVille":"VERDUN","spLibelle1":"","spLibelle2":"","acDateSerment":"","coordinates":[5.3816926,49.1617264]},{"NomBarreau":"MEUSE","avNom":"LAUMONT","avPrenom":"David","cbRaisonSociale":"LAUMONT DAVID","cbSiretSiren":"443931118","cbAdresse1":"7 place du Gouvernement","cbAdresse2":"","cbCp":"55100","cbVille":"VERDUN","spLibelle1":"","spLibelle2":"","acDateSerment":"","coordinates":[5.3793551,49.1611457]},{"NomBarreau":"MEUSE","avNom":"NODEE","avPrenom":"Xavier","cbRaisonSociale":"NODEE XAVIER","cbSiretSiren":"791333396","cbAdresse1":"7 PLACE DU GOUVERNEMENT","cbAdresse2":"","cbCp":"55100","cbVille":"VERDUN","spLibelle1":"","spLibelle2":"","acDateSerment":"","coordinates":[5.3793551,49.1611457]},{"NomBarreau":"MEUSE","avNom":"PERCEVAL","avPrenom":"Elisabeth","cbRaisonSociale":"DEMANGE &  ASSOCIES","cbSiretSiren":"393586292","cbAdresse1":"28 rue Saint Pierre","cbAdresse2":"","cbCp":"55100","cbVille":"VERDUN","spLibelle1":"","spLibelle2":"","acDateSerment":"","coordinates":[5.3834211,49.1620356]},{"NomBarreau":"MEUSE","avNom":"SCHINDLER","avPrenom":"Loic","cbRaisonSociale":"DEMANGE &  ASSOCIES","cbSiretSiren":"393586292","cbAdresse1":"28 rue Saint Pierre","cbAdresse2":"","cbCp":"55100","cbVille":"VERDUN","spLibelle1":"","spLibelle2":"","acDateSerment":"","coordinates":[5.3834211,49.1620356]}]