[{"NomBarreau":"EURE","avNom":"BROSSEAU","avPrenom":"Pauline","cbRaisonSociale":"BROSSEAU PAULINE","cbSiretSiren":"824661722","cbAdresse1":"22 rue Emile Steiner","cbAdresse2":"","cbCp":"27200","cbVille":"VERNON","spLibelle1":"","spLibelle2":"","acDateSerment":"","coordinates":[1.4808269,49.0925316]},{"NomBarreau":"EURE","avNom":"GUY","avPrenom":"Bénédicte","cbRaisonSociale":"GUY BENEDICTE","cbSiretSiren":"540074622","cbAdresse1":"13 Route des Andelys","cbAdresse2":"","cbCp":"27200","cbVille":"VERNON","spLibelle1":"","spLibelle2":"","acDateSerment":"","coordinates":[1.4842748,49.1030225]},{"NomBarreau":"EURE","avNom":"LEMAITRE-NICOLAS","avPrenom":"Valérie","cbRaisonSociale":"LEMAITRE-NICOLAS","cbSiretSiren":"449858521","cbAdresse1":"22 rue Emile Steiner","cbAdresse2":"","cbCp":"27200","cbVille":"VERNON","spLibelle1":"","spLibelle2":"","acDateSerment":"","coordinates":[1.4808269,49.0925316]},{"NomBarreau":"EURE","avNom":"MANN","avPrenom":"Karine","cbRaisonSociale":"MANN KARINE","cbSiretSiren":"393876651","cbAdresse1":"21 Avenue Gambetta","cbAdresse2":"","cbCp":"27200","cbVille":"VERNON","spLibelle1":"","spLibelle2":"","acDateSerment":"","coordinates":[1.4827019,49.0915001]},{"NomBarreau":"EURE","avNom":"SEGURA","avPrenom":"Hélène","cbRaisonSociale":"SEGURA HELENE","cbSiretSiren":"420704637","cbAdresse1":"11 Rue aux Huiliers","cbAdresse2":"","cbCp":"27200","cbVille":"VERNON","spLibelle1":"","spLibelle2":"","acDateSerment":"","coordinates":[1.4834108,49.0917597]},{"NomBarreau":"EURE","avNom":"VINCENT","avPrenom":"Xavier","cbRaisonSociale":"VINCENT XAVIER","cbSiretSiren":"343605945","cbAdresse1":"46 rue St Lazare","cbAdresse2":"","cbCp":"27200","cbVille":"VERNON","spLibelle1":"","spLibelle2":"","acDateSerment":"","coordinates":[1.4763292,49.096227]}]