[{"NomBarreau":"HAUTE-SAONE","avNom":"ARSEGUET","avPrenom":"Christine","cbRaisonSociale":"ARSEGUET CHRISTINE","cbSiretSiren":"383497799","cbAdresse1":"1 rue Leblond","cbAdresse2":"","cbCp":"70000","cbVille":"Vesoul","spLibelle1":"Droit fiscal et droit douanier","spLibelle2":"","acDateSerment":"","coordinates":[6.158406,47.623496]},{"NomBarreau":"HAUTE-SAONE","avNom":"BAUMGARTNER","avPrenom":"Pascal","cbRaisonSociale":"LEGIS AVOCATS","cbSiretSiren":"793855370","cbAdresse1":"5 RUE JEAN JAURES","cbAdresse2":"BP 20313","cbCp":"70000","cbVille":"VESOUL","spLibelle1":"","spLibelle2":"","acDateSerment":"","coordinates":[6.1533005,47.6157964]},{"NomBarreau":"HAUTE-SAONE","avNom":"BERTHOLDE","avPrenom":"Catherine","cbRaisonSociale":"SCP BERTHOLDE","cbSiretSiren":"533612610","cbAdresse1":"15 RUE NOIROT","cbAdresse2":"","cbCp":"70000","cbVille":"VESOUL","spLibelle1":"","spLibelle2":"","acDateSerment":"","coordinates":[6.156829,47.620365]},{"NomBarreau":"HAUTE-SAONE","avNom":"BREITNER","avPrenom":"Emilie","cbRaisonSociale":"BREITNER EMILIE","cbSiretSiren":"511685570","cbAdresse1":"18 PLACE DU PALAIS","cbAdresse2":"","cbCp":"70000","cbVille":"VESOUL","spLibelle1":"","spLibelle2":"","acDateSerment":"","coordinates":[6.158124,47.624046]},{"NomBarreau":"HAUTE-SAONE","avNom":"CLAUDE","avPrenom":"Xavier","cbRaisonSociale":"CLAUDE","cbSiretSiren":"778541698","cbAdresse1":"5 Impasse Fleurier","cbAdresse2":"","cbCp":"70000","cbVille":"VESOUL","spLibelle1":"","spLibelle2":"","acDateSerment":"","coordinates":[6.1576994,47.6206871]},{"NomBarreau":"HAUTE-SAONE","avNom":"DEFRANCE","avPrenom":"Xénia","cbRaisonSociale":"DEFRANCE XENIA","cbSiretSiren":"908137292","cbAdresse1":"12 rue Baron Bouvier","cbAdresse2":"","cbCp":"70000","cbVille":"VESOUL","spLibelle1":"","spLibelle2":"","acDateSerment":"","coordinates":[6.158747,47.624859]},{"NomBarreau":"HAUTE-SAONE","avNom":"GARNIRON","avPrenom":"Etienne","cbRaisonSociale":"GARNIRON ETIENNE","cbSiretSiren":"848034211","cbAdresse1":"3 Avenue Aristide Briand","cbAdresse2":"","cbCp":"70000","cbVille":"VESOUL","spLibelle1":"","spLibelle2":"","acDateSerment":"","coordinates":[6.160168,47.6228979]},{"NomBarreau":"HAUTE-SAONE","avNom":"GAUME","avPrenom":"Alexia","cbRaisonSociale":"ALEXIA GAUME","cbSiretSiren":"880004734","cbAdresse1":"37 bis rue georges genoux","cbAdresse2":"","cbCp":"70000","cbVille":"VESOUL","spLibelle1":"","spLibelle2":"","acDateSerment":"","coordinates":[6.157786,47.622488]},{"NomBarreau":"HAUTE-SAONE","avNom":"IHADADENE","avPrenom":"Samy","cbRaisonSociale":"IHADADENE  SAMY","cbSiretSiren":"894047752","cbAdresse1":"6 rue des Annonciades","cbAdresse2":"","cbCp":"70000","cbVille":"VESOUL","spLibelle1":"","spLibelle2":"","acDateSerment":"","coordinates":[6.156119,47.624038]},{"NomBarreau":"HAUTE-SAONE","avNom":"LACHAT","avPrenom":"Lise","cbRaisonSociale":"LACHAT LISE","cbSiretSiren":"827528886","cbAdresse1":"3 Place du Grand Puits","cbAdresse2":"","cbCp":"70000","cbVille":"VESOUL","spLibelle1":"","spLibelle2":"","acDateSerment":"","coordinates":[6.157805,47.624401]},{"NomBarreau":"HAUTE-SAONE","avNom":"LASSUS-PHILIPPE","avPrenom":"Marie-Josèphe","cbRaisonSociale":"LASSUS-PHILIPPE & RONGEOT","cbSiretSiren":"844777508","cbAdresse1":"19 RUE DE LA BANQUE","cbAdresse2":"","cbCp":"70000","cbVille":"VESOUL","spLibelle1":"","spLibelle2":"","acDateSerment":"","coordinates":[6.152514,47.618653]},{"NomBarreau":"HAUTE-SAONE","avNom":"LAVALLEE","avPrenom":"Caroline","cbRaisonSociale":"LAVALLEE - PAGNOT","cbSiretSiren":"790016612","cbAdresse1":"7 RUE DU PALAIS","cbAdresse2":"","cbCp":"70000","cbVille":"VESOUL","spLibelle1":"","spLibelle2":"","acDateSerment":"","coordinates":[6.158951,47.623737]},{"NomBarreau":"HAUTE-SAONE","avNom":"LEONARD","avPrenom":"Virginie","cbRaisonSociale":"LEONARD VIENNOT","cbSiretSiren":"844811695","cbAdresse1":"3 Avenue Aristide Briand","cbAdresse2":"","cbCp":"70000","cbVille":"VESOUL","spLibelle1":"","spLibelle2":"","acDateSerment":"","coordinates":[6.160168,47.6228979]},{"NomBarreau":"HAUTE-SAONE","avNom":"MANG","avPrenom":"Anne-Sophie","cbRaisonSociale":"MANG ANNE-SOPHIE","cbSiretSiren":"853810992","cbAdresse1":"64 rue Saint Martin","cbAdresse2":"","cbCp":"70000","cbVille":"VESOUL","spLibelle1":"","spLibelle2":"","acDateSerment":"","coordinates":[6.1463984,47.6235745]},{"NomBarreau":"HAUTE-SAONE","avNom":"PAGNOT","avPrenom":"Magali","cbRaisonSociale":"LAVALLEE - PAGNOT","cbSiretSiren":"790016612","cbAdresse1":"7 RUE DU PALAIS","cbAdresse2":"","cbCp":"70000","cbVille":"VESOUL","spLibelle1":"","spLibelle2":"","acDateSerment":"","coordinates":[6.158951,47.623737]},{"NomBarreau":"HAUTE-SAONE","avNom":"RONGEOT","avPrenom":"Marion","cbRaisonSociale":"LASSUS-PHILIPPE & RONGEOT","cbSiretSiren":"844777508","cbAdresse1":"19 RUE DE LA BANQUE","cbAdresse2":"","cbCp":"70000","cbVille":"VESOUL","spLibelle1":"","spLibelle2":"","acDateSerment":"","coordinates":[6.152514,47.618653]},{"NomBarreau":"HAUTE-SAONE","avNom":"THOMAS","avPrenom":"Frédérique","cbRaisonSociale":"THOMAS FREDERIQUE","cbSiretSiren":"484321989","cbAdresse1":"18 PLACE DU PALAIS","cbAdresse2":"","cbCp":"70000","cbVille":"VESOUL","spLibelle1":"","spLibelle2":"","acDateSerment":"","coordinates":[6.158124,47.624046]},{"NomBarreau":"HAUTE-SAONE","avNom":"VIENNOT","avPrenom":"Antoine","cbRaisonSociale":"LEONARD VIENNOT","cbSiretSiren":"844811695","cbAdresse1":"3 Avenue Aristide Briand","cbAdresse2":"","cbCp":"70000","cbVille":"VESOUL","spLibelle1":"","spLibelle2":"","acDateSerment":"","coordinates":[6.160168,47.6228979]}]