[{"NomBarreau":"VAL DE MARNE","avNom":"ABITBOL","avPrenom":"Sarah","cbRaisonSociale":"ABITBOL SARAH","cbSiretSiren":"849094404","cbAdresse1":"51 avenue de Paris","cbAdresse2":"","cbCp":"94300","cbVille":"VINCENNES","spLibelle1":"","spLibelle2":"","acDateSerment":"","coordinates":[2.4286838,48.845385]},{"NomBarreau":"VAL DE MARNE","avNom":"ADRIAN","avPrenom":"Hélène","cbRaisonSociale":"ADRIAN HELENE","cbSiretSiren":"839964301","cbAdresse1":"30 Cours Marigny","cbAdresse2":"","cbCp":"94300","cbVille":"VINCENNES","spLibelle1":"","spLibelle2":"","acDateSerment":"","coordinates":[2.4401543,48.8466535]},{"NomBarreau":"VAL DE MARNE","avNom":"AHMAD","avPrenom":"Zubair","cbRaisonSociale":"AHMAD ZUBAIR","cbSiretSiren":"484884069","cbAdresse1":"1 Rue du Donjon","cbAdresse2":"","cbCp":"94300","cbVille":"VINCENNES","spLibelle1":"","spLibelle2":"","acDateSerment":"","coordinates":[2.4320825,48.8433116]},{"NomBarreau":"VAL DE MARNE","avNom":"ALIS","avPrenom":"Joanick","cbRaisonSociale":"ALIS JOANICK","cbSiretSiren":"381040567","cbAdresse1":"1 Rue de l'Eglise","cbAdresse2":"","cbCp":"94300","cbVille":"VINCENNES","spLibelle1":"","spLibelle2":"","acDateSerment":"","coordinates":[2.4378723,48.8474543]},{"NomBarreau":"VAL DE MARNE","avNom":"ALMEIDA","avPrenom":"Patricia","cbRaisonSociale":"ALMEIDA PATRICIA","cbSiretSiren":"508326261","cbAdresse1":"38 Avenue du Petit Parc","cbAdresse2":"","cbCp":"94300","cbVille":"VINCENNES","spLibelle1":"","spLibelle2":"","acDateSerment":"","coordinates":[2.4282615,48.8422711]},{"NomBarreau":"VAL DE MARNE","avNom":"ALOPE","avPrenom":"Maud","cbRaisonSociale":"ALOPE MAUD","cbSiretSiren":"843898826","cbAdresse1":"15 rue du docteur Lebel","cbAdresse2":"","cbCp":"94300","cbVille":"VINCENNES","spLibelle1":"","spLibelle2":"","acDateSerment":"","coordinates":[2.431359,48.8471378]},{"NomBarreau":"VAL DE MARNE","avNom":"ALTMAN","avPrenom":"Louise","cbRaisonSociale":"ALTMAN LOUISE","cbSiretSiren":"908894249","cbAdresse1":"170 Avenue de Paris","cbAdresse2":"","cbCp":"94300","cbVille":"VINCENNES","spLibelle1":"","spLibelle2":"","acDateSerment":"","coordinates":[2.4194001,48.846461]},{"NomBarreau":"VAL DE MARNE","avNom":"ANGOTZI","avPrenom":"Solange","cbRaisonSociale":"ANGOTZI SOLANGE","cbSiretSiren":"395377229","cbAdresse1":"51 avenue de Paris","cbAdresse2":"","cbCp":"94300","cbVille":"VINCENNES","spLibelle1":"","spLibelle2":"","acDateSerment":"","coordinates":[2.4286838,48.845385]},{"NomBarreau":"VAL DE MARNE","avNom":"ARBIB","avPrenom":"Lisa","cbRaisonSociale":"ARBIB LISA","cbSiretSiren":"838031763","cbAdresse1":"51 Avenue de Paris","cbAdresse2":"","cbCp":"94300","cbVille":"VINCENNES","spLibelle1":"","spLibelle2":"","acDateSerment":"","coordinates":[2.4286838,48.845385]},{"NomBarreau":"VAL DE MARNE","avNom":"ARBIB","avPrenom":"Raphael","cbRaisonSociale":"ARBIB RAPHAEL","cbSiretSiren":"809921141","cbAdresse1":"51 avenue de Paris","cbAdresse2":"","cbCp":"94300","cbVille":"VINCENNES","spLibelle1":"","spLibelle2":"","acDateSerment":"","coordinates":[2.4286838,48.845385]},{"NomBarreau":"VAL DE MARNE","avNom":"ARBIB","avPrenom":"Richard","cbRaisonSociale":"A.K.A","cbSiretSiren":"477682587","cbAdresse1":"51 avenue de Paris","cbAdresse2":"","cbCp":"94300","cbVille":"VINCENNES","spLibelle1":"","spLibelle2":"","acDateSerment":"","coordinates":[2.4286838,48.845385]},{"NomBarreau":"VAL DE MARNE","avNom":"ASSARAF","avPrenom":"Sophie","cbRaisonSociale":"ASSARAF SOPHIE","cbSiretSiren":"921906095","cbAdresse1":"51 Avenue de Paris","cbAdresse2":"","cbCp":"94300","cbVille":"VINCENNES","spLibelle1":"","spLibelle2":"","acDateSerment":"","coordinates":[2.4286838,48.845385]},{"NomBarreau":"VAL DE MARNE","avNom":"BADANI","avPrenom":"Saliha","cbRaisonSociale":"BADANI SALIHA","cbSiretSiren":"832752224","cbAdresse1":"6 Rue des Deux Communes","cbAdresse2":"","cbCp":"94300","cbVille":"VINCENNES","spLibelle1":"","spLibelle2":"","acDateSerment":"","coordinates":[2.4294645,48.8495431]},{"NomBarreau":"VAL DE MARNE","avNom":"BANAKAS","avPrenom":"Marie-Alexia","cbRaisonSociale":"BANAKAS MARIE-ALEXIA","cbSiretSiren":"820038610","cbAdresse1":"2 Bis Rue des deux Communes","cbAdresse2":"","cbCp":"94300","cbVille":"VINCENNES","spLibelle1":"","spLibelle2":"","acDateSerment":"","coordinates":[2.4294037,48.8496568]},{"NomBarreau":"VAL DE MARNE","avNom":"BATAILLE","avPrenom":"Maité","cbRaisonSociale":"BATAILLE MAITE","cbSiretSiren":"530144989","cbAdresse1":"88 Avenue Aubert","cbAdresse2":"","cbCp":"94300","cbVille":"VINCENNES","spLibelle1":"","spLibelle2":"","acDateSerment":"","coordinates":[2.4259014,48.8470159]},{"NomBarreau":"VAL DE MARNE","avNom":"BERCHEL","avPrenom":"Isabelle","cbRaisonSociale":"BERCHEL ISABELLE","cbSiretSiren":"752022541","cbAdresse1":"88 Avenue Aubert","cbAdresse2":"","cbCp":"94300","cbVille":"VINCENNES","spLibelle1":"","spLibelle2":"","acDateSerment":"","coordinates":[2.4259014,48.8470159]},{"NomBarreau":"VAL DE MARNE","avNom":"BORE","avPrenom":"Christophe","cbRaisonSociale":"A.K.P.R.","cbSiretSiren":"350624607","cbAdresse1":"14 rue Lejemptel","cbAdresse2":"","cbCp":"94300","cbVille":"VINCENNES","spLibelle1":"Droit du travail","spLibelle2":"Droit immobilier","acDateSerment":"","coordinates":[2.4378704,48.8460496]},{"NomBarreau":"VAL DE MARNE","avNom":"BOUCHEREAU","avPrenom":"Céline","cbRaisonSociale":"BOUCHEREAU CELINE","cbSiretSiren":"423909712","cbAdresse1":"9 Rue Villebois Mareuil","cbAdresse2":"","cbCp":"94300","cbVille":"VINCENNES","spLibelle1":"","spLibelle2":"","acDateSerment":"","coordinates":[2.4334874,48.846475]},{"NomBarreau":"VAL DE MARNE","avNom":"BOUILLON","avPrenom":"Coline","cbRaisonSociale":"BOUILLON COLINE","cbSiretSiren":"849516778","cbAdresse1":"170 Avenue de Paris","cbAdresse2":"","cbCp":"94300","cbVille":"VINCENNES","spLibelle1":"","spLibelle2":"","acDateSerment":"","coordinates":[2.4194001,48.846461]},{"NomBarreau":"VAL DE MARNE","avNom":"BROCA","avPrenom":"Carine","cbRaisonSociale":"BROCA CARINE","cbSiretSiren":"422843995","cbAdresse1":"34 Avenue Franklin Roosevelt","cbAdresse2":"","cbCp":"94300","cbVille":"VINCENNES","spLibelle1":"","spLibelle2":"","acDateSerment":"","coordinates":[2.4320895,48.8438816]},{"NomBarreau":"VAL DE MARNE","avNom":"CANOY","avPrenom":"Frédérik-Karel","cbRaisonSociale":"SARL CABINET FREDERIK KAREL CANOY","cbSiretSiren":"794081471","cbAdresse1":"172 Avenue de Paris","cbAdresse2":"","cbCp":"94300","cbVille":"VINCENNES","spLibelle1":"Droit des sociétés","spLibelle2":"","acDateSerment":"","coordinates":[2.4188316,48.8465097]},{"NomBarreau":"VAL DE MARNE","avNom":"CARON-RIFFET","avPrenom":"Cécile","cbRaisonSociale":"CARON-RIFFET CECILE","cbSiretSiren":"833459621","cbAdresse1":"1 Rue de l'Eglise","cbAdresse2":"","cbCp":"94300","cbVille":"VINCENNES","spLibelle1":"","spLibelle2":"","acDateSerment":"","coordinates":[2.4378723,48.8474543]},{"NomBarreau":"VAL DE MARNE","avNom":"CHAMAS","avPrenom":"Yassine","cbRaisonSociale":"CHAMAS YASSINE","cbSiretSiren":"530064666","cbAdresse1":"30 Cours Marigny","cbAdresse2":"","cbCp":"94300","cbVille":"VINCENNES","spLibelle1":"","spLibelle2":"","acDateSerment":"","coordinates":[2.4401543,48.8466535]},{"NomBarreau":"VAL DE MARNE","avNom":"CHARNOIS","avPrenom":"Alexandra","cbRaisonSociale":"CHARNOIS ALEXANDRA","cbSiretSiren":"809900418","cbAdresse1":"88 Avenue Aubert","cbAdresse2":"","cbCp":"94300","cbVille":"VINCENNES","spLibelle1":"","spLibelle2":"","acDateSerment":"","coordinates":[2.4259014,48.8470159]},{"NomBarreau":"VAL DE MARNE","avNom":"COHEN","avPrenom":"Sophie","cbRaisonSociale":"COHEN SOPHIE","cbSiretSiren":"452812571","cbAdresse1":"30 Cours Marigny","cbAdresse2":"","cbCp":"94300","cbVille":"VINCENNES","spLibelle1":"","spLibelle2":"","acDateSerment":"","coordinates":[2.4401543,48.8466535]},{"NomBarreau":"VAL DE MARNE","avNom":"CORAZZA","avPrenom":"Elise","cbRaisonSociale":"CORAZZA ELISE","cbSiretSiren":"801109406","cbAdresse1":"1 Rue de l'Eglise","cbAdresse2":"","cbCp":"94300","cbVille":"VINCENNES","spLibelle1":"","spLibelle2":"","acDateSerment":"","coordinates":[2.4378723,48.8474543]},{"NomBarreau":"VAL DE MARNE","avNom":"COUZON","avPrenom":"Catherine","cbRaisonSociale":"COUZON CATHERINE","cbSiretSiren":"388347015","cbAdresse1":"7 Rue Leroyer","cbAdresse2":"","cbCp":"94300","cbVille":"VINCENNES","spLibelle1":"","spLibelle2":"","acDateSerment":"","coordinates":[2.4403707,48.8511626]},{"NomBarreau":"VAL DE MARNE","avNom":"DARCHIS","avPrenom":"Caroline","cbRaisonSociale":"MANEO AVOCAT","cbSiretSiren":"830423620","cbAdresse1":"40 Rue Joseph Gaillard","cbAdresse2":"","cbCp":"94300","cbVille":"VINCENNES","spLibelle1":"","spLibelle2":"","acDateSerment":"","coordinates":[2.4417707,48.8512246]},{"NomBarreau":"VAL DE MARNE","avNom":"DESCOLA","avPrenom":"Léonore","cbRaisonSociale":"DESCOLA LEONORE","cbSiretSiren":"808883540","cbAdresse1":"7 Rue des Sabotiers","cbAdresse2":"","cbCp":"94300","cbVille":"VINCENNES","spLibelle1":"","spLibelle2":"","acDateSerment":"","coordinates":[2.4468002,48.8473655]},{"NomBarreau":"VAL DE MARNE","avNom":"DESPRES","avPrenom":"Virginie","cbRaisonSociale":"DESPRES VIRGINIE","cbSiretSiren":"511259269","cbAdresse1":"30 Cours Marigny","cbAdresse2":"","cbCp":"94300","cbVille":"VINCENNES","spLibelle1":"","spLibelle2":"","acDateSerment":"","coordinates":[2.4401543,48.8466535]},{"NomBarreau":"VAL DE MARNE","avNom":"DESVEAUX","avPrenom":"Aurélia","cbRaisonSociale":"DESVEAUX AURELIA","cbSiretSiren":"481107845","cbAdresse1":"1 Rue Defrance","cbAdresse2":"","cbCp":"94300","cbVille":"VINCENNES","spLibelle1":"","spLibelle2":"","acDateSerment":"","coordinates":[2.4460955,48.8479938]},{"NomBarreau":"VAL DE MARNE","avNom":"DEVAUX","avPrenom":"Bénédicte","cbRaisonSociale":"ADAGE","cbSiretSiren":"539123877","cbAdresse1":"2 Rue de l'Eglise","cbAdresse2":"","cbCp":"94300","cbVille":"VINCENNES","spLibelle1":"","spLibelle2":"","acDateSerment":"","coordinates":[2.4377349,48.8475822]},{"NomBarreau":"VAL DE MARNE","avNom":"DRAY ZENOU","avPrenom":"Andréa","cbRaisonSociale":"DRAY ZENOU ANDREA","cbSiretSiren":"848742870","cbAdresse1":"1 Rue du Donjon","cbAdresse2":"","cbCp":"94300","cbVille":"VINCENNES","spLibelle1":"","spLibelle2":"","acDateSerment":"","coordinates":[2.4320825,48.8433116]},{"NomBarreau":"VAL DE MARNE","avNom":"DREANO","avPrenom":"Yann","cbRaisonSociale":"DREANO YANN","cbSiretSiren":"381081231","cbAdresse1":"31 rue Diderot","cbAdresse2":"","cbCp":"94300","cbVille":"VINCENNES","spLibelle1":"","spLibelle2":"","acDateSerment":"","coordinates":[2.4394974,48.8508375]},{"NomBarreau":"VAL DE MARNE","avNom":"DUMEIGE ISTIN","avPrenom":"Marianne","cbRaisonSociale":"DUMEIGE ISTIN MARIANNE","cbSiretSiren":"393233028","cbAdresse1":"14 rue Defrance","cbAdresse2":"","cbCp":"94300","cbVille":"VINCENNES","spLibelle1":"","spLibelle2":"","acDateSerment":"","coordinates":[2.4473553,48.8479103]},{"NomBarreau":"VAL DE MARNE","avNom":"FELLA","avPrenom":"Céline","cbRaisonSociale":"FELLA CELINE","cbSiretSiren":"490343308","cbAdresse1":"7 Rue des Sabotiers","cbAdresse2":"","cbCp":"94300","cbVille":"VINCENNES","spLibelle1":"","spLibelle2":"","acDateSerment":"","coordinates":[2.4468002,48.8473655]},{"NomBarreau":"VAL DE MARNE","avNom":"FROGER","avPrenom":"Philippe","cbRaisonSociale":"FROGER PHILIPPE","cbSiretSiren":"522989797","cbAdresse1":"2 Place Diderot","cbAdresse2":"","cbCp":"94300","cbVille":"VINCENNES","spLibelle1":"","spLibelle2":"","acDateSerment":"","coordinates":[2.4503614,48.8499993]},{"NomBarreau":"VAL DE MARNE","avNom":"GOURY-ALIS","avPrenom":"Alice","cbRaisonSociale":"GOURY-ALIS ALICE","cbSiretSiren":"808594410","cbAdresse1":"1 Rue de l'Eglise","cbAdresse2":"","cbCp":"94300","cbVille":"VINCENNES","spLibelle1":"","spLibelle2":"","acDateSerment":"","coordinates":[2.4378723,48.8474543]},{"NomBarreau":"VAL DE MARNE","avNom":"GOUTILLE","avPrenom":"Jérome","cbRaisonSociale":"GOUTILLE JERU”ME","cbSiretSiren":"517765384","cbAdresse1":"1 Rue Defrance","cbAdresse2":"","cbCp":"94300","cbVille":"VINCENNES","spLibelle1":"","spLibelle2":"","acDateSerment":"","coordinates":[2.4460955,48.8479938]},{"NomBarreau":"VAL DE MARNE","avNom":"GUELLEC","avPrenom":"Vanessa","cbRaisonSociale":"GUELLEC VANESSA","cbSiretSiren":"523360691","cbAdresse1":"7 Rue des Sabotiers","cbAdresse2":"","cbCp":"94300","cbVille":"VINCENNES","spLibelle1":"","spLibelle2":"","acDateSerment":"","coordinates":[2.4468002,48.8473655]},{"NomBarreau":"VAL DE MARNE","avNom":"GUISEPPI","avPrenom":"Delphine","cbRaisonSociale":"ADAGE","cbSiretSiren":"539123877","cbAdresse1":"2 Rue de l'Eglise","cbAdresse2":"","cbCp":"94300","cbVille":"VINCENNES","spLibelle1":"","spLibelle2":"","acDateSerment":"","coordinates":[2.4377349,48.8475822]},{"NomBarreau":"VAL DE MARNE","avNom":"HENRY","avPrenom":"Justine","cbRaisonSociale":"CJH CABINET JUSTINE HENRY","cbSiretSiren":"519291140","cbAdresse1":"1 Rue du Donjon","cbAdresse2":"","cbCp":"94300","cbVille":"VINCENNES","spLibelle1":"","spLibelle2":"","acDateSerment":"","coordinates":[2.4320825,48.8433116]},{"NomBarreau":"VAL DE MARNE","avNom":"ISAL","avPrenom":"Martin","cbRaisonSociale":"ISAL MARTIN","cbSiretSiren":"815330279","cbAdresse1":"1 Rue du Donjon","cbAdresse2":"","cbCp":"94300","cbVille":"VINCENNES","spLibelle1":"","spLibelle2":"","acDateSerment":"","coordinates":[2.4320825,48.8433116]},{"NomBarreau":"VAL DE MARNE","avNom":"KOCHBATI","avPrenom":"Linda","cbRaisonSociale":"KOCHBATI LINDA","cbSiretSiren":"533139432","cbAdresse1":"15 Avenue de Paris","cbAdresse2":"","cbCp":"94300","cbVille":"VINCENNES","spLibelle1":"","spLibelle2":"","acDateSerment":"","coordinates":[2.4326189,48.8450383]},{"NomBarreau":"VAL DE MARNE","avNom":"KOHEN","avPrenom":"Nicolas","cbRaisonSociale":"KOHEN NICOLAS","cbSiretSiren":"398462655","cbAdresse1":"30 Cours Marigny","cbAdresse2":"","cbCp":"94300","cbVille":"VINCENNES","spLibelle1":"Droit immobilier","spLibelle2":"","acDateSerment":"","coordinates":[2.4401543,48.8466535]},{"NomBarreau":"VAL DE MARNE","avNom":"KOSKAS","avPrenom":"Annie","cbRaisonSociale":"A.K.A","cbSiretSiren":"477682587","cbAdresse1":"51 avenue de Paris","cbAdresse2":"","cbCp":"94300","cbVille":"VINCENNES","spLibelle1":"","spLibelle2":"","acDateSerment":"","coordinates":[2.4286838,48.845385]},{"NomBarreau":"VAL DE MARNE","avNom":"KUCHARZ","avPrenom":"Eva","cbRaisonSociale":"KUCHARZ EVA","cbSiretSiren":"834301814","cbAdresse1":"1 Rue du Donjon","cbAdresse2":"","cbCp":"94300","cbVille":"VINCENNES","spLibelle1":"","spLibelle2":"","acDateSerment":"","coordinates":[2.4320825,48.8433116]},{"NomBarreau":"VAL DE MARNE","avNom":"LABARTHE","avPrenom":"Jean-Paul","cbRaisonSociale":"LABARTHE JEAN-PAUL","cbSiretSiren":"812211035","cbAdresse1":"30 Cours Marigny","cbAdresse2":"","cbCp":"94300","cbVille":"VINCENNES","spLibelle1":"","spLibelle2":"","acDateSerment":"","coordinates":[2.4401543,48.8466535]},{"NomBarreau":"VAL DE MARNE","avNom":"LECLERCQ","avPrenom":"Alizée","cbRaisonSociale":"LECLERCQ ALIZEE","cbSiretSiren":"833473317","cbAdresse1":"1 Rue de l'Eglise","cbAdresse2":"","cbCp":"94300","cbVille":"VINCENNES","spLibelle1":"","spLibelle2":"","acDateSerment":"","coordinates":[2.4378723,48.8474543]},{"NomBarreau":"VAL DE MARNE","avNom":"LEVY","avPrenom":"Elsa","cbRaisonSociale":"LEVY ELSA","cbSiretSiren":"823483524","cbAdresse1":"1 Rue de l'Eglise","cbAdresse2":"","cbCp":"94300","cbVille":"VINCENNES","spLibelle1":"","spLibelle2":"","acDateSerment":"","coordinates":[2.4378723,48.8474543]},{"NomBarreau":"VAL DE MARNE","avNom":"MAGA","avPrenom":"Frédérique","cbRaisonSociale":"MAGA FREDERIQUE","cbSiretSiren":"532804143","cbAdresse1":"88 Avenue Aubert","cbAdresse2":"","cbCp":"94300","cbVille":"VINCENNES","spLibelle1":"","spLibelle2":"","acDateSerment":"","coordinates":[2.4259014,48.8470159]},{"NomBarreau":"VAL DE MARNE","avNom":"MAQUIN-JOFFRE","avPrenom":"Loren","cbRaisonSociale":"A.K.P.R.","cbSiretSiren":"350624607","cbAdresse1":"14 rue Lejemptel","cbAdresse2":"","cbCp":"94300","cbVille":"VINCENNES","spLibelle1":"","spLibelle2":"","acDateSerment":"","coordinates":[2.4378704,48.8460496]},{"NomBarreau":"VAL DE MARNE","avNom":"MARCHAND","avPrenom":"Clara","cbRaisonSociale":"MARCHAND CLARA","cbSiretSiren":"799777347","cbAdresse1":"2 Place Diderot","cbAdresse2":"","cbCp":"94300","cbVille":"VINCENNES","spLibelle1":"Droit pénal","spLibelle2":"","acDateSerment":"","coordinates":[2.4503614,48.8499993]},{"NomBarreau":"VAL DE MARNE","avNom":"MARCHAND","avPrenom":"Maud","cbRaisonSociale":"MARCHAND MAUD","cbSiretSiren":"817439896","cbAdresse1":"2 Place Diderot","cbAdresse2":"","cbCp":"94300","cbVille":"VINCENNES","spLibelle1":"","spLibelle2":"","acDateSerment":"","coordinates":[2.4503614,48.8499993]},{"NomBarreau":"VAL DE MARNE","avNom":"MICHAUD","avPrenom":"Christian","cbRaisonSociale":"MICHAUD CHRISTIAN","cbSiretSiren":"828144618","cbAdresse1":"1 Rue de l'Eglise","cbAdresse2":"","cbCp":"94300","cbVille":"VINCENNES","spLibelle1":"","spLibelle2":"","acDateSerment":"","coordinates":[2.4378723,48.8474543]},{"NomBarreau":"VAL DE MARNE","avNom":"NEVEU-GALLI","avPrenom":"Brigitte","cbRaisonSociale":"NEVEU-GALLI BRIGITTE","cbSiretSiren":"344848676","cbAdresse1":"53 rue de Fontenay","cbAdresse2":"","cbCp":"94300","cbVille":"VINCENNES","spLibelle1":"","spLibelle2":"","acDateSerment":"","coordinates":[2.439777616354442,48.84767625]},{"NomBarreau":"VAL DE MARNE","avNom":"PODOLAK","avPrenom":"Nicolas","cbRaisonSociale":"PODOLAK NICOLAS","cbSiretSiren":"523627636","cbAdresse1":"2 BIS rue des deux Communes","cbAdresse2":"","cbCp":"94300","cbVille":"VINCENNES","spLibelle1":"","spLibelle2":"","acDateSerment":"","coordinates":[2.4294037,48.8496568]},{"NomBarreau":"VAL DE MARNE","avNom":"RAIMON","avPrenom":"Francis","cbRaisonSociale":"RAIMON FRANCIS","cbSiretSiren":"","cbAdresse1":"14 Rue Lejemptel","cbAdresse2":"","cbCp":"94300","cbVille":"VINCENNES","spLibelle1":"Droit immobilier","spLibelle2":"","acDateSerment":"","coordinates":[2.4378704,48.8460496]},{"NomBarreau":"VAL DE MARNE","avNom":"RONDI NASALLI","avPrenom":"Agnès","cbRaisonSociale":"THEMLEX AVOCATS","cbSiretSiren":"830614541","cbAdresse1":"14 Avenue des Minimes","cbAdresse2":"","cbCp":"94300","cbVille":"VINCENNES","spLibelle1":"","spLibelle2":"","acDateSerment":"","coordinates":[2.4311608,48.841337]},{"NomBarreau":"VAL DE MARNE","avNom":"ROUAH","avPrenom":"Yael","cbRaisonSociale":"ROUAH YAEL","cbSiretSiren":"404579542","cbAdresse1":"15 rue du docteur Lebel","cbAdresse2":"","cbCp":"94300","cbVille":"VINCENNES","spLibelle1":"","spLibelle2":"","acDateSerment":"","coordinates":[2.431359,48.8471378]},{"NomBarreau":"VAL DE MARNE","avNom":"SALOMONI","avPrenom":"Laurine","cbRaisonSociale":"FRICAUDET LARROUMET SALOMONI","cbSiretSiren":"","cbAdresse1":"2 Bis rue des Deux Communes","cbAdresse2":"","cbCp":"94300","cbVille":"VINCENNES","spLibelle1":"","spLibelle2":"","acDateSerment":"","coordinates":[2.4294037,48.8496568]},{"NomBarreau":"VAL DE MARNE","avNom":"SAMBE","avPrenom":"Nandi","cbRaisonSociale":"SAMBE NANDI","cbSiretSiren":"921793253","cbAdresse1":"40 Rue Joseph Gaillard","cbAdresse2":"","cbCp":"94300","cbVille":"VINCENNES","spLibelle1":"","spLibelle2":"","acDateSerment":"","coordinates":[2.4417707,48.8512246]},{"NomBarreau":"VAL DE MARNE","avNom":"SCHWARCZ","avPrenom":"Virginie","cbRaisonSociale":"SCHWARCZ VIRGINIE","cbSiretSiren":"407631183","cbAdresse1":"15 Rue du Docteur Lebel","cbAdresse2":"","cbCp":"94300","cbVille":"VINCENNES","spLibelle1":"","spLibelle2":"","acDateSerment":"","coordinates":[2.431359,48.8471378]},{"NomBarreau":"VAL DE MARNE","avNom":"SERFATI","avPrenom":"Franck","cbRaisonSociale":"SERFATI FRANCK","cbSiretSiren":"399012137","cbAdresse1":"15 avenue de Paris","cbAdresse2":"","cbCp":"94300","cbVille":"VINCENNES","spLibelle1":"","spLibelle2":"","acDateSerment":"","coordinates":[2.4326189,48.8450383]},{"NomBarreau":"VAL DE MARNE","avNom":"SOULARD","avPrenom":"Chloé","cbRaisonSociale":"A.K.P.R.","cbSiretSiren":"350624607","cbAdresse1":"14 rue Lejemptel","cbAdresse2":"","cbCp":"94300","cbVille":"VINCENNES","spLibelle1":"","spLibelle2":"","acDateSerment":"","coordinates":[2.4378704,48.8460496]},{"NomBarreau":"VAL DE MARNE","avNom":"TABAK","avPrenom":"Yony","cbRaisonSociale":"TABAK YONY","cbSiretSiren":"","cbAdresse1":"30 Cours Marigny","cbAdresse2":"","cbCp":"94300","cbVille":"VINCENNES","spLibelle1":"","spLibelle2":"","acDateSerment":"","coordinates":[2.4401543,48.8466535]},{"NomBarreau":"VAL DE MARNE","avNom":"TANCELIN","avPrenom":"Aurélie","cbRaisonSociale":"TANCELIN AURELIE","cbSiretSiren":"800694044","cbAdresse1":"2 BIS rue des deux communes","cbAdresse2":"","cbCp":"94300","cbVille":"VINCENNES","spLibelle1":"","spLibelle2":"","acDateSerment":"","coordinates":[2.4294037,48.8496568]},{"NomBarreau":"VAL DE MARNE","avNom":"TARAUD","avPrenom":"Isabelle","cbRaisonSociale":"TARAUD ISABELLE","cbSiretSiren":"422044321","cbAdresse1":"28 BIS rue de l'Eglise","cbAdresse2":"","cbCp":"94300","cbVille":"VINCENNES","spLibelle1":"Droit de la sécurité sociale et de la protection sociale","spLibelle2":"Droit du travail","acDateSerment":"","coordinates":[2.438207,48.8474951]},{"NomBarreau":"VAL DE MARNE","avNom":"TESSIER","avPrenom":"Clémence","cbRaisonSociale":"TESSIER CLEMENCE","cbSiretSiren":"811166479","cbAdresse1":"2 Bis Rue des Deux Communes","cbAdresse2":"","cbCp":"94300","cbVille":"VINCENNES","spLibelle1":"","spLibelle2":"","acDateSerment":"","coordinates":[2.4294037,48.8496568]},{"NomBarreau":"VAL DE MARNE","avNom":"THOUVENIN","avPrenom":"Claire","cbRaisonSociale":"THOUVENIN CLAIRE","cbSiretSiren":"432472363","cbAdresse1":"9 Rue Villebois Mareuil","cbAdresse2":"","cbCp":"94300","cbVille":"VINCENNES","spLibelle1":"","spLibelle2":"","acDateSerment":"","coordinates":[2.4334874,48.846475]},{"NomBarreau":"VAL DE MARNE","avNom":"TICHIT","avPrenom":"Caroline","cbRaisonSociale":"TICHIT CAROLINE","cbSiretSiren":"445375793","cbAdresse1":"60 Avenue de Paris","cbAdresse2":"","cbCp":"94300","cbVille":"VINCENNES","spLibelle1":"","spLibelle2":"","acDateSerment":"","coordinates":[2.431168,48.8453907]},{"NomBarreau":"VAL DE MARNE","avNom":"TIDIER","avPrenom":"Sophie","cbRaisonSociale":"TIDIER SOPHIE","cbSiretSiren":"518924873","cbAdresse1":"1 Rue de l'Eglise","cbAdresse2":"","cbCp":"94300","cbVille":"VINCENNES","spLibelle1":"","spLibelle2":"","acDateSerment":"","coordinates":[2.4378723,48.8474543]}]