[{"NomBarreau":"LILLE","avNom":"DAVID","avPrenom":"Jérémy","cbRaisonSociale":"DAVID JEREMY","cbSiretSiren":"799201934","cbAdresse1":"429, rue de Quesnoy","cbAdresse2":"","cbCp":"59118","cbVille":"WAMBRECHIES","spLibelle1":"","spLibelle2":"","acDateSerment":"","coordinates":[3.0431126,50.6948208]},{"NomBarreau":"LILLE","avNom":"DENECKER","avPrenom":"Gabriel","cbRaisonSociale":"TRAITS D'UNION","cbSiretSiren":"838726172","cbAdresse1":"101, Quai de l'Ecluse","cbAdresse2":"","cbCp":"59118","cbVille":"WAMBRECHIES","spLibelle1":"","spLibelle2":"","acDateSerment":"","coordinates":[3.0536677,50.6874817]},{"NomBarreau":"LILLE","avNom":"DUCROCQ","avPrenom":"Stéphane","cbRaisonSociale":"ADESA","cbSiretSiren":"850581042","cbAdresse1":"150, Avenue de l'Espace","cbAdresse2":"Batiment A5, lot 2","cbCp":"59118","cbVille":"WAMBRECHIES","spLibelle1":"","spLibelle2":"","acDateSerment":"","coordinates":[3.0628929,50.6897583]},{"NomBarreau":"LILLE","avNom":"LEFEBVRE-VANDEVELDE","avPrenom":"Catherine","cbRaisonSociale":"CLV AVOCAT","cbSiretSiren":"814628129","cbAdresse1":"435, rue de Marquette","cbAdresse2":"Zac du Moulin","cbCp":"59118","cbVille":"WAMBRECHIES","spLibelle1":"","spLibelle2":"","acDateSerment":"","coordinates":[3.0612474,50.684195]},{"NomBarreau":"LILLE","avNom":"MERDJI","avPrenom":"Smaine","cbRaisonSociale":"TRAITS D'UNION","cbSiretSiren":"838726172","cbAdresse1":"101, Quai de l'Ecluse","cbAdresse2":"","cbCp":"59118","cbVille":"WAMBRECHIES","spLibelle1":"","spLibelle2":"","acDateSerment":"","coordinates":[3.0536677,50.6874817]},{"NomBarreau":"LILLE","avNom":"RAMANAH-BLIN","avPrenom":"Vanina Latchmee","cbRaisonSociale":"RAMANAH-BLIN VANINA LATCHMEE","cbSiretSiren":"818986341","cbAdresse1":"150, Avenue de l'Espace","cbAdresse2":"Ecospace","cbCp":"59118","cbVille":"WAMBRECHIES","spLibelle1":"","spLibelle2":"","acDateSerment":"","coordinates":[3.0628929,50.6897583]},{"NomBarreau":"LILLE","avNom":"VERHAEGHE","avPrenom":"Coralie","cbRaisonSociale":"VERHAEGHE CORALIE","cbSiretSiren":"799058466","cbAdresse1":"Ecospace","cbAdresse2":"150 avenue de l'Espace","cbCp":"59118","cbVille":"WAMBRECHIES","spLibelle1":"","spLibelle2":"","acDateSerment":"","coordinates":[3.063143752685536,50.69029215]}]